# 
# Header Description:
# 
# Version: v2.0.0.1 Platform: 10 Manufacturer: Google Model: Pixel 4
# 
# Raw,ElapsedRealtimeNanos,TimeNanos,LeapSecond,TimeUncertaintyNanos,FullBiasNanos,BiasNanos,BiasUncertaintyNanos,DriftNanosPerSecond,DriftUncertaintyNanosPerSecond,HardwareClockDiscontinuityCount,Svid,TimeOffsetNanos,State,ReceivedSvTimeNanos,ReceivedSvTimeUncertaintyNanos,Cn0DbHz,PseudorangeRateMetersPerSecond,PseudorangeRateUncertaintyMetersPerSecond,AccumulatedDeltaRangeState,AccumulatedDeltaRangeMeters,AccumulatedDeltaRangeUncertaintyMeters,CarrierFrequencyHz,CarrierCycles,CarrierPhase,CarrierPhaseUncertainty,MultipathIndicator,SnrInDb,ConstellationType,AgcDb,CarrierFrequencyHz,UserLatitude,UserLongitude,UserAltitude
# 
# Fix,Provider,Latitude,Longitude,Altitude,Speed,Accuracy,(UTC)TimeInMs,ElapsedRealtimeNanos
# 
# Nav,Svid,Type,Status,MessageId,Sub-messageId,Data(Bytes)
# 
Fix,gps,51.524702,-0.134193,76.344177,0.000000,4.320287,1582195517000,232774899189798
Raw,232774915921050,649579205000000,,,-1265581155241043118,-0.35393309593200684,59.66410753899254,-6.430288974061327,19.342733811047257,147,5,0.0,16399,384334364524703,16,29.8,725.02197265625,0.029900001361966133,21,5468.3640508678445,0.00281634630106073,1.57542003E9,,,,0,,1,0.21,1.57542003E9,360.0,NaN,NaN
Raw,232774915921050,649579205000000,,,-1265581155241043118,-0.35393309593200684,59.66410753899254,-6.430288974061327,19.342733811047257,147,13,0.0,16399,384334377916773,17,28.8,238.63124084472656,0.050700001418590546,25,1857.3950343313281,0.0030066398239606148,1.57542003E9,,,,0,,1,0.21,1.57542003E9,360.0,NaN,NaN
Raw,232774915921050,649579205000000,,,-1265581155241043118,-0.35393309593200684,59.66410753899254,-6.430288974061327,19.342733811047257,147,15,0.0,16399,384334378431081,8,36.4,-92.67705535888672,0.04660000279545784,25,-706.8170988317795,0.001160791358090767,1.57542003E9,,,,0,,1,0.21,1.57542003E9,360.0,NaN,NaN
Raw,232774915921050,649579205000000,,,-1265581155241043118,-0.35393309593200684,59.66410753899254,-6.430288974061327,19.342733811047257,147,17,0.0,16399,384334363969383,12,32.5,-534.5974731445312,0.026100000366568565,25,-4116.404394986234,0.001807789796734829,1.57542003E9,,,,0,,1,0.21,1.57542003E9,360.0,NaN,NaN
Raw,232774915921050,649579205000000,,,-1265581155241043118,-0.35393309593200684,59.66410753899254,-6.430288974061327,19.342733811047257,147,20,0.0,16399,384334369679026,5,41.3,-336.9103088378906,0.03180000185966492,25,-2593.89656951493,6.850571963914755E-4,1.57542003E9,,,,0,,1,0.21,1.57542003E9,360.0,NaN,NaN
Raw,232774915921050,649579205000000,,,-1265581155241043118,-0.35393309593200684,59.66410753899254,-6.430288974061327,19.342733811047257,147,24,0.0,16399,384334370902553,21,26.2,-578.5435180664062,0.04170000180602074,21,-4351.313870895285,0.005442398901996786,1.57542003E9,,,,0,,1,0.21,1.57542003E9,360.0,NaN,NaN
Raw,232774915921050,649579205000000,,,-1265581155241043118,-0.35393309593200684,59.66410753899254,-6.430288974061327,19.342733811047257,147,28,0.0,16399,384334374332699,6,39.4,207.891357421875,0.0398000031709671,25,1618.5216361398109,8.372921387687362E-4,1.57542003E9,,,,0,,1,0.21,1.57542003E9,360.0,NaN,NaN
Raw,232774915921050,649579205000000,,,-1265581155241043118,-0.35393309593200684,59.66410753899254,-6.430288974061327,19.342733811047257,147,30,0.0,16399,384334367623239,16,29.7,593.114501953125,0.03440000116825104,17,4596.087758354118,0.00281634630106073,1.57542003E9,,,,0,,1,0.21,1.57542003E9,360.0,NaN,NaN
Raw,232774915921050,649579205000000,,,-1265581155241043118,-0.35393309593200684,59.66410753899254,-6.430288974061327,19.342733811047257,147,14,0.0,49359,49516382201333,9,35.3,-6.244668483734131,0.20810000598430634,25,-35.116547314756694,0.0013131822554185268,1.59806246E9,,,,0,,3,-0.86,1.59806246E9,360.0,NaN,NaN
Raw,232774915921050,649579205000000,,,-1265581155241043118,-0.35393309593200684,59.66410753899254,-6.430288974061327,19.342733811047257,147,22,0.0,49359,49516368633356,21,26.9,-134.39935302734375,0.2387000024318695,29,-606.190093651425,0.005357743897484537,1.60031245E9,,,,0,,3,-0.86,1.60031245E9,360.0,NaN,NaN
Raw,232774915921050,649579205000000,,,-1265581155241043118,-0.35393309593200684,59.66410753899254,-6.430288974061327,19.342733811047257,147,13,0.0,49359,49516374602958,12,32.8,650.3388671875,0.24260000884532928,25,4781.124066757043,0.0017790447381518853,1.60087501E9,,,,0,,3,-0.86,1.60087501E9,360.0,NaN,NaN
Raw,232774915921050,649579205000000,,,-1265581155241043118,-0.35393309593200684,59.66410753899254,-6.430288974061327,19.342733811047257,147,15,0.0,49359,49516374534464,14,30.4,-646.7173461914062,0.24390000104904175,29,-4230.053374102769,0.0023579182120561683,1.602E9,,,,0,,3,-0.86,1.602E9,360.0,NaN,NaN
Raw,232774915921050,649579205000000,,,-1265581155241043118,-0.35393309593200684,59.66410753899254,-6.430288974061327,19.342733811047257,147,5,0.0,49359,49516377370954,5,40.3,-540.4463500976562,0.24410000443458557,25,-3957.0603378788933,7.295756082573676E-4,1.60256256E9,,,,0,,3,-0.86,1.60256256E9,360.0,NaN,NaN
Raw,232774915921050,649579205000000,,,-1265581155241043118,-0.35393309593200684,59.66410753899254,-6.430288974061327,19.342733811047257,147,3,0.0,49359,49516371256810,19,27.2,781.205322265625,0.24230000376701355,29,5737.513772849396,0.0031757429127933436,1.60481254E9,,,,0,,3,-0.86,1.60481254E9,360.0,NaN,NaN
Raw,232774915921050,649579205000000,,,-1265581155241043118,-0.35393309593200684,59.66410753899254,-6.430288974061327,19.342733811047257,147,4,0.0,49359,49516381464161,5,40.5,233.47999572753906,0.20509999990463257,25,1536.107581780924,7.282974831186631E-4,1.60537498E9,,,,0,,3,-0.86,1.60537498E9,360.0,NaN,NaN
Raw,232774915921050,649579205000000,,,-1265581155241043118,-0.35393309593200684,59.66410753899254,-6.430288974061327,19.342733811047257,147,37,0.0,16399,384320366151756,6,39.4,484.4502258300781,0.027800001204013824,25,3726.178271132926,8.449737438469402E-4,1.56109798E9,,,,0,,5,0.11,1.56109798E9,360.0,NaN,NaN
Raw,232774915921050,649579205000000,,,-1265581155241043118,-0.35393309593200684,59.66410753899254,-6.430288974061327,19.342733811047257,147,22,0.0,16399,384320366421890,5,40.2,-390.2074890136719,0.0276000015437603,25,-2980.40981135553,7.489539839688142E-4,1.56109798E9,,,,0,,5,0.11,1.56109798E9,360.0,NaN,NaN
Raw,232774915921050,649579205000000,,,-1265581155241043118,-0.35393309593200684,59.66410753899254,-6.430288974061327,19.342733811047257,147,20,0.0,16399,384320362654726,24,25.8,641.6800537109375,0.03629999980330467,19,3761.6672205610284,0.1920394882785269,1.56109798E9,,,,0,,5,0.11,1.56109798E9,360.0,NaN,NaN
Raw,232774915921050,649579205000000,,,-1265581155241043118,-0.35393309593200684,59.66410753899254,-6.430288974061327,19.342733811047257,147,19,0.0,16399,384320372385215,21,26.7,219.13490295410156,0.04470000043511391,21,1289.5578801744432,0.005492329335005111,1.56109798E9,,,,0,,5,0.11,1.56109798E9,360.0,NaN,NaN
Raw,232774915921050,649579205000000,,,-1265581155241043118,-0.35393309593200684,59.66410753899254,-6.430288974061327,19.342733811047257,147,10,0.0,16399,384320313545449,10,34.1,169.34190368652344,0.04010000079870224,25,1000.0736593822176,0.001536315979199305,1.56109798E9,,,,0,,5,0.11,1.56109798E9,360.0,NaN,NaN
Raw,232774915921050,649579205000000,,,-1265581155241043118,-0.35393309593200684,59.66410753899254,-6.430288974061327,19.342733811047257,147,1,0.0,23567,384334361366718,4,44.3,396.2742919921875,0.04330000281333923,25,3037.5250515651255,0.0010656445080284298,1.57542003E9,,,,0,,6,0.11,1.57542003E9,360.0,NaN,NaN
Raw,232774915921050,649579205000000,,,-1265581155241043118,-0.35393309593200684,59.66410753899254,-6.430288974061327,19.342733811047257,147,4,0.0,23567,384334359302670,16,29.8,506.3977355957031,0.052400000393390656,25,3330.1850468462926,0.006146485344343376,1.57542003E9,,,,0,,6,0.11,1.57542003E9,360.0,NaN,NaN
Raw,232774915921050,649579205000000,,,-1265581155241043118,-0.35393309593200684,59.66410753899254,-6.430288974061327,19.342733811047257,147,5,0.0,23567,384334361215219,8,36.0,-417.2168273925781,0.045100003480911255,25,-3175.4158282148455,0.0025499350854412276,1.57542003E9,,,,0,,6,0.11,1.57542003E9,360.0,NaN,NaN
Raw,232774915921050,649579205000000,,,-1265581155241043118,-0.35393309593200684,59.66410753899254,-6.430288974061327,19.342733811047257,147,9,0.0,23567,384334374280868,7,37.9,71.48744201660156,0.046400003135204315,25,556.3320535558081,0.0021883771969841777,1.57542003E9,,,,0,,6,0.11,1.57542003E9,360.0,NaN,NaN
Raw,232774915921050,649579205000000,,,-1265581155241043118,-0.35393309593200684,59.66410753899254,-6.430288974061327,19.342733811047257,147,24,0.0,23567,384334364622169,24,25.5,-548.599853515625,0.05730000138282776,21,-3359.0092625757566,0.017526047264890512,1.57542003E9,,,,0,,6,0.11,1.57542003E9,360.0,NaN,NaN
Raw,232774915921050,649579205000000,,,-1265581155241043118,-0.35393309593200684,59.66410753899254,-6.430288974061327,19.342733811047257,147,31,0.0,23567,384334367370466,11,33.9,-130.8362274169922,0.04970000311732292,25,-989.2708230139187,0.003596550258902148,1.57542003E9,,,,0,,6,0.11,1.57542003E9,360.0,NaN,NaN
Raw,232774915921050,649579205000000,,,-1265581155241043118,-0.35393309593200684,59.66410753899254,-6.430288974061327,19.342733811047257,147,24,0.0,81935,384334370910508,12,18.5,-580.7531127929688,1.0115000009536743,16,0.0,0.0,1.17645005E9,,,,0,,1,-2.54,1.17645005E9,360.0,NaN,NaN
Raw,232774915921050,649579205000000,,,-1265581155241043118,-0.35393309593200684,59.66410753899254,-6.430288974061327,19.342733811047257,147,30,0.0,81935,384334367631064,5,27.3,592.98486328125,0.5069999694824219,16,0.0,0.0,1.17645005E9,,,,0,,1,-2.54,1.17645005E9,360.0,NaN,NaN
Raw,232774915921050,649579205000000,,,-1265581155241043118,-0.35393309593200684,59.66410753899254,-6.430288974061327,19.342733811047257,147,1,0.0,81935,384334361373811,7,24.7,395.162353515625,0.06159999966621399,29,540.2893187661977,0.0411037634920868,1.17645005E9,,,,0,,6,-2.54,1.17645005E9,360.0,NaN,NaN
Raw,232774915921050,649579205000000,,,-1265581155241043118,-0.35393309593200684,59.66410753899254,-6.430288974061327,19.342733811047257,147,4,0.0,81935,384334359309747,6,25.5,505.7705078125,0.08300000429153442,25,699.1438517424136,0.010753742989341824,1.17645005E9,,,,0,,6,-2.54,1.17645005E9,360.0,NaN,NaN
Raw,232774915921050,649579205000000,,,-1265581155241043118,-0.35393309593200684,59.66410753899254,-6.430288974061327,19.342733811047257,147,5,0.0,81935,384334361222318,2,35.0,-418.2963562011719,0.010100000537931919,25,-567.293119246883,0.0017837963238157039,1.17645005E9,,,,0,,6,-2.54,1.17645005E9,360.0,NaN,NaN
Raw,232774915921050,649579205000000,,,-1265581155241043118,-0.35393309593200684,59.66410753899254,-6.430288974061327,19.342733811047257,147,9,0.0,81935,384334374287963,4,29.3,70.69562530517578,0.052000001072883606,25,99.12567552026131,0.0037714549693657518,1.17645005E9,,,,0,,6,-2.54,1.17645005E9,360.0,NaN,NaN
Raw,232774915921050,649579205000000,,,-1265581155241043118,-0.35393309593200684,59.66410753899254,-6.430288974061327,19.342733811047257,147,31,0.0,81935,384334367377558,3,32.3,-131.65106201171875,0.03710000216960907,25,-178.19933880413944,0.0024208662868967453,1.17645005E9,,,,0,,6,-2.54,1.17645005E9,360.0,NaN,NaN
Fix,gps,51.524698,-0.134202,74.622437,0.000000,4.024913,1582195518000,232775901569690
Raw,232775921568546,649580205000000,,,-1265581155241043125,-0.5586445331573486,53.665178711526096,-7.668184527133319,15.445867807841612,147,5,0.0,16399,384335364522267,16,29.5,727.9015502929688,0.029900001361966133,21,6194.022345213872,0.00281634630106073,1.57542003E9,,,,0,,1,0.52,1.57542003E9,360.0,NaN,NaN
Raw,232775921568546,649580205000000,,,-1265581155241043125,-0.5586445331573486,53.665178711526096,-7.668184527133319,15.445867807841612,147,13,0.0,16399,384335377915893,13,31.9,241.51116943359375,0.047600001096725464,25,2096.7030815157727,0.002074201012354331,1.57542003E9,,,,0,,1,0.52,1.57542003E9,360.0,NaN,NaN
Raw,232775921568546,649580205000000,,,-1265581155241043125,-0.5586445331573486,53.665178711526096,-7.668184527133319,15.445867807841612,147,15,0.0,16399,384335378431381,6,38.0,-89.75851440429688,0.04610000178217888,25,-798.8218168404203,9.324389888310735E-4,1.57542003E9,,,,0,,1,0.52,1.57542003E9,360.0,NaN,NaN
Raw,232775921568546,649580205000000,,,-1265581155241043125,-0.5586445331573486,53.665178711526096,-7.668184527133319,15.445867807841612,147,17,0.0,16399,384335363971146,11,33.0,-531.7477416992188,0.025700001046061516,25,-4650.373030808747,0.001655554942969963,1.57542003E9,,,,0,,1,0.52,1.57542003E9,360.0,NaN,NaN
Raw,232775921568546,649580205000000,,,-1265581155241043125,-0.5586445331573486,53.665178711526096,-7.668184527133319,15.445867807841612,147,20,0.0,16399,384335369680194,5,41.6,-333.9546203613281,0.03180000185966492,25,-2930.098381563481,6.850571963914755E-4,1.57542003E9,,,,0,,1,0.52,1.57542003E9,360.0,NaN,NaN
Raw,232775921568546,649580205000000,,,-1265581155241043125,-0.5586445331573486,53.665178711526096,-7.668184527133319,15.445867807841612,147,24,0.0,16399,384335370904451,16,29.5,-576.5140991210938,0.03890000283718109,17,-4929.048035412301,0.00281634630106073,1.57542003E9,,,,0,,1,0.52,1.57542003E9,360.0,NaN,NaN
Raw,232775921568546,649580205000000,,,-1265581155241043125,-0.5586445331573486,53.665178711526096,-7.668184527133319,15.445867807841612,147,28,0.0,16399,384335374331991,5,41.6,210.80841064453125,0.03930000215768814,25,1827.089938950681,6.850571963914755E-4,1.57542003E9,,,,0,,1,0.52,1.57542003E9,360.0,NaN,NaN
Raw,232775921568546,649580205000000,,,-1265581155241043125,-0.5586445331573486,53.665178711526096,-7.668184527133319,15.445867807841612,147,30,0.0,16399,384335367621292,14,30.2,595.9208374023438,0.033400002866983414,17,5189.842805338864,0.002397700231676362,1.57542003E9,,,,0,,1,0.52,1.57542003E9,360.0,NaN,NaN
Raw,232775921568546,649580205000000,,,-1265581155241043125,-0.5586445331573486,53.665178711526096,-7.668184527133319,15.445867807841612,147,14,0.0,49359,49517382201335,7,37.3,-3.0542831420898438,0.2224000096321106,25,-40.43297819746651,9.94266504915028E-4,1.59806246E9,,,,0,,3,-0.42,1.59806246E9,360.0,NaN,NaN
Raw,232775921568546,649580205000000,,,-1265581155241043125,-0.5586445331573486,53.665178711526096,-7.668184527133319,15.445867807841612,147,22,0.0,49359,49517368633703,24,25.6,-131.34213256835938,0.24529999494552612,21,-739.935420926136,0.18733370372433672,1.60031245E9,,,,0,,3,-0.42,1.60031245E9,360.0,NaN,NaN
Raw,232775921568546,649580205000000,,,-1265581155241043125,-0.5586445331573486,53.665178711526096,-7.668184527133319,15.445867807841612,147,13,0.0,49359,49517374600754,10,34.0,653.180419921875,0.24160000681877136,25,5432.098853372181,0.001498143056722028,1.60087501E9,,,,0,,3,-0.42,1.60087501E9,360.0,NaN,NaN
Raw,232775921568546,649580205000000,,,-1265581155241043125,-0.5586445331573486,53.665178711526096,-7.668184527133319,15.445867807841612,147,15,0.0,49359,49517374536508,21,26.5,-643.767822265625,0.7475000023841858,16,0.0,0.0,1.602E9,,,,0,,3,-0.42,1.602E9,360.0,NaN,NaN
Raw,232775921568546,649580205000000,,,-1265581155241043125,-0.5586445331573486,53.665178711526096,-7.668184527133319,15.445867807841612,147,5,0.0,49359,49517377372836,8,36.7,-537.5039672851562,0.2451000064611435,25,-4496.802218858571,0.0011411310885165566,1.60256256E9,,,,0,,3,-0.42,1.60256256E9,360.0,NaN,NaN
Raw,232775921568546,649580205000000,,,-1265581155241043125,-0.5586445331573486,53.665178711526096,-7.668184527133319,15.445867807841612,147,3,0.0,49359,49517371254192,17,28.8,784.072265625,0.6729999780654907,16,0.0,0.0,1.60481254E9,,,,0,,3,-0.42,1.60481254E9,360.0,NaN,NaN
Raw,232775921568546,649580205000000,,,-1265581155241043125,-0.5586445331573486,53.665178711526096,-7.668184527133319,15.445867807841612,147,4,0.0,49359,49517381463360,5,41.7,236.69540405273438,0.21979999542236328,25,1770.5209960066281,6.722746064909938E-4,1.60537498E9,,,,0,,3,-0.42,1.60537498E9,360.0,NaN,NaN
Raw,232775921568546,649580205000000,,,-1265581155241043125,-0.5586445331573486,53.665178711526096,-7.668184527133319,15.445867807841612,147,37,0.0,16399,384321366150134,5,40.9,487.3172607421875,0.0276000015437603,25,4211.287566841788,7.489539839688142E-4,1.56109798E9,,,,0,,5,0.47,1.56109798E9,360.0,NaN,NaN
Raw,232775921568546,649580205000000,,,-1265581155241043125,-0.5586445331573486,53.665178711526096,-7.668184527133319,15.445867807841612,147,22,0.0,16399,384321366423182,5,41.8,-387.2868957519531,0.027300002053380013,25,-3369.9250190915764,6.913421459270097E-4,1.56109798E9,,,,0,,5,0.47,1.56109798E9,360.0,NaN,NaN
Raw,232775921568546,649580205000000,,,-1265581155241043125,-0.5586445331573486,53.665178711526096,-7.668184527133319,15.445867807841612,147,19,0.0,16399,384321372384426,16,29.4,221.75445556640625,0.04190000146627426,21,1509.5099835348317,0.0028421844273806814,1.56109798E9,,,,0,,5,0.47,1.56109798E9,360.0,NaN,NaN
Raw,232775921568546,649580205000000,,,-1265581155241043125,-0.5586445331573486,53.665178711526096,-7.668184527133319,15.445867807841612,147,10,0.0,16399,384321313544892,9,35.3,172.1682891845703,0.03959999978542328,25,1170.0536041215305,0.0013442764594430532,1.56109798E9,,,,0,,5,0.47,1.56109798E9,360.0,NaN,NaN
Raw,232775921568546,649580205000000,,,-1265581155241043125,-0.5586445331573486,53.665178711526096,-7.668184527133319,15.445867807841612,147,1,0.0,23567,384335361365400,4,44.4,398.8945617675781,0.04330000281333923,25,3434.2924419608503,0.0010656445080284298,1.57542003E9,,,,0,,6,0.45,1.57542003E9,360.0,NaN,NaN
Raw,232775921568546,649580205000000,,,-1265581155241043125,-0.5586445331573486,53.665178711526096,-7.668184527133319,15.445867807841612,147,4,0.0,23567,384335359300983,13,31.9,508.9591979980469,0.05060000345110893,25,3836.9759599269337,0.004528989424958011,1.57542003E9,,,,0,,6,0.45,1.57542003E9,360.0,NaN,NaN
Raw,232775921568546,649580205000000,,,-1265581155241043125,-0.5586445331573486,53.665178711526096,-7.668184527133319,15.445867807841612,147,5,0.0,23567,384335361216610,7,37.4,-414.62945556640625,0.04490000009536743,25,-3592.1778796924273,0.0021883771969841777,1.57542003E9,,,,0,,6,0.45,1.57542003E9,360.0,NaN,NaN
Raw,232775921568546,649580205000000,,,-1265581155241043125,-0.5586445331573486,53.665178711526096,-7.668184527133319,15.445867807841612,147,9,0.0,23567,384335374280629,6,38.6,74.13780975341797,0.04610000178217888,25,628.3088599944801,0.0020551716777868216,1.57542003E9,,,,0,,6,0.45,1.57542003E9,360.0,NaN,NaN
Raw,232775921568546,649580205000000,,,-1265581155241043125,-0.5586445331573486,53.665178711526096,-7.668184527133319,15.445867807841612,147,24,0.0,23567,384335364624071,17,28.2,-546.0458984375,0.04920000210404396,25,-3907.1315828638176,0.006565131413727744,1.57542003E9,,,,0,,6,0.45,1.57542003E9,360.0,NaN,NaN
Raw,232775921568546,649580205000000,,,-1265581155241043125,-0.5586445331573486,53.665178711526096,-7.668184527133319,15.445867807841612,147,31,0.0,23567,384335367370903,11,33.4,-128.1812286376953,0.04970000311732292,25,-1119.6065782878497,0.003596550258902148,1.57542003E9,,,,0,,6,0.45,1.57542003E9,360.0,NaN,NaN
Raw,232775921568546,649580205000000,,,-1265581155241043125,-0.5586445331573486,53.665178711526096,-7.668184527133319,15.445867807841612,147,24,0.0,81935,384335370912436,8,23.9,-576.0005493164062,0.6814999580383301,16,0.0,0.0,1.17645005E9,,,,0,,1,3.01,1.17645005E9,360.0,NaN,NaN
Raw,232775921568546,649580205000000,,,-1265581155241043125,-0.5586445331573486,53.665178711526096,-7.668184527133319,15.445867807841612,147,30,0.0,81935,384335367629076,3,31.6,595.9634399414062,0.03830000013113022,27,1401.519120312321,0.0027776256465907277,1.17645005E9,,,,0,,1,3.01,1.17645005E9,360.0,NaN,NaN
Raw,232775921568546,649580205000000,,,-1265581155241043125,-0.5586445331573486,53.665178711526096,-7.668184527133319,15.445867807841612,147,1,0.0,81935,384335361372490,3,32.3,399.33746337890625,0.02810000069439411,25,937.1069345704033,0.0024208662868967453,1.17645005E9,,,,0,,6,3.01,1.17645005E9,360.0,NaN,NaN
Raw,232775921568546,649580205000000,,,-1265581155241043125,-0.5586445331573486,53.665178711526096,-7.668184527133319,15.445867807841612,147,4,0.0,81935,384335359308054,4,30.0,509.35870361328125,0.05770000070333481,25,1205.9907081835363,0.0032108332879374254,1.17645005E9,,,,0,,6,3.01,1.17645005E9,360.0,NaN,NaN
Raw,232775921568546,649580205000000,,,-1265581155241043125,-0.5586445331573486,53.665178711526096,-7.668184527133319,15.445867807841612,147,5,0.0,81935,384335361223708,2,38.8,-414.1843566894531,0.023000000044703484,25,-983.9916018669403,0.0012486574029382824,1.17645005E9,,,,0,,6,3.01,1.17645005E9,360.0,NaN,NaN
Raw,232775921568546,649580205000000,,,-1265581155241043125,-0.5586445331573486,53.665178711526096,-7.668184527133319,15.445867807841612,147,9,0.0,81935,384335374287723,3,33.4,74.51606750488281,0.04650000110268593,25,171.1457053280671,0.0022170039651624013,1.17645005E9,,,,0,,6,3.01,1.17645005E9,360.0,NaN,NaN
Raw,232775921568546,649580205000000,,,-1265581155241043125,-0.5586445331573486,53.665178711526096,-7.668184527133319,15.445867807841612,147,24,0.0,81935,384335364631094,16,16.7,-545.7142333984375,2.5824999809265137,16,0.0,0.0,1.17645005E9,,,,0,,6,3.01,1.17645005E9,360.0,NaN,NaN
Raw,232775921568546,649580205000000,,,-1265581155241043125,-0.5586445331573486,53.665178711526096,-7.668184527133319,15.445867807841612,147,31,0.0,81935,384335367377992,2,36.8,-127.7326431274414,0.033400002866983414,25,-308.4908187241622,0.0015544510042033504,1.17645005E9,,,,0,,6,3.01,1.17645005E9,360.0,NaN,NaN
Fix,gps,51.524697,-0.134210,74.067017,0.000000,3.926148,1582195519000,232776901901664
Raw,232776914231092,649581205000000,,,-1265581155241043127,-0.9949843883514404,45.38265056908131,1.6925955968849165,12.46351990882582,147,5,0.0,16399,384336364519819,13,31.2,727.6284790039062,0.013100000098347664,25,6922.043226153172,0.002074201012354331,1.57542003E9,,,,0,,1,0.47,1.57542003E9,360.0,NaN,NaN
Raw,232776914231092,649581205000000,,,-1265581155241043127,-0.9949843883514404,45.38265056908131,1.6925955968849165,12.46351990882582,147,13,0.0,16399,384336377915117,19,27.8,241.40707397460938,0.05130000039935112,25,2338.454224417099,0.003234992547669888,1.57542003E9,,,,0,,1,0.47,1.57542003E9,360.0,NaN,NaN
Raw,232776914231092,649581205000000,,,-1265581155241043127,-0.9949843883514404,45.38265056908131,1.6925955968849165,12.46351990882582,147,15,0.0,16399,384336378431680,6,39.4,-89.87129974365234,0.04580000042915344,25,-888.3544799810611,8.372921387687362E-4,1.57542003E9,,,,0,,1,0.47,1.57542003E9,360.0,NaN,NaN
Raw,232776914231092,649581205000000,,,-1265581155241043127,-0.9949843883514404,45.38265056908131,1.6925955968849165,12.46351990882582,147,17,0.0,16399,384336363972941,9,35.4,-531.8931274414062,0.009600000455975533,25,-5181.887126549882,0.0013320557236479321,1.57542003E9,,,,0,,1,0.47,1.57542003E9,360.0,NaN,NaN
Raw,232776914231092,649581205000000,,,-1265581155241043127,-0.9949843883514404,45.38265056908131,1.6925955968849165,12.46351990882582,147,20,0.0,16399,384336369681298,5,41.0,-334.1000061035156,0.03180000185966492,25,-3263.866334478156,6.850571963914755E-4,1.57542003E9,,,,0,,1,0.47,1.57542003E9,360.0,NaN,NaN
Raw,232776914231092,649581205000000,,,-1265581155241043127,-0.9949843883514404,45.38265056908131,1.6925955968849165,12.46351990882582,147,24,0.0,16399,384336370906420,14,30.3,-576.7100219726562,0.03790000081062317,25,-5505.365173635862,0.002397700231676362,1.57542003E9,,,,0,,1,0.47,1.57542003E9,360.0,NaN,NaN
Raw,232776914231092,649581205000000,,,-1265581155241043127,-0.9949843883514404,45.38265056908131,1.6925955968849165,12.46351990882582,147,28,0.0,16399,384336374331294,5,41.7,210.70684814453125,0.03930000215768814,25,2038.1371212619963,6.850571963914755E-4,1.57542003E9,,,,0,,1,0.47,1.57542003E9,360.0,NaN,NaN
Raw,232776914231092,649581205000000,,,-1265581155241043127,-0.9949843883514404,45.38265056908131,1.6925955968849165,12.46351990882582,147,30,0.0,16399,384336367619233,11,33.8,595.75048828125,0.031700000166893005,25,5785.961228378729,0.001655554942969963,1.57542003E9,,,,0,,1,0.47,1.57542003E9,360.0,NaN,NaN
Raw,232776914231092,649581205000000,,,-1265581155241043127,-0.9949843883514404,45.38265056908131,1.6925955968849165,12.46351990882582,147,14,0.0,49359,49518382201325,8,36.0,-3.1655960083007812,0.20759999752044678,25,-43.28878551476716,0.0011443444794587703,1.59806246E9,,,,0,,3,-0.46,1.59806246E9,360.0,NaN,NaN
Raw,232776914231092,649581205000000,,,-1265581155241043127,-0.9949843883514404,45.38265056908131,1.6925955968849165,12.46351990882582,147,22,0.0,49359,49518368634149,31,23.4,-131.428466796875,0.323199987411499,29,-870.9355102485137,0.18733370372433672,1.60031245E9,,,,0,,3,-0.46,1.60031245E9,360.0,NaN,NaN
Raw,232776914231092,649581205000000,,,-1265581155241043127,-0.9949843883514404,45.38265056908131,1.6925955968849165,12.46351990882582,147,13,0.0,49359,49518374598550,9,35.1,653.0441284179688,0.241100013256073,25,6085.498384679649,0.001310875152830925,1.60087501E9,,,,0,,3,-0.46,1.60087501E9,360.0,NaN,NaN
Raw,232776914231092,649581205000000,,,-1265581155241043127,-0.9949843883514404,45.38265056908131,1.6925955968849165,12.46351990882582,147,15,0.0,49359,49518374538712,16,29.0,-644.0377807617188,0.24490000307559967,27,-5518.8255446120365,0.002769618214569399,1.602E9,,,,0,,3,-0.46,1.602E9,360.0,NaN,NaN
Raw,232776914231092,649581205000000,,,-1265581155241043127,-0.9949843883514404,45.38265056908131,1.6925955968849165,12.46351990882582,147,5,0.0,49359,49518377374625,8,36.3,-537.6520385742188,0.2451000064611435,25,-5034.136740418553,0.0011411310885165566,1.60256256E9,,,,0,,3,-0.46,1.60256256E9,360.0,NaN,NaN
Raw,232776914231092,649581205000000,,,-1265581155241043127,-0.9949843883514404,45.38265056908131,1.6925955968849165,12.46351990882582,147,3,0.0,49359,49518371251611,13,31.6,783.976806640625,0.2386000007390976,27,7301.4466365754115,0.002036211542260784,1.60481254E9,,,,0,,3,-0.46,1.60481254E9,360.0,NaN,NaN
Raw,232776914231092,649581205000000,,,-1265581155241043127,-0.9949843883514404,45.38265056908131,1.6925955968849165,12.46351990882582,147,4,0.0,49359,49518381462574,4,42.5,236.61744689941406,0.2046000063419342,25,2007.45866928286,5.789031599380387E-4,1.60537498E9,,,,0,,3,-0.46,1.60537498E9,360.0,NaN,NaN
Raw,232776914231092,649581205000000,,,-1265581155241043127,-0.9949843883514404,45.38265056908131,1.6925955968849165,12.46351990882582,147,37,0.0,16399,384322366148518,7,37.3,487.1131286621094,0.028400002047419548,25,4698.7807181115095,0.0010178092579723537,1.56109798E9,,,,0,,5,0.4,1.56109798E9,360.0,NaN,NaN
Raw,232776914231092,649581205000000,,,-1265581155241043127,-0.9949843883514404,45.38265056908131,1.6925955968849165,12.46351990882582,147,22,0.0,16399,384322366424473,5,41.2,-387.457763671875,0.01230000052601099,25,-3757.038769322094,6.913421459270097E-4,1.56109798E9,,,,0,,5,0.4,1.56109798E9,360.0,NaN,NaN
Raw,232776914231092,649581205000000,,,-1265581155241043127,-0.9949843883514404,45.38265056908131,1.6925955968849165,12.46351990882582,147,20,0.0,16399,384322362650409,40,21.0,644.7053833007812,1.5994999408721924,16,0.0,0.0,1.56109798E9,,,,0,,5,0.4,1.56109798E9,360.0,NaN,NaN
Raw,232776914231092,649581205000000,,,-1265581155241043127,-0.9949843883514404,45.38265056908131,1.6925955968849165,12.46351990882582,147,19,0.0,16399,384322372383706,17,28.3,221.62774658203125,0.04320000112056732,17,1731.5086319690045,0.003034223768286223,1.56109798E9,,,,0,,5,0.4,1.56109798E9,360.0,NaN,NaN
Raw,232776914231092,649581205000000,,,-1265581155241043127,-0.9949843883514404,45.38265056908131,1.6925955968849165,12.46351990882582,147,10,0.0,16399,384322313544321,9,35.6,171.9512939453125,0.03959999978542328,25,1342.398126667523,0.0013442764594430532,1.56109798E9,,,,0,,5,0.4,1.56109798E9,360.0,NaN,NaN
Raw,232776914231092,649581205000000,,,-1265581155241043127,-0.9949843883514404,45.38265056908131,1.6925955968849165,12.46351990882582,147,1,0.0,23567,384336361364065,4,45.1,398.88470458984375,0.04200000315904617,25,3833.506108516276,9.13409654263564E-4,1.57542003E9,,,,0,,6,0.42,1.57542003E9,360.0,NaN,NaN
Raw,232776914231092,649581205000000,,,-1265581155241043127,-0.9949843883514404,45.38265056908131,1.6925955968849165,12.46351990882582,147,4,0.0,23567,384336359299279,12,32.9,508.9896240234375,0.05010000243782997,25,4346.2869884673755,0.003958108324583987,1.57542003E9,,,,0,,6,0.42,1.57542003E9,360.0,NaN,NaN
Raw,232776914231092,649581205000000,,,-1265581155241043127,-0.9949843883514404,45.38265056908131,1.6925955968849165,12.46351990882582,147,5,0.0,23567,384336361217997,8,36.6,-414.67095947265625,0.045100003480911255,25,-4006.5169398303697,0.0025499350854412276,1.57542003E9,,,,0,,6,0.42,1.57542003E9,360.0,NaN,NaN
Raw,232776914231092,649581205000000,,,-1265581155241043127,-0.9949843883514404,45.38265056908131,1.6925955968849165,12.46351990882582,147,9,0.0,23567,384336374280392,6,39.0,74.15115356445312,0.04580000042915344,25,702.7758299013847,0.0018458486430946374,1.57542003E9,,,,0,,6,0.42,1.57542003E9,360.0,NaN,NaN
Raw,232776914231092,649581205000000,,,-1265581155241043127,-0.9949843883514404,45.38265056908131,1.6925955968849165,12.46351990882582,147,24,0.0,23567,384336364625852,17,28.1,-546.0991821289062,0.04920000210404396,25,-4452.913405814686,0.006565131413727744,1.57542003E9,,,,0,,6,0.42,1.57542003E9,360.0,NaN,NaN
Raw,232776914231092,649581205000000,,,-1265581155241043127,-0.9949843883514404,45.38265056908131,1.6925955968849165,12.46351990882582,147,31,0.0,23567,384336367371324,12,32.6,-128.15480041503906,0.05010000243782997,25,-1247.4433016107942,0.003958108324583987,1.57542003E9,,,,0,,6,0.42,1.57542003E9,360.0,NaN,NaN
Raw,232776914231092,649581205000000,,,-1265581155241043127,-0.9949843883514404,45.38265056908131,1.6925955968849165,12.46351990882582,147,24,0.0,81935,384336370914359,6,25.4,-576.5230102539062,0.5914999842643738,16,0.0,0.0,1.17645005E9,,,,0,,1,4.21,1.17645005E9,360.0,NaN,NaN
Raw,232776914231092,649581205000000,,,-1265581155241043127,-0.9949843883514404,45.38265056908131,1.6925955968849165,12.46351990882582,147,30,0.0,81935,384336367627093,4,30.4,595.7438354492188,0.03970000147819519,25,1997.650793966887,0.0032108332879374254,1.17645005E9,,,,0,,1,4.21,1.17645005E9,360.0,NaN,NaN
Raw,232776914231092,649581205000000,,,-1265581155241043127,-0.9949843883514404,45.38265056908131,1.6925955968849165,12.46351990882582,147,1,0.0,81935,384336361371157,3,31.0,398.92047119140625,0.014300000853836536,25,1336.3039302227437,0.0027776256465907277,1.17645005E9,,,,0,,6,4.21,1.17645005E9,360.0,NaN,NaN
Raw,232776914231092,649581205000000,,,-1265581155241043127,-0.9949843883514404,45.38265056908131,1.6925955968849165,12.46351990882582,147,4,0.0,81935,384336359306352,4,29.4,508.9453430175781,0.05950000137090683,25,1715.2898709046372,0.0037714549693657518,1.17645005E9,,,,0,,6,4.21,1.17645005E9,360.0,NaN,NaN
Raw,232776914231092,649581205000000,,,-1265581155241043127,-0.9949843883514404,45.38265056908131,1.6925955968849165,12.46351990882582,147,5,0.0,81935,384336361225090,2,38.8,-414.683349609375,0.00800000037997961,25,-1398.3393745036271,0.0012486574029382824,1.17645005E9,,,,0,,6,4.21,1.17645005E9,360.0,NaN,NaN
Raw,232776914231092,649581205000000,,,-1265581155241043127,-0.9949843883514404,45.38265056908131,1.6925955968849165,12.46351990882582,147,9,0.0,81935,384336374287478,3,32.8,74.14588165283203,0.047600001096725464,25,245.60422786716285,0.0024208662868967453,1.17645005E9,,,,0,,6,4.21,1.17645005E9,360.0,NaN,NaN
Raw,232776914231092,649581205000000,,,-1265581155241043127,-0.9949843883514404,45.38265056908131,1.6925955968849165,12.46351990882582,147,24,0.0,81935,384336364632942,11,19.3,-545.1791381835938,0.9074999690055847,16,0.0,0.0,1.17645005E9,,,,0,,6,4.21,1.17645005E9,360.0,NaN,NaN
Raw,232776914231092,649581205000000,,,-1265581155241043127,-0.9949843883514404,45.38265056908131,1.6925955968849165,12.46351990882582,147,31,0.0,81935,384336367378418,2,37.2,-128.1752166748047,0.032600000500679016,25,-436.33941018452,0.0013505885638054542,1.17645005E9,,,,0,,6,4.21,1.17645005E9,360.0,NaN,NaN
Fix,gps,51.524695,-0.134215,75.007568,0.000000,3.790092,1582195520000,232777900935305
Raw,232777916772234,649582205000000,,,-1265581155241043129,-0.46274876594543457,42.62262518750504,0.9911227358448086,10.432012881543638,147,5,0.0,16399,384337364517366,16,29.8,728.0299682617188,0.029900001361966133,25,7649.8313303821,0.00281634630106073,1.57542003E9,,,,0,,1,0.47,1.57542003E9,360.0,NaN,NaN
Raw,232777916772234,649582205000000,,,-1265581155241043129,-0.46274876594543457,42.62262518750504,0.9911227358448086,10.432012881543638,147,13,0.0,16399,384337377914348,13,31.6,241.9168701171875,0.047600001096725464,25,2580.0577333676415,0.002074201012354331,1.57542003E9,,,,0,,1,0.47,1.57542003E9,360.0,NaN,NaN
Raw,232777916772234,649582205000000,,,-1265581155241043129,-0.46274876594543457,42.62262518750504,0.9911227358448086,10.432012881543638,147,15,0.0,16399,384337378431973,5,40.9,-89.3591079711914,0.04560000076889992,25,-978.0115439860596,7.42145288706399E-4,1.57542003E9,,,,0,,1,0.47,1.57542003E9,360.0,NaN,NaN
Raw,232777916772234,649582205000000,,,-1265581155241043129,-0.46274876594543457,42.62262518750504,0.9911227358448086,10.432012881543638,147,17,0.0,16399,384337363974695,8,36.2,-531.4317016601562,0.02410000190138817,25,-5713.6133648576715,0.001160791358090767,1.57542003E9,,,,0,,1,0.47,1.57542003E9,360.0,NaN,NaN
Raw,232777916772234,649582205000000,,,-1265581155241043129,-0.46274876594543457,42.62262518750504,0.9911227358448086,10.432012881543638,147,20,0.0,16399,384337369682407,5,40.5,-333.5851135253906,0.032099999487400055,25,-3597.751305001982,7.42145288706399E-4,1.57542003E9,,,,0,,1,0.47,1.57542003E9,360.0,NaN,NaN
Raw,232777916772234,649582205000000,,,-1265581155241043129,-0.46274876594543457,42.62262518750504,0.9911227358448086,10.432012881543638,147,24,0.0,16399,384337370908361,19,27.8,-576.2307739257812,0.040800001472234726,25,-6081.879507134623,0.003234992547669888,1.57542003E9,,,,0,,1,0.47,1.57542003E9,360.0,NaN,NaN
Raw,232777916772234,649582205000000,,,-1265581155241043129,-0.46274876594543457,42.62262518750504,0.9911227358448086,10.432012881543638,147,28,0.0,16399,384337374330568,5,41.9,211.22332763671875,0.03930000215768814,25,2249.0438011585516,6.850571963914755E-4,1.57542003E9,,,,0,,1,0.47,1.57542003E9,360.0,NaN,NaN
Raw,232777916772234,649582205000000,,,-1265581155241043129,-0.46274876594543457,42.62262518750504,0.9911227358448086,10.432012881543638,147,30,0.0,16399,384337367617271,8,36.7,596.2049560546875,0.030100001022219658,25,6381.882546678901,0.001160791358090767,1.57542003E9,,,,0,,1,0.47,1.57542003E9,360.0,NaN,NaN
Raw,232777916772234,649582205000000,,,-1265581155241043129,-0.46274876594543457,42.62262518750504,0.9911227358448086,10.432012881543638,147,14,0.0,49359,49519382201386,10,34.2,-2.6139674186706543,0.2085999995470047,25,-46.22751821010618,0.0015007797454374234,1.59806246E9,,,,0,,3,-0.42,1.59806246E9,360.0,NaN,NaN
Raw,232777916772234,649582205000000,,,-1265581155241043129,-0.46274876594543457,42.62262518750504,0.9911227358448086,10.432012881543638,147,22,0.0,49359,49519368635073,40,21.3,-130.32806396484375,0.9984999895095825,16,0.0,0.0,1.60031245E9,,,,0,,3,-0.42,1.60031245E9,360.0,NaN,NaN
Raw,232777916772234,649582205000000,,,-1265581155241043129,-0.46274876594543457,42.62262518750504,0.9911227358448086,10.432012881543638,147,13,0.0,49359,49519374596431,12,32.4,653.4923706054688,0.24260000884532928,25,6738.705659860243,0.0017790447381518853,1.60087501E9,,,,0,,3,-0.42,1.60087501E9,360.0,NaN,NaN
Raw,232777916772234,649582205000000,,,-1265581155241043129,-0.46274876594543457,42.62262518750504,0.9911227358448086,10.432012881543638,147,15,0.0,49359,49519374540890,21,26.9,-643.474853515625,0.24770000576972961,25,-6162.616250316378,0.005352100032671997,1.602E9,,,,0,,3,-0.42,1.602E9,360.0,NaN,NaN
Raw,232777916772234,649582205000000,,,-1265581155241043129,-0.46274876594543457,42.62262518750504,0.9911227358448086,10.432012881543638,147,5,0.0,49359,49519377376428,8,36.6,-537.156494140625,0.2451000064611435,25,-5571.577992323578,0.0011411310885165566,1.60256256E9,,,,0,,3,-0.42,1.60256256E9,360.0,NaN,NaN
Raw,232777916772234,649582205000000,,,-1265581155241043129,-0.46274876594543457,42.62262518750504,0.9911227358448086,10.432012881543638,147,3,0.0,49359,49519371248968,12,32.0,784.420166015625,0.23810000717639923,25,8085.590975954796,0.0017746797095208008,1.60481254E9,,,,0,,3,-0.42,1.60481254E9,360.0,NaN,NaN
Raw,232777916772234,649582205000000,,,-1265581155241043129,-0.46274876594543457,42.62262518750504,0.9911227358448086,10.432012881543638,147,4,0.0,49359,49519381461760,5,41.4,237.19003295898438,0.20480000972747803,25,2244.3094106665967,6.722746064909938E-4,1.60537498E9,,,,0,,3,-0.42,1.60537498E9,360.0,NaN,NaN
Raw,232777916772234,649582205000000,,,-1265581155241043129,-0.46274876594543457,42.62262518750504,0.9911227358448086,10.432012881543638,147,37,0.0,16399,384323366146893,7,37.5,487.58087158203125,0.028400002047419548,25,5186.057334755319,0.0010178092579723537,1.56109798E9,,,,0,,5,0.47,1.56109798E9,360.0,NaN,NaN
Raw,232777916772234,649582205000000,,,-1265581155241043129,-0.46274876594543457,42.62262518750504,0.9911227358448086,10.432012881543638,147,22,0.0,16399,384323366425762,4,42.2,-386.9769287109375,0.02710000053048134,25,-4144.29919294513,5.953224307615613E-4,1.56109798E9,,,,0,,5,0.47,1.56109798E9,360.0,NaN,NaN
Raw,232777916772234,649582205000000,,,-1265581155241043129,-0.46274876594543457,42.62262518750504,0.9911227358448086,10.432012881543638,147,20,0.0,16399,384323362648324,24,25.6,644.8432006835938,0.03629999980330467,19,5690.797418637608,0.1920394882785269,1.56109798E9,,,,0,,5,0.47,1.56109798E9,360.0,NaN,NaN
Raw,232777916772234,649582205000000,,,-1265581155241043129,-0.46274876594543457,42.62262518750504,0.9911227358448086,10.432012881543638,147,19,0.0,16399,384323372383026,27,24.3,222.15443420410156,0.059300001710653305,21,1953.355251985531,0.1920394882785269,1.56109798E9,,,,0,,5,0.47,1.56109798E9,360.0,NaN,NaN
Raw,232777916772234,649582205000000,,,-1265581155241043129,-0.46274876594543457,42.62262518750504,0.9911227358448086,10.432012881543638,147,10,0.0,16399,384323313543740,9,35.4,172.39183044433594,0.03959999978542328,25,1514.510153242672,0.0013442764594430532,1.56109798E9,,,,0,,5,0.47,1.56109798E9,360.0,NaN,NaN
Raw,232777916772234,649582205000000,,,-1265581155241043129,-0.46274876594543457,42.62262518750504,0.9911227358448086,10.432012881543638,147,1,0.0,23567,384337361362745,4,44.0,399.27691650390625,0.04330000281333923,25,4232.513970892517,0.0010656445080284298,1.57542003E9,,,,0,,6,0.47,1.57542003E9,360.0,NaN,NaN
Raw,232777916772234,649582205000000,,,-1265581155241043129,-0.46274876594543457,42.62262518750504,0.9911227358448086,10.432012881543638,147,4,0.0,23567,384337359297585,12,32.4,509.37005615234375,0.05010000243782997,25,4855.390549222801,0.003958108324583987,1.57542003E9,,,,0,,6,0.47,1.57542003E9,360.0,NaN,NaN
Raw,232777916772234,649582205000000,,,-1265581155241043129,-0.46274876594543457,42.62262518750504,0.9911227358448086,10.432012881543638,147,5,0.0,23567,384337361219383,8,36.1,-414.2823791503906,0.045100003480911255,25,-4421.047120451756,0.0025499350854412276,1.57542003E9,,,,0,,6,0.47,1.57542003E9,360.0,NaN,NaN
Raw,232777916772234,649582205000000,,,-1265581155241043129,-0.46274876594543457,42.62262518750504,0.9911227358448086,10.432012881543638,147,9,0.0,23567,384337374280151,6,38.7,74.55892944335938,0.04610000178217888,25,777.0767559267141,0.0020551716777868216,1.57542003E9,,,,0,,6,0.47,1.57542003E9,360.0,NaN,NaN
Raw,232777916772234,649582205000000,,,-1265581155241043129,-0.46274876594543457,42.62262518750504,0.9911227358448086,10.432012881543638,147,24,0.0,23567,384337364627616,17,28.3,-545.7338256835938,0.04920000210404396,25,-4998.903833233858,0.006565131413727744,1.57542003E9,,,,0,,6,0.47,1.57542003E9,360.0,NaN,NaN
Raw,232777916772234,649582205000000,,,-1265581155241043129,-0.46274876594543457,42.62262518750504,0.9911227358448086,10.432012881543638,147,31,0.0,23567,384337367371761,16,29.5,-127.73283386230469,0.052400000393390656,25,-1375.449422425018,0.006146485344343376,1.57542003E9,,,,0,,6,0.47,1.57542003E9,360.0,NaN,NaN
Raw,232777916772234,649582205000000,,,-1265581155241043129,-0.46274876594543457,42.62262518750504,0.9911227358448086,10.432012881543638,147,24,0.0,81935,384337370916279,7,24.7,-576.8414916992188,0.6315000057220459,16,0.0,0.0,1.17645005E9,,,,0,,1,1.19,1.17645005E9,360.0,NaN,NaN
Raw,232777916772234,649582205000000,,,-1265581155241043129,-0.46274876594543457,42.62262518750504,0.9911227358448086,10.432012881543638,147,30,0.0,81935,384337367625112,4,29.5,596.1929321289062,0.04150000214576721,25,2593.554170628931,0.0037714549693657518,1.17645005E9,,,,0,,1,1.19,1.17645005E9,360.0,NaN,NaN
Raw,232777916772234,649582205000000,,,-1265581155241043129,-0.46274876594543457,42.62262518750504,0.9911227358448086,10.432012881543638,147,1,0.0,81935,384337361369823,3,33.6,399.2659912109375,0.012000000104308128,25,1735.3114957398645,0.0022170039651624013,1.17645005E9,,,,0,,6,1.19,1.17645005E9,360.0,NaN,NaN
Raw,232777916772234,649582205000000,,,-1265581155241043129,-0.46274876594543457,42.62262518750504,0.9911227358448086,10.432012881543638,147,4,0.0,81935,384337359304653,4,29.4,509.4044189453125,0.05950000137090683,25,2224.388926834465,0.0037714549693657518,1.17645005E9,,,,0,,6,1.19,1.17645005E9,360.0,NaN,NaN
Raw,232777916772234,649582205000000,,,-1265581155241043129,-0.46274876594543457,42.62262518750504,0.9911227358448086,10.432012881543638,147,5,0.0,81935,384337361226472,2,38.6,-414.290283203125,0.00800000037997961,25,-1812.8713910055917,0.0012486574029382824,1.17645005E9,,,,0,,6,1.19,1.17645005E9,360.0,NaN,NaN
Raw,232777916772234,649582205000000,,,-1265581155241043129,-0.46274876594543457,42.62262518750504,0.9911227358448086,10.432012881543638,147,9,0.0,81935,384337374287230,3,33.6,74.52959442138672,0.04650000110268593,25,319.90730040880914,0.0022170039651624013,1.17645005E9,,,,0,,6,1.19,1.17645005E9,360.0,NaN,NaN
Raw,232777916772234,649582205000000,,,-1265581155241043129,-0.46274876594543457,42.62262518750504,0.9911227358448086,10.432012881543638,147,24,0.0,81935,384337364634758,14,17.5,-546.3768310546875,1.0824999809265137,16,0.0,0.0,1.17645005E9,,,,0,,6,1.19,1.17645005E9,360.0,NaN,NaN
Raw,232777916772234,649582205000000,,,-1265581155241043129,-0.46274876594543457,42.62262518750504,0.9911227358448086,10.432012881543638,147,31,0.0,81935,384337367378847,2,37.0,-127.7626724243164,0.032600000500679016,25,-564.3388979133733,0.0013505885638054542,1.17645005E9,,,,0,,6,1.19,1.17645005E9,360.0,NaN,NaN
Fix,gps,51.524694,-0.134221,75.070435,0.000000,3.790092,1582195521000,232778905128635
Raw,232778922739574,649583205000000,,,-1265581155241043127,-0.9912590980529785,41.50831955485046,2.440742375199644,11.487704102405543,147,5,0.0,16399,384338364514920,14,30.7,727.2081298828125,0.02890000119805336,25,8377.153545676292,0.002397700231676362,1.57542003E9,,,,0,,1,0.47,1.57542003E9,360.0,NaN,NaN
Raw,232778922739574,649583205000000,,,-1265581155241043127,-0.9912590980529785,41.50831955485046,2.440742375199644,11.487704102405543,147,13,0.0,16399,384338377913517,13,31.1,241.1130828857422,0.047600001096725464,25,2821.2867029367835,0.002074201012354331,1.57542003E9,,,,0,,1,0.47,1.57542003E9,360.0,NaN,NaN
Raw,232778922739574,649583205000000,,,-1265581155241043127,-0.9912590980529785,41.50831955485046,2.440742375199644,11.487704102405543,147,15,0.0,16399,384338378432257,6,39.9,-90.14444732666016,0.04580000042915344,25,-1068.0522458687906,8.372921387687362E-4,1.57542003E9,,,,0,,1,0.47,1.57542003E9,360.0,NaN,NaN
Raw,232778922739574,649583205000000,,,-1265581155241043127,-0.9912590980529785,41.50831955485046,2.440742375199644,11.487704102405543,147,17,0.0,16399,384338363976471,9,35.4,-532.2606201171875,0.02460000105202198,25,-6245.784817010902,0.0013320557236479321,1.57542003E9,,,,0,,1,0.47,1.57542003E9,360.0,NaN,NaN
Raw,232778922739574,649583205000000,,,-1265581155241043127,-0.9912590980529785,41.50831955485046,2.440742375199644,11.487704102405543,147,20,0.0,16399,384338369683522,5,40.2,-334.3514404296875,0.032099999487400055,25,-3932.0135720549542,7.42145288706399E-4,1.57542003E9,,,,0,,1,0.47,1.57542003E9,360.0,NaN,NaN
Raw,232778922739574,649583205000000,,,-1265581155241043127,-0.9912590980529785,41.50831955485046,2.440742375199644,11.487704102405543,147,24,0.0,16399,384338370910323,19,27.6,-577.0794677734375,0.040800001472234726,21,-6658.845094107746,0.003234992547669888,1.57542003E9,,,,0,,1,0.47,1.57542003E9,360.0,NaN,NaN
Raw,232778922739574,649583205000000,,,-1265581155241043127,-0.9912590980529785,41.50831955485046,2.440742375199644,11.487704102405543,147,28,0.0,16399,384338374329870,5,41.6,210.45399475097656,0.03930000215768814,25,2459.590603740145,6.850571963914755E-4,1.57542003E9,,,,0,,1,0.47,1.57542003E9,360.0,NaN,NaN
Raw,232778922739574,649583205000000,,,-1265581155241043127,-0.9912590980529785,41.50831955485046,2.440742375199644,11.487704102405543,147,30,0.0,16399,384338367615289,7,37.1,595.3433227539062,0.029900001361966133,25,6977.347768886988,0.0010085564157135064,1.57542003E9,,,,0,,1,0.47,1.57542003E9,360.0,NaN,NaN
Raw,232778922739574,649583205000000,,,-1265581155241043127,-0.9912590980529785,41.50831955485046,2.440742375199644,11.487704102405543,147,14,0.0,49359,49520382201421,10,34.2,-3.3466122150421143,0.2085999995470047,25,-49.52604693596863,0.0015007797454374234,1.59806246E9,,,,0,,3,-0.48,1.59806246E9,360.0,NaN,NaN
Raw,232778922739574,649583205000000,,,-1265581155241043127,-0.9912590980529785,41.50831955485046,2.440742375199644,11.487704102405543,147,13,0.0,49359,49520374594217,13,31.3,652.67822265625,0.24310000240802765,25,7391.4951267904125,0.0020412198384807895,1.60087501E9,,,,0,,3,-0.48,1.60087501E9,360.0,NaN,NaN
Raw,232778922739574,649583205000000,,,-1265581155241043127,-0.9912590980529785,41.50831955485046,2.440742375199644,11.487704102405543,147,15,0.0,49359,49520374543015,21,26.4,-644.3412475585938,0.24770000576972961,29,-6806.826636776926,0.005352100032671997,1.602E9,,,,0,,3,-0.48,1.602E9,360.0,NaN,NaN
Raw,232778922739574,649583205000000,,,-1265581155241043127,-0.9912590980529785,41.50831955485046,2.440742375199644,11.487704102405543,147,5,0.0,49359,49520377378195,7,37.2,-537.9375610351562,0.24490000307559967,25,-6109.401266153262,9.91474542321254E-4,1.60256256E9,,,,0,,3,-0.48,1.60256256E9,360.0,NaN,NaN
Raw,232778922739574,649583205000000,,,-1265581155241043127,-0.9912590980529785,41.50831955485046,2.440742375199644,11.487704102405543,147,3,0.0,49359,49520371246352,13,31.9,783.6052856445312,0.2386000007390976,25,8869.291762212728,0.002036211542260784,1.60481254E9,,,,0,,3,-0.48,1.60481254E9,360.0,NaN,NaN
Raw,232778922739574,649583205000000,,,-1265581155241043127,-0.9912590980529785,41.50831955485046,2.440742375199644,11.487704102405543,147,4,0.0,49359,49520381460972,5,40.8,236.48062133789062,0.20509999990463257,25,2480.816513587934,7.282974831186631E-4,1.60537498E9,,,,0,,3,-0.48,1.60537498E9,360.0,NaN,NaN
Raw,232778922739574,649583205000000,,,-1265581155241043127,-0.9912590980529785,41.50831955485046,2.440742375199644,11.487704102405543,147,37,0.0,16399,384324366145269,7,37.6,486.7555847167969,0.028400002047419548,25,5672.916538617184,0.0010178092579723537,1.56109798E9,,,,0,,5,0.34,1.56109798E9,360.0,NaN,NaN
Raw,232778922739574,649583205000000,,,-1265581155241043127,-0.9912590980529785,41.50831955485046,2.440742375199644,11.487704102405543,147,22,0.0,16399,384324366427065,5,41.0,-387.7657470703125,0.027300002053380013,25,-4531.9739687142,6.913421459270097E-4,1.56109798E9,,,,0,,5,0.34,1.56109798E9,360.0,NaN,NaN
Raw,232778922739574,649583205000000,,,-1265581155241043127,-0.9912590980529785,41.50831955485046,2.440742375199644,11.487704102405543,147,20,0.0,16399,384324362646181,24,25.5,643.8963623046875,0.03629999980330467,21,6334.86531944396,0.1920394882785269,1.56109798E9,,,,0,,5,0.34,1.56109798E9,360.0,NaN,NaN
Raw,232778922739574,649583205000000,,,-1265581155241043127,-0.9912590980529785,41.50831955485046,2.440742375199644,11.487704102405543,147,19,0.0,16399,384324372382298,35,22.4,221.7095947265625,0.8044999837875366,16,0.0,0.0,1.56109798E9,,,,0,,5,0.34,1.56109798E9,360.0,NaN,NaN
Raw,232778922739574,649583205000000,,,-1265581155241043127,-0.9912590980529785,41.50831955485046,2.440742375199644,11.487704102405543,147,10,0.0,16399,384324313543175,9,35.1,171.5281219482422,0.03959999978542328,25,1686.1661778421244,0.0013442764594430532,1.56109798E9,,,,0,,5,0.34,1.56109798E9,360.0,NaN,NaN
Raw,232778922739574,649583205000000,,,-1265581155241043127,-0.9912590980529785,41.50831955485046,2.440742375199644,11.487704102405543,147,1,0.0,23567,384338361361402,4,44.0,398.5169372558594,0.04330000281333923,25,4631.111326971911,0.0010656445080284298,1.57542003E9,,,,0,,6,0.42,1.57542003E9,360.0,NaN,NaN
Raw,232778922739574,649583205000000,,,-1265581155241043127,-0.9912590980529785,41.50831955485046,2.440742375199644,11.487704102405543,147,4,0.0,23567,384338359295895,12,32.2,508.58380126953125,0.05010000243782997,25,5364.034618039535,0.003958108324583987,1.57542003E9,,,,0,,6,0.42,1.57542003E9,360.0,NaN,NaN
Raw,232778922739574,649583205000000,,,-1265581155241043127,-0.9912590980529785,41.50831955485046,2.440742375199644,11.487704102405543,147,5,0.0,23567,384338361220768,8,36.0,-415.0772705078125,0.045100003480911255,25,-4836.025423933707,0.0025499350854412276,1.57542003E9,,,,0,,6,0.42,1.57542003E9,360.0,NaN,NaN
Raw,232778922739574,649583205000000,,,-1265581155241043127,-0.9912590980529785,41.50831955485046,2.440742375199644,11.487704102405543,147,9,0.0,23567,384338374279907,7,37.7,73.79695129394531,0.046400003135204315,25,850.9642088037715,0.0021883771969841777,1.57542003E9,,,,0,,6,0.42,1.57542003E9,360.0,NaN,NaN
Raw,232778922739574,649583205000000,,,-1265581155241043127,-0.9912590980529785,41.50831955485046,2.440742375199644,11.487704102405543,147,24,0.0,23567,384338364629424,24,25.8,-546.4913330078125,0.05730000138282776,25,-5545.31587843899,0.017526047264890512,1.57542003E9,,,,0,,6,0.42,1.57542003E9,360.0,NaN,NaN
Raw,232778922739574,649583205000000,,,-1265581155241043127,-0.9912590980529785,41.50831955485046,2.440742375199644,11.487704102405543,147,31,0.0,23567,384338367372180,14,30.8,-128.48086547851562,0.05140000209212303,25,-1503.8423136133933,0.005233075867304602,1.57542003E9,,,,0,,6,0.42,1.57542003E9,360.0,NaN,NaN
Raw,232778922739574,649583205000000,,,-1265581155241043127,-0.9912590980529785,41.50831955485046,2.440742375199644,11.487704102405543,147,24,0.0,81935,384338370918212,8,23.1,-577.3638916015625,0.6814999580383301,16,0.0,0.0,1.17645005E9,,,,0,,1,4.0,1.17645005E9,360.0,NaN,NaN
Raw,232778922739574,649583205000000,,,-1265581155241043127,-0.9912590980529785,41.50831955485046,2.440742375199644,11.487704102405543,147,30,0.0,81935,384338367623126,5,28.8,595.359619140625,0.04360000044107437,25,3189.018463051107,0.0040262828122019055,1.17645005E9,,,,0,,1,4.0,1.17645005E9,360.0,NaN,NaN
Raw,232778922739574,649583205000000,,,-1265581155241043127,-0.9912590980529785,41.50831955485046,2.440742375199644,11.487704102405543,147,1,0.0,81935,384338361368493,2,34.5,398.1510314941406,0.01100000087171793,25,2133.905930721574,0.0020386244039789624,1.17645005E9,,,,0,,6,4.0,1.17645005E9,360.0,NaN,NaN
Raw,232778922739574,649583205000000,,,-1265581155241043127,-0.9912590980529785,41.50831955485046,2.440742375199644,11.487704102405543,147,4,0.0,81935,384338359302957,5,28.7,508.05682373046875,0.06160000339150429,25,2733.0232880997737,0.0040262828122019055,1.17645005E9,,,,0,,6,4.0,1.17645005E9,360.0,NaN,NaN
Raw,232778922739574,649583205000000,,,-1265581155241043127,-0.9912590980529785,41.50831955485046,2.440742375199644,11.487704102405543,147,5,0.0,81935,384338361227857,2,39.1,-415.39013671875,0.007499999832361937,25,-2227.855332154156,0.001121243362856653,1.17645005E9,,,,0,,6,4.0,1.17645005E9,360.0,NaN,NaN
Raw,232778922739574,649583205000000,,,-1265581155241043127,-0.9912590980529785,41.50831955485046,2.440742375199644,11.487704102405543,147,9,0.0,81935,384338374286982,2,34.2,73.28916931152344,0.045500002801418304,25,393.7879442289246,0.0020386244039789624,1.17645005E9,,,,0,,6,4.0,1.17645005E9,360.0,NaN,NaN
Raw,232778922739574,649583205000000,,,-1265581155241043127,-0.9912590980529785,41.50831955485046,2.440742375199644,11.487704102405543,147,24,0.0,81935,384338364636587,12,18.3,-546.4150390625,1.002500057220459,16,0.0,0.0,1.17645005E9,,,,0,,6,4.0,1.17645005E9,360.0,NaN,NaN
Raw,232778922739574,649583205000000,,,-1265581155241043127,-0.9912590980529785,41.50831955485046,2.440742375199644,11.487704102405543,147,31,0.0,81935,384338367379274,2,37.1,-128.93028259277344,0.032600000500679016,25,-692.7556093922564,0.0013505885638054542,1.17645005E9,,,,0,,6,4.0,1.17645005E9,360.0,NaN,NaN
Fix,gps,51.524693,-0.134224,75.568970,0.000000,3.790092,1582195522000,232779900459046
Raw,232779912380089,649584205000000,,,-1265581155241043129,-0.704892635345459,38.421389035647735,-0.4402758738299355,9.461404560549685,147,5,0.0,16399,384339364512449,13,31.2,728.8709106445312,0.02810000069439411,25,9106.145989579481,0.002074201012354331,1.57542003E9,,,,0,,1,0.38,1.57542003E9,360.0,NaN,NaN
Raw,232779912380089,649584205000000,,,-1265581155241043129,-0.704892635345459,38.421389035647735,-0.4402758738299355,9.461404560549685,147,13,0.0,16399,384339377912724,14,30.9,242.94361877441406,0.04840000346302986,25,3064.2663870150695,0.002397700231676362,1.57542003E9,,,,0,,1,0.38,1.57542003E9,360.0,NaN,NaN
Raw,232779912380089,649584205000000,,,-1265581155241043129,-0.704892635345459,38.421389035647735,-0.4402758738299355,9.461404560549685,147,15,0.0,16399,384339378432564,5,40.3,-88.29542541503906,0.04560000076889992,25,-1156.3197617340763,7.42145288706399E-4,1.57542003E9,,,,0,,1,0.38,1.57542003E9,360.0,NaN,NaN
Raw,232779912380089,649584205000000,,,-1265581155241043129,-0.704892635345459,38.421389035647735,-0.4402758738299355,9.461404560549685,147,17,0.0,16399,384339363978233,9,35.9,-530.5831909179688,0.02460000105202198,25,-6776.258896847796,0.0013320557236479321,1.57542003E9,,,,0,,1,0.38,1.57542003E9,360.0,NaN,NaN
Raw,232779912380089,649584205000000,,,-1265581155241043129,-0.704892635345459,38.421389035647735,-0.4402758738299355,9.461404560549685,147,20,0.0,16399,384339369684629,5,40.2,-332.52252197265625,0.032099999487400055,25,-4264.500682773945,7.42145288706399E-4,1.57542003E9,,,,0,,1,0.38,1.57542003E9,360.0,NaN,NaN
Raw,232779912380089,649584205000000,,,-1265581155241043129,-0.704892635345459,38.421389035647735,-0.4402758738299355,9.461404560549685,147,24,0.0,16399,384339370912199,19,27.5,-575.3175659179688,0.040800001472234726,21,-7234.081146101859,0.003234992547669888,1.57542003E9,,,,0,,1,0.38,1.57542003E9,360.0,NaN,NaN
Raw,232779912380089,649584205000000,,,-1265581155241043129,-0.704892635345459,38.421389035647735,-0.4402758738299355,9.461404560549685,147,28,0.0,16399,384339374329165,5,41.8,212.26820373535156,0.03930000215768814,25,2671.9031585216712,6.850571963914755E-4,1.57542003E9,,,,0,,1,0.38,1.57542003E9,360.0,NaN,NaN
Raw,232779912380089,649584205000000,,,-1265581155241043129,-0.704892635345459,38.421389035647735,-0.4402758738299355,9.461404560549685,147,30,0.0,16399,384339367613300,8,36.9,597.0568237304688,0.030100001022219658,25,7574.502245004494,0.001160791358090767,1.57542003E9,,,,0,,1,0.38,1.57542003E9,360.0,NaN,NaN
Raw,232779912380089,649584205000000,,,-1265581155241043129,-0.704892635345459,38.421389035647735,-0.4402758738299355,9.461404560549685,147,14,0.0,49359,49521382201431,11,33.6,-1.5566209554672241,0.22420001029968262,25,-51.0366570553509,0.0016320979185651513,1.59806246E9,,,,0,,3,-0.62,1.59806246E9,360.0,NaN,NaN
Raw,232779912380089,649584205000000,,,-1265581155241043129,-0.704892635345459,38.421389035647735,-0.4402758738299355,9.461404560549685,147,22,0.0,49359,49521368635824,61,18.0,-129.37266540527344,1.9585001468658447,16,0.0,0.0,1.60031245E9,,,,0,,3,-0.62,1.60031245E9,360.0,NaN,NaN
Raw,232779912380089,649584205000000,,,-1265581155241043129,-0.704892635345459,38.421389035647735,-0.4402758738299355,9.461404560549685,147,13,0.0,49359,49521374591998,12,32.0,654.431640625,0.24260000884532928,25,8045.996210692519,0.0017790447381518853,1.60087501E9,,,,0,,3,-0.62,1.60087501E9,360.0,NaN,NaN
Raw,232779912380089,649584205000000,,,-1265581155241043129,-0.704892635345459,38.421389035647735,-0.4402758738299355,9.461404560549685,147,15,0.0,49359,49521374545165,19,27.7,-642.51025390625,0.2468000054359436,21,-7449.3588620407345,0.0031813183913669513,1.602E9,,,,0,,3,-0.62,1.602E9,360.0,NaN,NaN
Raw,232779912380089,649584205000000,,,-1265581155241043129,-0.704892635345459,38.421389035647735,-0.4402758738299355,9.461404560549685,147,5,0.0,49359,49521377379984,8,36.3,-536.0889282226562,0.2451000064611435,25,-6645.453006631796,0.0011411310885165566,1.60256256E9,,,,0,,3,-0.62,1.60256256E9,360.0,NaN,NaN
Raw,232779912380089,649584205000000,,,-1265581155241043129,-0.704892635345459,38.421389035647735,-0.4402758738299355,9.461404560549685,147,3,0.0,49359,49521371243720,10,34.1,785.3392333984375,0.2371000051498413,25,9654.70971845558,0.0014944672428451689,1.60481254E9,,,,0,,3,-0.62,1.60481254E9,360.0,NaN,NaN
Raw,232779912380089,649584205000000,,,-1265581155241043129,-0.704892635345459,38.421389035647735,-0.4402758738299355,9.461404560549685,147,4,0.0,49359,49521381460165,5,40.9,238.27401733398438,0.22010000050067902,25,2719.1366354674637,7.282974831186631E-4,1.60537498E9,,,,0,,3,-0.62,1.60537498E9,360.0,NaN,NaN
Raw,232779912380089,649584205000000,,,-1265581155241043129,-0.704892635345459,38.421389035647735,-0.4402758738299355,9.461404560549685,147,37,0.0,16399,384325366143644,7,37.7,488.4773864746094,0.028400002047419548,25,6161.4704826262205,0.0010178092579723537,1.56109798E9,,,,0,,5,0.24,1.56109798E9,360.0,NaN,NaN
Raw,232779912380089,649584205000000,,,-1265581155241043129,-0.704892635345459,38.421389035647735,-0.4402758738299355,9.461404560549685,147,22,0.0,16399,384325366428347,5,41.2,-385.98736572265625,0.027300002053380013,25,-4917.908606495755,6.913421459270097E-4,1.56109798E9,,,,0,,5,0.24,1.56109798E9,360.0,NaN,NaN
Raw,232779912380089,649584205000000,,,-1265581155241043129,-0.704892635345459,38.421389035647735,-0.4402758738299355,9.461404560549685,147,20,0.0,16399,384325362644013,24,25.7,645.6922607421875,0.03629999980330467,21,6980.56259046181,0.1920394882785269,1.56109798E9,,,,0,,5,0.24,1.56109798E9,360.0,NaN,NaN
Raw,232779912380089,649584205000000,,,-1265581155241043129,-0.704892635345459,38.421389035647735,-0.4402758738299355,9.461404560549685,147,19,0.0,16399,384325372381509,24,25.7,223.12973022460938,0.05130000039935112,19,2398.6359423809176,0.1920394882785269,1.56109798E9,,,,0,,5,0.24,1.56109798E9,360.0,NaN,NaN
Raw,232779912380089,649584205000000,,,-1265581155241043129,-0.704892635345459,38.421389035647735,-0.4402758738299355,9.461404560549685,147,10,0.0,16399,384325313542585,9,35.1,173.24069213867188,0.03959999978542328,25,1859.491712924196,0.0013442764594430532,1.56109798E9,,,,0,,5,0.24,1.56109798E9,360.0,NaN,NaN
Raw,232779912380089,649584205000000,,,-1265581155241043129,-0.704892635345459,38.421389035647735,-0.4402758738299355,9.461404560549685,147,1,0.0,23567,384339361360081,4,43.9,400.3330383300781,0.04350000247359276,25,5031.431554964654,0.0011227326889557481,1.57542003E9,,,,0,,6,0.32,1.57542003E9,360.0,NaN,NaN
Raw,232779912380089,649584205000000,,,-1265581155241043129,-0.704892635345459,38.421389035647735,-0.4402758738299355,9.461404560549685,147,4,0.0,23567,384339359294202,11,33.1,510.35601806640625,0.04970000311732292,25,5874.399132392834,0.003596550258902148,1.57542003E9,,,,0,,6,0.32,1.57542003E9,360.0,NaN,NaN
Raw,232779912380089,649584205000000,,,-1265581155241043129,-0.704892635345459,38.421389035647735,-0.4402758738299355,9.461404560549685,147,5,0.0,23567,384339361222141,8,36.5,-413.2431335449219,0.045100003480911255,25,-5249.286183920267,0.0025499350854412276,1.57542003E9,,,,0,,6,0.32,1.57542003E9,360.0,NaN,NaN
Raw,232779912380089,649584205000000,,,-1265581155241043129,-0.704892635345459,38.421389035647735,-0.4402758738299355,9.461404560549685,147,9,0.0,23567,384339374279651,6,38.2,75.65526580810547,0.04610000178217888,25,926.5972377322818,0.0020551716777868216,1.57542003E9,,,,0,,6,0.32,1.57542003E9,360.0,NaN,NaN
