# 
# Header Description:
# 
# Version: v2.0.0.1 Platform: 10 Manufacturer: Google Model: Pixel 4
# 
# Raw,ElapsedRealtimeNanos,TimeNanos,LeapSecond,TimeUncertaintyNanos,FullBiasNanos,BiasNanos,BiasUncertaintyNanos,DriftNanosPerSecond,DriftUncertaintyNanosPerSecond,HardwareClockDiscontinuityCount,Svid,TimeOffsetNanos,State,ReceivedSvTimeNanos,ReceivedSvTimeUncertaintyNanos,Cn0DbHz,PseudorangeRateMetersPerSecond,PseudorangeRateUncertaintyMetersPerSecond,AccumulatedDeltaRangeState,AccumulatedDeltaRangeMeters,AccumulatedDeltaRangeUncertaintyMeters,CarrierFrequencyHz,CarrierCycles,CarrierPhase,CarrierPhaseUncertainty,MultipathIndicator,SnrInDb,ConstellationType,AgcDb,CarrierFrequencyHz,UserLatitude,UserLongitude,UserAltitude
# 
# Fix,Provider,Latitude,Longitude,Altitude,Speed,Accuracy,(UTC)TimeInMs,ElapsedRealtimeNanos
# 
# Nav,Svid,Type,Status,MessageId,Sub-messageId,Data(Bytes)
# 
Fix,gps,51.524570,-0.134204,73.606995,0.000000,3.819276,1582203486000,240743917629380
Raw,240743951666779,657548201000000,,,-1265581155234500046,0.4918537139892578,48.30565376323648,0.8384432276096704,10.355865734004672,195,10,0.0,16399,392303357838971,24,25.6,209.99282836914062,0.058800000697374344,21,2114.5196902123485,0.19029366893311156,1.57542003E9,,,,0,,1,0.36,1.57542003E9,400.0,NaN,NaN
Raw,240743951666779,657548201000000,,,-1265581155234500046,0.4918537139892578,48.30565376323648,0.8384432276096704,10.355865734004672,195,12,0.0,16399,392303365624941,8,36.0,-455.8265075683594,0.012100000865757465,17,-5526.034868548494,0.001160791358090767,1.57542003E9,,,,0,,1,0.36,1.57542003E9,400.0,NaN,NaN
Raw,240743951666779,657548201000000,,,-1265581155234500046,0.4918537139892578,48.30565376323648,0.8384432276096704,10.355865734004672,195,17,0.0,16399,392303358734717,6,39.5,237.5858917236328,0.04580000042915344,25,2910.9708967442325,8.372921387687362E-4,1.57542003E9,,,,0,,1,0.36,1.57542003E9,400.0,NaN,NaN
Raw,240743951666779,657548201000000,,,-1265581155234500046,0.4918537139892578,48.30565376323648,0.8384432276096704,10.355865734004672,195,19,0.0,16399,392303362177368,9,35.9,-99.56237030029297,0.008100000210106373,25,-1220.0362897270782,0.0013320557236479321,1.57542003E9,,,,0,,1,0.36,1.57542003E9,400.0,NaN,NaN
Raw,240743951666779,657548201000000,,,-1265581155234500046,0.4918537139892578,48.30565376323648,0.8384432276096704,10.355865734004672,195,20,0.0,16399,392303355426034,14,30.3,528.0606689453125,0.04540000110864639,17,6105.931862720116,0.002397700231676362,1.57542003E9,,,,0,,1,0.36,1.57542003E9,400.0,NaN,NaN
Raw,240743951666779,657548201000000,,,-1265581155234500046,0.4918537139892578,48.30565376323648,0.8384432276096704,10.355865734004672,195,24,0.0,16399,392303368530491,21,26.2,21.0324649810791,0.038700003176927567,21,236.2468897920511,0.005442398901996786,1.57542003E9,,,,0,,1,0.36,1.57542003E9,400.0,NaN,NaN
Raw,240743951666779,657548201000000,,,-1265581155234500046,0.4918537139892578,48.30565376323648,0.8384432276096704,10.355865734004672,195,25,0.0,16399,392303356205103,21,26.0,-706.3370971679688,0.050700001418590546,21,-8187.522332458735,0.005442398901996786,1.57542003E9,,,,0,,1,0.36,1.57542003E9,400.0,NaN,NaN
Raw,240743951666779,657548201000000,,,-1265581155234500046,0.4918537139892578,48.30565376323648,0.8384432276096704,10.355865734004672,195,32,0.0,16399,392303355656569,17,28.2,-632.9490966796875,0.047700002789497375,17,-5741.080086974085,0.0030066398239606148,1.57542003E9,,,,0,,1,0.36,1.57542003E9,400.0,NaN,NaN
Raw,240743951666779,657548201000000,,,-1265581155234500046,0.4918537139892578,48.30565376323648,0.8384432276096704,10.355865734004672,195,14,0.0,49359,57485361244850,24,25.0,631.0725708007812,0.21979999542236328,21,7210.985717278643,0.18759745926927673,1.59806246E9,,,,0,,3,-1.92,1.59806246E9,400.0,NaN,NaN
Raw,240743951666779,657548201000000,,,-1265581155234500046,0.4918537139892578,48.30565376323648,0.8384432276096704,10.355865734004672,195,6,0.0,49359,57485367140289,13,31.9,-188.46995544433594,0.23260000348091125,25,-1428.8655552275936,0.002042655285247825,1.59975002E9,,,,0,,3,-1.92,1.59975002E9,400.0,NaN,NaN
Raw,240743951666779,657548201000000,,,-1265581155234500046,0.4918537139892578,48.30565376323648,0.8384432276096704,10.355865734004672,195,16,0.0,49359,57485365483353,80,16.7,-506.6343994140625,2.1089999675750732,16,0.0,0.0,1.60143744E9,,,,0,,3,-1.92,1.60143744E9,400.0,NaN,NaN
Raw,240743951666779,657548201000000,,,-1265581155234500046,0.4918537139892578,48.30565376323648,0.8384432276096704,10.355865734004672,195,15,0.0,49359,57485370845865,12,32.3,145.57565307617188,0.23660001158714294,25,1659.6528773191378,0.0017777954178659534,1.602E9,,,,0,,3,-1.92,1.602E9,400.0,NaN,NaN
Raw,240743951666779,657548201000000,,,-1265581155234500046,0.4918537139892578,48.30565376323648,0.8384432276096704,10.355865734004672,195,5,0.0,49359,57485365499733,12,32.5,648.271240234375,0.21410000324249268,25,6834.075687867495,0.0017771713445129138,1.60256256E9,,,,0,,3,-1.92,1.60256256E9,400.0,NaN,NaN
Raw,240743951666779,657548201000000,,,-1265581155234500046,0.4918537139892578,48.30565376323648,0.8384432276096704,10.355865734004672,195,23,0.0,49359,57485359081385,31,23.7,417.523681640625,0.33970001339912415,21,4400.041531909416,0.1869394431765222,1.60368755E9,,,,0,,3,-1.92,1.60368755E9,400.0,NaN,NaN
Raw,240743951666779,657548201000000,,,-1265581155234500046,0.4918537139892578,48.30565376323648,0.8384432276096704,10.355865734004672,195,17,0.0,49359,57485360014457,8,36.7,-692.95166015625,0.2046000063419342,25,-7308.077924385054,0.001139930794294887,1.60424998E9,,,,0,,3,-1.92,1.60424998E9,400.0,NaN,NaN
Raw,240743951666779,657548201000000,,,-1265581155234500046,0.4918537139892578,48.30565376323648,0.8384432276096704,10.355865734004672,195,30,0.0,16399,392289352676797,17,28.9,-565.416748046875,0.04320000112056732,21,-6587.104749939506,0.003034223768286223,1.56109798E9,,,,0,,5,0.08,1.56109798E9,400.0,NaN,NaN
Raw,240743951666779,657548201000000,,,-1265581155234500046,0.4918537139892578,48.30565376323648,0.8384432276096704,10.355865734004672,195,27,0.0,16399,392289354800044,7,37.6,-129.58248901367188,0.040400002151727676,25,-1522.8491872738675,0.0010178092579723537,1.56109798E9,,,,0,,5,0.08,1.56109798E9,400.0,NaN,NaN
Raw,240743951666779,657548201000000,,,-1265581155234500046,0.4918537139892578,48.30565376323648,0.8384432276096704,10.355865734004672,195,22,0.0,16399,392289355495096,19,27.2,419.5321044921875,0.04830000177025795,17,4923.979753233923,0.0032646714781548623,1.56109798E9,,,,0,,5,0.08,1.56109798E9,400.0,NaN,NaN
Raw,240743951666779,657548201000000,,,-1265581155234500046,0.4918537139892578,48.30565376323648,0.8384432276096704,10.355865734004672,195,21,0.0,16399,392289354841663,13,31.0,-142.59217834472656,0.04310000315308571,17,-1553.053541748109,0.0020932304434118673,1.56109798E9,,,,0,,5,0.08,1.56109798E9,400.0,NaN,NaN
Raw,240743951666779,657548201000000,,,-1265581155234500046,0.4918537139892578,48.30565376323648,0.8384432276096704,10.355865734004672,195,3,0.0,23567,392303348861645,8,36.8,-360.3031921386719,0.04360000044107437,25,-2001.6570977467188,0.0025499350854412276,1.57542003E9,,,,0,,6,0.3,1.57542003E9,400.0,NaN,NaN
Raw,240743951666779,657548201000000,,,-1265581155234500046,0.4918537139892578,48.30565376323648,0.8384432276096704,10.355865734004672,195,5,0.0,23567,392303354806989,16,29.3,169.91610717773438,0.05090000107884407,25,2093.790760697317,0.006146485344343376,1.57542003E9,,,,0,,6,0.3,1.57542003E9,400.0,NaN,NaN
Raw,240743951666779,657548201000000,,,-1265581155234500046,0.4918537139892578,48.30565376323648,0.8384432276096704,10.355865734004672,195,24,0.0,23567,392303363242308,14,30.0,-113.5957260131836,0.05140000209212303,25,-291.0731455896215,0.005233075867304602,1.57542003E9,,,,0,,6,0.3,1.57542003E9,400.0,NaN,NaN
Raw,240743951666779,657548201000000,,,-1265581155234500046,0.4918537139892578,48.30565376323648,0.8384432276096704,10.355865734004672,195,25,0.0,23567,392303346596826,21,26.3,-482.46807861328125,0.053700003772974014,25,-3163.345759323217,0.011874324619302384,1.57542003E9,,,,0,,6,0.3,1.57542003E9,400.0,NaN,NaN
Raw,240743951666779,657548201000000,,,-1265581155234500046,0.4918537139892578,48.30565376323648,0.8384432276096704,10.355865734004672,195,26,0.0,23567,392303346914612,27,24.2,40.21856689453125,0.643500030040741,16,0.0,0.0,1.57542003E9,,,,0,,6,0.3,1.57542003E9,400.0,NaN,NaN
Raw,240743951666779,657548201000000,,,-1265581155234500046,0.4918537139892578,48.30565376323648,0.8384432276096704,10.355865734004672,195,31,0.0,23567,392303352865938,6,39.6,361.40240478515625,0.04280000180006027,25,4454.467789415536,0.0018458486430946374,1.57542003E9,,,,0,,6,0.3,1.57542003E9,400.0,NaN,NaN
Raw,240743951666779,657548201000000,,,-1265581155234500046,0.4918537139892578,48.30565376323648,0.8384432276096704,10.355865734004672,195,33,0.0,23567,392303343964903,24,25.9,-388.1167297363281,0.055800002068281174,27,-4796.94276288973,0.017526047264890512,1.57542003E9,,,,0,,6,0.3,1.57542003E9,400.0,NaN,NaN
Raw,240743951666779,657548201000000,,,-1265581155234500046,0.4918537139892578,48.30565376323648,0.8384432276096704,10.355865734004672,195,24,0.0,81935,392303368538242,3,33.8,20.880146026611328,0.03750000149011612,25,109.94155342133463,0.0022170039651624013,1.17645005E9,,,,0,,1,2.27,1.17645005E9,400.0,NaN,NaN
Raw,240743951666779,657548201000000,,,-1265581155234500046,0.4918537139892578,48.30565376323648,0.8384432276096704,10.355865734004672,195,25,0.0,81935,392303356212798,11,19.7,-706.5872192382812,0.9404999613761902,16,0.0,0.0,1.17645005E9,,,,0,,1,2.27,1.17645005E9,400.0,NaN,NaN
Raw,240743951666779,657548201000000,,,-1265581155234500046,0.4918537139892578,48.30565376323648,0.8384432276096704,10.355865734004672,195,32,0.0,81935,392303355664441,7,24.5,-633.0473022460938,0.09760000556707382,29,-3389.7418195639434,0.25482803839368795,1.17645005E9,,,,0,,1,2.27,1.17645005E9,400.0,NaN,NaN
Raw,240743951666779,657548201000000,,,-1265581155234500046,0.4918537139892578,48.30565376323648,0.8384432276096704,10.355865734004672,195,3,0.0,81935,392303348868720,3,33.7,-360.19317626953125,0.03750000149011612,25,-1928.92553501058,0.0022170039651624013,1.17645005E9,,,,0,,6,2.27,1.17645005E9,400.0,NaN,NaN
Raw,240743951666779,657548201000000,,,-1265581155234500046,0.4918537139892578,48.30565376323648,0.8384432276096704,10.355865734004672,195,5,0.0,81935,392303354814049,5,28.1,170.11204528808594,0.054100003093481064,25,908.5828607574524,0.0040262828122019055,1.17645005E9,,,,0,,6,2.27,1.17645005E9,400.0,NaN,NaN
Raw,240743951666779,657548201000000,,,-1265581155234500046,0.4918537139892578,48.30565376323648,0.8384432276096704,10.355865734004672,195,24,0.0,81935,392303363249274,14,17.1,-111.563720703125,1.815999984741211,16,0.0,0.0,1.17645005E9,,,,0,,6,2.27,1.17645005E9,400.0,NaN,NaN
Raw,240743951666779,657548201000000,,,-1265581155234500046,0.4918537139892578,48.30565376323648,0.8384432276096704,10.355865734004672,195,26,0.0,81935,392303346921712,9,21.6,39.921905517578125,0.0544000007212162,29,208.2981008405195,0.25482803839368795,1.17645005E9,,,,0,,6,2.27,1.17645005E9,400.0,NaN,NaN
Raw,240743951666779,657548201000000,,,-1265581155234500046,0.4918537139892578,48.30565376323648,0.8384432276096704,10.355865734004672,195,31,0.0,81935,392303352873010,4,30.9,361.666748046875,0.047200001776218414,25,1932.8375198490403,0.0032108332879374254,1.17645005E9,,,,0,,6,2.27,1.17645005E9,400.0,NaN,NaN
Raw,240743951666779,657548201000000,,,-1265581155234500046,0.4918537139892578,48.30565376323648,0.8384432276096704,10.355865734004672,195,33,0.0,81935,392303343972017,7,24.0,-388.0760803222656,0.02160000056028366,25,-2077.6627493797023,0.08959753608771179,1.17645005E9,,,,0,,6,2.27,1.17645005E9,400.0,NaN,NaN
Fix,gps,51.524570,-0.134207,73.589355,0.000000,3.790092,1582203487000,240744915840261
Raw,240744958879536,657549201000000,,,-1265581155234500051,0.36585426330566406,51.39311542734504,0.8040394677527977,10.064739622971716,195,10,0.0,16399,392304357838247,17,28.0,209.75294494628906,0.050700001418590546,25,2324.1714412352603,0.0030066398239606148,1.57542003E9,,,,0,,1,0.59,1.57542003E9,400.0,NaN,NaN
Raw,240744958879536,657549201000000,,,-1265581155234500051,0.36585426330566406,51.39311542734504,0.8040394677527977,10.064739622971716,195,12,0.0,16399,392304365626496,9,35.4,-456.1016845703125,0.0276000015437603,25,-5982.247108107445,0.0013320557236479321,1.57542003E9,,,,0,,1,0.59,1.57542003E9,400.0,NaN,NaN
Raw,240744958879536,657549201000000,,,-1265581155234500051,0.36585426330566406,51.39311542734504,0.8040394677527977,10.064739622971716,195,13,0.0,16399,392304352994088,80,16.8,733.8485107421875,1.934499979019165,16,0.0,0.0,1.57542003E9,,,,0,,1,0.59,1.57542003E9,400.0,NaN,NaN
Raw,240744958879536,657549201000000,,,-1265581155234500051,0.36585426330566406,51.39311542734504,0.8040394677527977,10.064739622971716,195,15,0.0,16399,392304359116669,24,25.0,663.9580688476562,0.03180000185966492,19,304.82880250423,0.19029366893311156,1.57542003E9,,,,0,,1,0.59,1.57542003E9,400.0,NaN,NaN
Raw,240744958879536,657549201000000,,,-1265581155234500051,0.36585426330566406,51.39311542734504,0.8040394677527977,10.064739622971716,195,17,0.0,16399,392304358733921,5,40.1,237.3358612060547,0.04560000076889992,25,3148.1175183554706,7.42145288706399E-4,1.57542003E9,,,,0,,1,0.59,1.57542003E9,400.0,NaN,NaN
Raw,240744958879536,657549201000000,,,-1265581155234500051,0.36585426330566406,51.39311542734504,0.8040394677527977,10.064739622971716,195,19,0.0,16399,392304362177693,7,37.7,-99.76329040527344,0.007400000002235174,25,-1320.023422376151,0.0010085564157135064,1.57542003E9,,,,0,,1,0.59,1.57542003E9,400.0,NaN,NaN
Raw,240744958879536,657549201000000,,,-1265581155234500051,0.36585426330566406,51.39311542734504,0.8040394677527977,10.064739622971716,195,20,0.0,16399,392304355424304,17,28.5,527.7308959960938,0.047700002789497375,25,6633.511098182177,0.0030066398239606148,1.57542003E9,,,,0,,1,0.59,1.57542003E9,400.0,NaN,NaN
Raw,240744958879536,657549201000000,,,-1265581155234500051,0.36585426330566406,51.39311542734504,0.8040394677527977,10.064739622971716,195,24,0.0,16399,392304368530627,31,23.7,20.82783317565918,0.12319999933242798,21,257.0072193390505,0.19029366893311156,1.57542003E9,,,,0,,1,0.59,1.57542003E9,400.0,NaN,NaN
Raw,240744958879536,657549201000000,,,-1265581155234500051,0.36585426330566406,51.39311542734504,0.8040394677527977,10.064739622971716,195,25,0.0,16399,392304356207514,40,21.7,-707.740234375,0.8704999685287476,16,0.0,0.0,1.57542003E9,,,,0,,1,0.59,1.57542003E9,400.0,NaN,NaN
Raw,240744958879536,657549201000000,,,-1265581155234500051,0.36585426330566406,51.39311542734504,0.8040394677527977,10.064739622971716,195,32,0.0,16399,392304355658695,16,29.7,-633.3804931640625,0.046400003135204315,25,-6374.561652680652,0.00281634630106073,1.57542003E9,,,,0,,1,0.59,1.57542003E9,400.0,NaN,NaN
Raw,240744958879536,657549201000000,,,-1265581155234500051,0.36585426330566406,51.39311542734504,0.8040394677527977,10.064739622971716,195,14,0.0,49359,57486361242663,17,28.3,630.72021484375,0.21170000731945038,25,7841.617232595326,0.0029640397133290693,1.59806246E9,,,,0,,3,-1.66,1.59806246E9,400.0,NaN,NaN
Raw,240744958879536,657549201000000,,,-1265581155234500051,0.36585426330566406,51.39311542734504,0.8040394677527977,10.064739622971716,195,6,0.0,49359,57486367140892,14,30.4,-188.66143798828125,0.23340000212192535,25,-1617.7375716605602,0.0023612345291040655,1.59975002E9,,,,0,,3,-1.66,1.59975002E9,400.0,NaN,NaN
Raw,240744958879536,657549201000000,,,-1265581155234500051,0.36585426330566406,51.39311542734504,0.8040394677527977,10.064739622971716,195,16,0.0,49359,57486365484854,35,22.1,-506.5688781738281,0.9339999556541443,16,0.0,0.0,1.60143744E9,,,,0,,3,-1.66,1.60143744E9,400.0,NaN,NaN
Raw,240744958879536,657549201000000,,,-1265581155234500051,0.36585426330566406,51.39311542734504,0.8040394677527977,10.064739622971716,195,15,0.0,49359,57486370845345,12,32.8,145.30201721191406,0.23660001158714294,25,1804.7794006511901,0.0017777954178659534,1.602E9,,,,0,,3,-1.66,1.602E9,400.0,NaN,NaN
Raw,240744958879536,657549201000000,,,-1265581155234500051,0.36585426330566406,51.39311542734504,0.8040394677527977,10.064739622971716,195,5,0.0,49359,57486365497647,14,30.6,648.051513671875,0.2303999960422516,29,7481.909179972205,0.0023570904936865496,1.60256256E9,,,,0,,3,-1.66,1.60256256E9,400.0,NaN,NaN
Raw,240744958879536,657549201000000,,,-1265581155234500051,0.36585426330566406,51.39311542734504,0.8040394677527977,10.064739622971716,195,23,0.0,49359,57486359079923,53,19.4,417.6414489746094,1.1449999809265137,16,0.0,0.0,1.60368755E9,,,,0,,3,-1.66,1.60368755E9,400.0,NaN,NaN
Raw,240744958879536,657549201000000,,,-1265581155234500051,0.36585426330566406,51.39311542734504,0.8040394677527977,10.064739622971716,195,17,0.0,49359,57486360016787,8,36.5,-693.1719360351562,0.2046000063419342,25,-8001.496984528731,0.001139930794294887,1.60424998E9,,,,0,,3,-1.66,1.60424998E9,400.0,NaN,NaN
Raw,240744958879536,657549201000000,,,-1265581155234500051,0.36585426330566406,51.39311542734504,0.8040394677527977,10.064739622971716,195,30,0.0,16399,392290352678627,14,30.2,-565.751220703125,0.04090000316500664,17,-7152.989420829257,0.0024196975554572116,1.56109798E9,,,,0,,5,0.41,1.56109798E9,400.0,NaN,NaN
Raw,240744958879536,657549201000000,,,-1265581155234500051,0.36585426330566406,51.39311542734504,0.8040394677527977,10.064739622971716,195,28,0.0,16399,392290348358011,70,17.7,373.35357666015625,1.8385000228881836,16,0.0,0.0,1.56109798E9,,,,0,,5,0.41,1.56109798E9,400.0,NaN,NaN
Raw,240744958879536,657549201000000,,,-1265581155234500051,0.36585426330566406,51.39311542734504,0.8040394677527977,10.064739622971716,195,27,0.0,16399,392290354800486,5,40.2,-129.85562133789062,0.03960000351071358,25,-1652.8768768111163,7.489539839688142E-4,1.56109798E9,,,,0,,5,0.41,1.56109798E9,400.0,NaN,NaN
Raw,240744958879536,657549201000000,,,-1265581155234500051,0.36585426330566406,51.39311542734504,0.8040394677527977,10.064739622971716,195,22,0.0,16399,392290355493676,19,27.8,419.2742004394531,0.04830000177025795,17,5343.112223117834,0.0032646714781548623,1.56109798E9,,,,0,,5,0.41,1.56109798E9,400.0,NaN,NaN
Raw,240744958879536,657549201000000,,,-1265581155234500051,0.36585426330566406,51.39311542734504,0.8040394677527977,10.064739622971716,195,21,0.0,16399,392290354842159,14,30.8,-142.88768005371094,0.04390000179409981,17,-1696.1136273820616,0.0024196975554572116,1.56109798E9,,,,0,,5,0.41,1.56109798E9,400.0,NaN,NaN
Raw,240744958879536,657549201000000,,,-1265581155234500051,0.36585426330566406,51.39311542734504,0.8040394677527977,10.064739622971716,195,3,0.0,23567,392304348862830,8,36.6,-360.7062683105469,0.04360000044107437,25,-2362.461747261107,0.0025499350854412276,1.57542003E9,,,,0,,6,0.51,1.57542003E9,400.0,NaN,NaN
Raw,240744958879536,657549201000000,,,-1265581155234500051,0.36585426330566406,51.39311542734504,0.8040394677527977,10.064739622971716,195,5,0.0,23567,392304354806438,19,27.6,169.65728759765625,0.052800003439188004,25,2263.310162298741,0.007212130206821385,1.57542003E9,,,,0,,6,0.51,1.57542003E9,400.0,NaN,NaN
Raw,240744958879536,657549201000000,,,-1265581155234500051,0.36585426330566406,51.39311542734504,0.8040394677527977,10.064739622971716,195,9,0.0,23567,392304354321984,35,22.7,575.7810668945312,2.253499984741211,16,0.0,0.0,1.57542003E9,,,,0,,6,0.51,1.57542003E9,400.0,NaN,NaN
Raw,240744958879536,657549201000000,,,-1265581155234500051,0.36585426330566406,51.39311542734504,0.8040394677527977,10.064739622971716,195,24,0.0,23567,392304363242699,14,30.3,-113.89967346191406,0.05140000209212303,25,-405.0812548394923,0.005233075867304602,1.57542003E9,,,,0,,6,0.51,1.57542003E9,400.0,NaN,NaN
Raw,240744958879536,657549201000000,,,-1265581155234500051,0.36585426330566406,51.39311542734504,0.8040394677527977,10.064739622971716,195,25,0.0,23567,392304346598417,24,25.4,-482.6913146972656,0.06030000001192093,21,-3646.3065448779466,0.017526047264890512,1.57542003E9,,,,0,,6,0.51,1.57542003E9,400.0,NaN,NaN
Raw,240744958879536,657549201000000,,,-1265581155234500051,0.36585426330566406,51.39311542734504,0.8040394677527977,10.064739622971716,195,26,0.0,23567,392304346914451,40,21.2,40.06633377075195,0.8134999871253967,16,0.0,0.0,1.57542003E9,,,,0,,6,0.51,1.57542003E9,400.0,NaN,NaN
Raw,240744958879536,657549201000000,,,-1265581155234500051,0.36585426330566406,51.39311542734504,0.8040394677527977,10.064739622971716,195,31,0.0,23567,392304352864731,6,39.1,361.052978515625,0.04280000180006027,25,4815.401372183689,0.0018458486430946374,1.57542003E9,,,,0,,6,0.51,1.57542003E9,400.0,NaN,NaN
Raw,240744958879536,657549201000000,,,-1265581155234500051,0.36585426330566406,51.39311542734504,0.8040394677527977,10.064739622971716,195,33,0.0,23567,392304343966233,19,27.0,-388.40966796875,0.04830000177025795,25,-5185.510155558186,0.007212130206821385,1.57542003E9,,,,0,,6,0.51,1.57542003E9,400.0,NaN,NaN
Raw,240744958879536,657549201000000,,,-1265581155234500051,0.36585426330566406,51.39311542734504,0.8040394677527977,10.064739622971716,195,10,0.0,81935,392304357846081,23,13.2,210.60263061523438,5.897000312805176,16,0.0,0.0,1.17645005E9,,,,0,,1,13.13,1.17645005E9,400.0,NaN,NaN
Raw,240744958879536,657549201000000,,,-1265581155234500051,0.36585426330566406,51.39311542734504,0.8040394677527977,10.064739622971716,195,24,0.0,81935,392304368538171,2,35.9,20.61682891845703,0.035600002855062485,25,130.4174088173628,0.0017837963238157039,1.17645005E9,,,,0,,1,13.13,1.17645005E9,400.0,NaN,NaN
Raw,240744958879536,657549201000000,,,-1265581155234500051,0.36585426330566406,51.39311542734504,0.8040394677527977,10.064739622971716,195,25,0.0,81935,392304356215139,8,22.3,-706.6126708984375,0.750499963760376,16,0.0,0.0,1.17645005E9,,,,0,,1,13.13,1.17645005E9,400.0,NaN,NaN
Raw,240744958879536,657549201000000,,,-1265581155234500051,0.36585426330566406,51.39311542734504,0.8040394677527977,10.064739622971716,195,32,0.0,81935,392304355666551,5,27.3,-633.369140625,0.058500003069639206,29,-4023.228838278047,0.004332076888121183,1.17645005E9,,,,0,,1,13.13,1.17645005E9,400.0,NaN,NaN
Raw,240744958879536,657549201000000,,,-1265581155234500051,0.36585426330566406,51.39311542734504,0.8040394677527977,10.064739622971716,195,3,0.0,81935,392304348869922,2,35.5,-360.80108642578125,0.035600002855062485,25,-2289.7296559703354,0.0017837963238157039,1.17645005E9,,,,0,,6,13.13,1.17645005E9,400.0,NaN,NaN
Raw,240744958879536,657549201000000,,,-1265581155234500051,0.36585426330566406,51.39311542734504,0.8040394677527977,10.064739622971716,195,5,0.0,81935,392304354813482,4,30.4,169.44833374023438,0.050200000405311584,25,1078.0935532673027,0.0032108332879374254,1.17645005E9,,,,0,,6,13.13,1.17645005E9,400.0,NaN,NaN
Raw,240744958879536,657549201000000,,,-1265581155234500051,0.36585426330566406,51.39311542734504,0.8040394677527977,10.064739622971716,195,24,0.0,81935,392304363249771,10,20.6,-113.64056396484375,0.8510000109672546,16,0.0,0.0,1.17645005E9,,,,0,,6,13.13,1.17645005E9,400.0,NaN,NaN
Raw,240744958879536,657549201000000,,,-1265581155234500051,0.36585426330566406,51.39311542734504,0.8040394677527977,10.064739622971716,195,25,0.0,81935,392304346605371,16,16.3,-482.9501037597656,1.9255000352859497,16,0.0,0.0,1.17645005E9,,,,0,,6,13.13,1.17645005E9,400.0,NaN,NaN
Raw,240744958879536,657549201000000,,,-1265581155234500051,0.36585426330566406,51.39311542734504,0.8040394677527977,10.064739622971716,195,26,0.0,81935,392304346921586,8,22.9,39.48475646972656,0.04569999873638153,29,247.7327497781667,0.25482803839368795,1.17645005E9,,,,0,,6,13.13,1.17645005E9,400.0,NaN,NaN
Raw,240744958879536,657549201000000,,,-1265581155234500051,0.36585426330566406,51.39311542734504,0.8040394677527977,10.064739622971716,195,31,0.0,81935,392304352871800,2,35.9,360.933349609375,0.041600000113248825,25,2293.752227802322,0.0017837963238157039,1.17645005E9,,,,0,,6,13.13,1.17645005E9,400.0,NaN,NaN
Raw,240744958879536,657549201000000,,,-1265581155234500051,0.36585426330566406,51.39311542734504,0.8040394677527977,10.064739622971716,195,33,0.0,81935,392304343973314,6,25.6,-388.5321044921875,0.03490000218153,29,-2466.2605018407503,0.02346966281299121,1.17645005E9,,,,0,,6,13.13,1.17645005E9,400.0,NaN,NaN
Fix,gps,51.524569,-0.134207,73.569885,0.000000,3.790092,1582203488000,240745929351508
Raw,240745956701198,657550201000000,,,-1265581155234500047,0.06134223937988281,48.85778253083117,-0.5115770895561914,11.022218686649971,195,10,0.0,16399,392305357837559,16,29.0,211.50038146972656,0.049400001764297485,25,2535.186169051638,0.00281634630106073,1.57542003E9,,,,0,,1,0.61,1.57542003E9,400.0,NaN,NaN
Raw,240745956701198,657550201000000,,,-1265581155234500047,0.06134223937988281,48.85778253083117,-0.5115770895561914,11.022218686649971,195,12,0.0,16399,392305365628008,10,34.6,-454.3988037109375,0.02810000069439411,25,-6437.128617375736,0.0015223494237726067,1.57542003E9,,,,0,,1,0.61,1.57542003E9,400.0,NaN,NaN
Raw,240745956701198,657550201000000,,,-1265581155234500047,0.06134223937988281,48.85778253083117,-0.5115770895561914,11.022218686649971,195,15,0.0,16399,392305359114450,21,26.0,665.7815551757812,0.0552000030875206,21,969.7948887402853,0.005442398901996786,1.57542003E9,,,,0,,1,0.61,1.57542003E9,400.0,NaN,NaN
Raw,240745956701198,657550201000000,,,-1265581155234500047,0.06134223937988281,48.85778253083117,-0.5115770895561914,11.022218686649971,195,17,0.0,16399,392305358733119,6,39.3,239.0920867919922,0.04580000042915344,25,3386.709440919424,8.372921387687362E-4,1.57542003E9,,,,0,,1,0.61,1.57542003E9,400.0,NaN,NaN
Raw,240745956701198,657550201000000,,,-1265581155234500047,0.06134223937988281,48.85778253083117,-0.5115770895561914,11.022218686649971,195,19,0.0,16399,392305362177991,5,40.2,-98.03382873535156,0.02160000056028366,25,-1418.567603051305,7.42145288706399E-4,1.57542003E9,,,,0,,1,0.61,1.57542003E9,400.0,NaN,NaN
Raw,240745956701198,657550201000000,,,-1265581155234500047,0.06134223937988281,48.85778253083117,-0.5115770895561914,11.022218686649971,195,20,0.0,16399,392305355422537,16,29.0,529.4069213867188,0.046400003135204315,25,7162.485834502609,0.00281634630106073,1.57542003E9,,,,0,,1,0.61,1.57542003E9,400.0,NaN,NaN
Raw,240745956701198,657550201000000,,,-1265581155234500047,0.06134223937988281,48.85778253083117,-0.5115770895561914,11.022218686649971,195,24,0.0,16399,392305368530537,31,23.8,22.40155792236328,0.12319999933242798,21,278.6958335583583,0.19029366893311156,1.57542003E9,,,,0,,1,0.61,1.57542003E9,400.0,NaN,NaN
Raw,240745956701198,657550201000000,,,-1265581155234500047,0.06134223937988281,48.85778253083117,-0.5115770895561914,11.022218686649971,195,32,0.0,16399,392305355660785,31,23.1,-631.6070556640625,0.13369999825954437,21,-7006.62140135886,0.19029366893311156,1.57542003E9,,,,0,,1,0.61,1.57542003E9,400.0,NaN,NaN
Raw,240745956701198,657550201000000,,,-1265581155234500047,0.06134223937988281,48.85778253083117,-0.5115770895561914,11.022218686649971,195,14,0.0,49359,57487361240563,16,29.4,632.3472290039062,0.22540000081062317,25,8473.531678415007,0.0027764423980239216,1.59806246E9,,,,0,,3,-1.65,1.59806246E9,400.0,NaN,NaN
Raw,240745956701198,657550201000000,,,-1265581155234500047,0.06134223937988281,48.85778253083117,-0.5115770895561914,11.022218686649971,195,6,0.0,49359,57487367141534,14,30.6,-186.8633270263672,0.23340000212192535,25,-1805.109158180891,0.0023612345291040655,1.59975002E9,,,,0,,3,-1.65,1.59975002E9,400.0,NaN,NaN
Raw,240745956701198,657550201000000,,,-1265581155234500047,0.06134223937988281,48.85778253083117,-0.5115770895561914,11.022218686649971,195,16,0.0,49359,57487365486614,24,25.7,-504.97833251953125,0.24080000817775726,19,-5850.914480591316,0.18720210387987432,1.60143744E9,,,,0,,3,-1.65,1.60143744E9,400.0,NaN,NaN
Raw,240745956701198,657550201000000,,,-1265581155234500047,0.06134223937988281,48.85778253083117,-0.5115770895561914,11.022218686649971,195,15,0.0,49359,57487370844820,10,34.0,147.01023864746094,0.23560000956058502,25,1951.3134441383247,0.0014970909974500758,1.602E9,,,,0,,3,-1.65,1.602E9,400.0,NaN,NaN
Raw,240745956701198,657550201000000,,,-1265581155234500047,0.06134223937988281,48.85778253083117,-0.5115770895561914,11.022218686649971,195,5,0.0,49359,57487365495406,17,28.8,649.748291015625,0.23270000517368317,25,8131.199241745861,0.002955716504244618,1.60256256E9,,,,0,,3,-1.65,1.60256256E9,400.0,NaN,NaN
Raw,240745956701198,657550201000000,,,-1265581155234500047,0.06134223937988281,48.85778253083117,-0.5115770895561914,11.022218686649971,195,23,0.0,49359,57487359078422,19,27.3,419.0518798828125,0.25429999828338623,19,5235.679786098582,0.0031779707067089934,1.60368755E9,,,,0,,3,-1.65,1.60368755E9,400.0,NaN,NaN
Raw,240745956701198,657550201000000,,,-1265581155234500047,0.06134223937988281,48.85778253083117,-0.5115770895561914,11.022218686649971,195,17,0.0,49359,57487360019141,6,38.1,-691.5267944335938,0.2190999984741211,25,-8693.477663810638,9.156821419811199E-4,1.60424998E9,,,,0,,3,-1.65,1.60424998E9,400.0,NaN,NaN
Raw,240745956701198,657550201000000,,,-1265581155234500047,0.06134223937988281,48.85778253083117,-0.5115770895561914,11.022218686649971,195,30,0.0,16399,392291352680486,14,30.8,-564.0748291015625,0.04090000316500664,17,-7717.512832055091,0.0024196975554572116,1.56109798E9,,,,0,,5,0.45,1.56109798E9,400.0,NaN,NaN
Raw,240745956701198,657550201000000,,,-1265581155234500047,0.06134223937988281,48.85778253083117,-0.5115770895561914,11.022218686649971,195,27,0.0,16399,392291354800909,5,41.5,-128.10948181152344,0.03930000215768814,25,-1781.476971707919,6.913421459270097E-4,1.56109798E9,,,,0,,5,0.45,1.56109798E9,400.0,NaN,NaN
Raw,240745956701198,657550201000000,,,-1265581155234500047,0.06134223937988281,48.85778253083117,-0.5115770895561914,11.022218686649971,195,22,0.0,16399,392291355492297,19,27.3,421.02593994140625,0.04830000177025795,17,5763.64147144506,0.0032646714781548623,1.56109798E9,,,,0,,5,0.45,1.56109798E9,400.0,NaN,NaN
Raw,240745956701198,657550201000000,,,-1265581155234500047,0.06134223937988281,48.85778253083117,-0.5115770895561914,11.022218686649971,195,21,0.0,16399,392291354842728,35,22.3,-140.9473876953125,0.8075000047683716,16,0.0,0.0,1.56109798E9,,,,0,,5,0.45,1.56109798E9,400.0,NaN,NaN
Raw,240745956701198,657550201000000,,,-1265581155234500047,0.06134223937988281,48.85778253083117,-0.5115770895561914,11.022218686649971,195,3,0.0,23567,392305348864026,7,37.1,-358.9374694824219,0.04340000078082085,25,-2721.887547004632,0.0021883771969841777,1.57542003E9,,,,0,,6,0.53,1.57542003E9,400.0,NaN,NaN
Raw,240745956701198,657550201000000,,,-1265581155234500047,0.06134223937988281,48.85778253083117,-0.5115770895561914,11.022218686649971,195,5,0.0,23567,392305354805860,14,30.0,171.3542022705078,0.04990000277757645,25,2434.206072330242,0.005233075867304602,1.57542003E9,,,,0,,6,0.53,1.57542003E9,400.0,NaN,NaN
Raw,240745956701198,657550201000000,,,-1265581155234500047,0.06134223937988281,48.85778253083117,-0.5115770895561914,11.022218686649971,195,9,0.0,23567,392305354320031,31,23.9,576.951416015625,0.6934999823570251,16,0.0,0.0,1.57542003E9,,,,0,,6,0.53,1.57542003E9,400.0,NaN,NaN
Raw,240745956701198,657550201000000,,,-1265581155234500047,0.06134223937988281,48.85778253083117,-0.5115770895561914,11.022218686649971,195,24,0.0,23567,392305363243074,16,29.8,-112.17082214355469,0.052400000393390656,25,-517.7144399999358,0.006146485344343376,1.57542003E9,,,,0,,6,0.53,1.57542003E9,400.0,NaN,NaN
Raw,240745956701198,657550201000000,,,-1265581155234500047,0.06134223937988281,48.85778253083117,-0.5115770895561914,11.022218686649971,195,25,0.0,23567,392305346600053,53,19.6,-481.4144592285156,0.9434999823570251,16,0.0,0.0,1.57542003E9,,,,0,,6,0.53,1.57542003E9,400.0,NaN,NaN
Raw,240745956701198,657550201000000,,,-1265581155234500047,0.06134223937988281,48.85778253083117,-0.5115770895561914,11.022218686649971,195,26,0.0,23567,392305346914261,61,18.5,43.215694427490234,1.0234999656677246,16,0.0,0.0,1.57542003E9,,,,0,,6,0.53,1.57542003E9,400.0,NaN,NaN
Raw,240745956701198,657550201000000,,,-1265581155234500047,0.06134223937988281,48.85778253083117,-0.5115770895561914,11.022218686649971,195,31,0.0,23567,392305352863518,6,38.0,362.7234802246094,0.04310000315308571,25,5177.6749068538,0.0020551716777868216,1.57542003E9,,,,0,,6,0.53,1.57542003E9,400.0,NaN,NaN
Raw,240745956701198,657550201000000,,,-1265581155234500047,0.06134223937988281,48.85778253083117,-0.5115770895561914,11.022218686649971,195,33,0.0,23567,392305343967535,24,25.6,-386.71240234375,0.055800002068281174,21,-5572.79745889831,0.017526047264890512,1.57542003E9,,,,0,,6,0.53,1.57542003E9,400.0,NaN,NaN
Raw,240745956701198,657550201000000,,,-1265581155234500047,0.06134223937988281,48.85778253083117,-0.5115770895561914,11.022218686649971,195,10,0.0,81935,392305357845397,11,19.9,211.40200805664062,0.1753999888896942,27,1541.981854273473,0.25482803839368795,1.17645005E9,,,,0,,1,10.19,1.17645005E9,400.0,NaN,NaN
Raw,240745956701198,657550201000000,,,-1265581155234500047,0.06134223937988281,48.85778253083117,-0.5115770895561914,11.022218686649971,195,25,0.0,81935,392305356217502,9,21.2,-705.0435791015625,0.06939999759197235,27,-5196.720488448623,0.25482803839368795,1.17645005E9,,,,0,,1,10.19,1.17645005E9,400.0,NaN,NaN
Raw,240745956701198,657550201000000,,,-1265581155234500047,0.06134223937988281,48.85778253083117,-0.5115770895561914,11.022218686649971,195,32,0.0,81935,392305355668653,6,26.8,-631.6209716796875,0.06459999829530716,29,-4655.328177191337,0.007288081858568245,1.17645005E9,,,,0,,1,10.19,1.17645005E9,400.0,NaN,NaN
Raw,240745956701198,657550201000000,,,-1265581155234500047,0.06134223937988281,48.85778253083117,-0.5115770895561914,11.022218686649971,195,3,0.0,81935,392305348871123,2,34.8,-358.9400329589844,0.036500003188848495,25,-2649.15111343207,0.0020386244039789624,1.17645005E9,,,,0,,6,10.19,1.17645005E9,400.0,NaN,NaN
Raw,240745956701198,657550201000000,,,-1265581155234500047,0.06134223937988281,48.85778253083117,-0.5115770895561914,11.022218686649971,195,5,0.0,81935,392305354812911,4,30.5,171.36749267578125,0.050200000405311584,25,1248.9998406334237,0.0032108332879374254,1.17645005E9,,,,0,,6,10.19,1.17645005E9,400.0,NaN,NaN
Raw,240745956701198,657550201000000,,,-1265581155234500047,0.06134223937988281,48.85778253083117,-0.5115770895561914,11.022218686649971,195,24,0.0,81935,392305363250127,10,20.7,-112.16288757324219,0.08020000159740448,27,-832.6362029189021,0.34557229348499413,1.17645005E9,,,,0,,6,10.19,1.17645005E9,400.0,NaN,NaN
Raw,240745956701198,657550201000000,,,-1265581155234500047,0.06134223937988281,48.85778253083117,-0.5115770895561914,11.022218686649971,195,26,0.0,81935,392305346921445,9,21.6,41.355140686035156,0.0544000007212162,25,288.61500504146517,0.25482803839368795,1.17645005E9,,,,0,,6,10.19,1.17645005E9,400.0,NaN,NaN
Raw,240745956701198,657550201000000,,,-1265581155234500047,0.06134223937988281,48.85778253083117,-0.5115770895561914,11.022218686649971,195,31,0.0,81935,392305352870592,2,35.7,362.727783203125,0.041600000113248825,25,2656.0419572550336,0.0017837963238157039,1.17645005E9,,,,0,,6,10.19,1.17645005E9,400.0,NaN,NaN
Raw,240745956701198,657550201000000,,,-1265581155234500047,0.06134223937988281,48.85778253083117,-0.5115770895561914,11.022218686649971,195,33,0.0,81935,392305343974608,7,24.9,-386.61932373046875,0.03660000115633011,25,-2853.4012715653453,0.08959753608771179,1.17645005E9,,,,0,,6,10.19,1.17645005E9,400.0,NaN,NaN
Fix,gps,51.524569,-0.134207,73.550110,0.000000,3.790092,1582203489000,240746922916711
Raw,240746948334161,657551201000000,,,-1265581155234500039,0.9722366333007812,46.76076787291095,4.805359075387277,11.339460162134614,195,10,0.0,16399,392306357836859,17,28.8,210.7743682861328,0.050700001418590546,25,2746.445573755365,0.0030066398239606148,1.57542003E9,,,,0,,1,0.52,1.57542003E9,400.0,NaN,NaN
Raw,240746948334161,657551201000000,,,-1265581155234500039,0.9722366333007812,46.76076787291095,4.805359075387277,11.339460162134614,195,12,0.0,16399,392306365629567,10,34.9,-455.1634216308594,0.013100000098347664,25,-6891.771507932345,0.0015223494237726067,1.57542003E9,,,,0,,1,0.52,1.57542003E9,400.0,NaN,NaN
Raw,240746948334161,657551201000000,,,-1265581155234500039,0.9722366333007812,46.76076787291095,4.805359075387277,11.339460162134614,195,15,0.0,16399,392306359112204,21,26.9,665.0496826171875,0.0552000030875206,17,1635.3209286009962,0.005442398901996786,1.57542003E9,,,,0,,1,0.52,1.57542003E9,400.0,NaN,NaN
Raw,240746948334161,657551201000000,,,-1265581155234500039,0.9722366333007812,46.76076787291095,4.805359075387277,11.339460162134614,195,17,0.0,16399,392306358732319,6,39.8,238.3780059814453,0.04580000042915344,25,3625.566141548516,8.372921387687362E-4,1.57542003E9,,,,0,,1,0.52,1.57542003E9,400.0,NaN,NaN
Raw,240746948334161,657551201000000,,,-1265581155234500039,0.9722366333007812,46.76076787291095,4.805359075387277,11.339460162134614,195,19,0.0,16399,392306362178322,6,39.5,-98.75318908691406,0.006800000090152025,25,-1516.8229962227467,8.372921387687362E-4,1.57542003E9,,,,0,,1,0.52,1.57542003E9,400.0,NaN,NaN
Raw,240746948334161,657551201000000,,,-1265581155234500039,0.9722366333007812,46.76076787291095,4.805359075387277,11.339460162134614,195,20,0.0,16399,392306355420759,17,28.7,528.6812133789062,0.047700002789497375,25,7691.663110347597,0.0030066398239606148,1.57542003E9,,,,0,,1,0.52,1.57542003E9,400.0,NaN,NaN
Raw,240746948334161,657551201000000,,,-1265581155234500039,0.9722366333007812,46.76076787291095,4.805359075387277,11.339460162134614,195,24,0.0,16399,392306368530489,31,23.6,21.641298294067383,0.10819999873638153,21,300.82464044511715,0.19029366893311156,1.57542003E9,,,,0,,1,0.52,1.57542003E9,400.0,NaN,NaN
Raw,240746948334161,657551201000000,,,-1265581155234500039,0.9722366333007812,46.76076787291095,4.805359075387277,11.339460162134614,195,32,0.0,16399,392306355662897,19,27.6,-632.3851928710938,0.04830000177025795,17,-7638.465454855945,0.003234992547669888,1.57542003E9,,,,0,,1,0.52,1.57542003E9,400.0,NaN,NaN
Raw,240746948334161,657551201000000,,,-1265581155234500039,0.9722366333007812,46.76076787291095,4.805359075387277,11.339460162134614,195,14,0.0,49359,57488361238457,16,29.7,631.5299072265625,0.21040000021457672,25,9105.606070612474,0.0027764423980239216,1.59806246E9,,,,0,,3,-1.79,1.59806246E9,400.0,NaN,NaN
Raw,240746948334161,657551201000000,,,-1265581155234500039,0.9722366333007812,46.76076787291095,4.805359075387277,11.339460162134614,195,6,0.0,49359,57488367142069,13,31.0,-187.52926635742188,0.2176000028848648,25,-1992.1538268306713,0.002042655285247825,1.59975002E9,,,,0,,3,-1.79,1.59975002E9,400.0,NaN,NaN
Raw,240746948334161,657551201000000,,,-1265581155234500039,0.9722366333007812,46.76076787291095,4.805359075387277,11.339460162134614,195,16,0.0,49359,57488365488320,24,25.3,-505.7964782714844,0.22580000758171082,25,-6356.1546442186345,0.18720210387987432,1.60143744E9,,,,0,,3,-1.79,1.60143744E9,400.0,NaN,NaN
Raw,240746948334161,657551201000000,,,-1265581155234500039,0.9722366333007812,46.76076787291095,4.805359075387277,11.339460162134614,195,15,0.0,49359,57488370844329,11,33.8,146.2601318359375,0.22120000422000885,25,2098.094271844714,0.0016280864052631069,1.602E9,,,,0,,3,-1.79,1.602E9,400.0,NaN,NaN
Raw,240746948334161,657551201000000,,,-1265581155234500039,0.9722366333007812,46.76076787291095,4.805359075387277,11.339460162134614,195,5,0.0,49359,57488365493308,16,29.6,648.9974975585938,0.21639999747276306,25,8780.724830489562,0.002768645973945739,1.60256256E9,,,,0,,3,-1.79,1.60256256E9,400.0,NaN,NaN
Raw,240746948334161,657551201000000,,,-1265581155234500039,0.9722366333007812,46.76076787291095,4.805359075387277,11.339460162134614,195,23,0.0,49359,57488359077036,24,25.2,417.9640197753906,0.26179999113082886,29,5654.569333600345,0.1869394431765222,1.60368755E9,,,,0,,3,-1.79,1.60368755E9,400.0,NaN,NaN
Raw,240746948334161,657551201000000,,,-1265581155234500039,0.9722366333007812,46.76076787291095,4.805359075387277,11.339460162134614,195,17,0.0,49359,57488360021461,6,38.1,-692.3412475585938,0.20409999787807465,25,-9385.267356377353,9.156821419811199E-4,1.60424998E9,,,,0,,3,-1.79,1.60424998E9,400.0,NaN,NaN
Raw,240746948334161,657551201000000,,,-1265581155234500039,0.9722366333007812,46.76076787291095,4.805359075387277,11.339460162134614,195,30,0.0,16399,392292352682385,16,29.9,-564.8578491210938,0.04190000146627426,17,-8281.866754608189,0.0028421844273806814,1.56109798E9,,,,0,,5,0.28,1.56109798E9,400.0,NaN,NaN
Raw,240746948334161,657551201000000,,,-1265581155234500039,0.9722366333007812,46.76076787291095,4.805359075387277,11.339460162134614,195,27,0.0,16399,392292354801339,5,41.4,-128.80792236328125,0.03930000215768814,25,-1909.819795910751,6.913421459270097E-4,1.56109798E9,,,,0,,5,0.28,1.56109798E9,400.0,NaN,NaN
Raw,240746948334161,657551201000000,,,-1265581155234500039,0.9722366333007812,46.76076787291095,4.805359075387277,11.339460162134614,195,22,0.0,16399,392292355490906,19,27.3,420.2783203125,0.04830000177025795,17,6184.394571794445,0.0032646714781548623,1.56109798E9,,,,0,,5,0.28,1.56109798E9,400.0,NaN,NaN
Raw,240746948334161,657551201000000,,,-1265581155234500039,0.9722366333007812,46.76076787291095,4.805359075387277,11.339460162134614,195,21,0.0,16399,392292354843084,19,27.4,-140.74749755859375,0.046800002455711365,19,-1977.9058952661885,0.0032646714781548623,1.56109798E9,,,,0,,5,0.28,1.56109798E9,400.0,NaN,NaN
Raw,240746948334161,657551201000000,,,-1265581155234500039,0.9722366333007812,46.76076787291095,4.805359075387277,11.339460162134614,195,3,0.0,23567,392306348865234,8,36.6,-359.6085510253906,0.04360000044107437,25,-3081.0736915970206,0.0025499350854412276,1.57542003E9,,,,0,,6,0.45,1.57542003E9,400.0,NaN,NaN
Raw,240746948334161,657551201000000,,,-1265581155234500039,0.9722366333007812,46.76076787291095,4.805359075387277,11.339460162134614,195,5,0.0,23567,392306354805284,16,29.3,170.72169494628906,0.05090000107884407,25,2605.3561309560155,0.006146485344343376,1.57542003E9,,,,0,,6,0.45,1.57542003E9,400.0,NaN,NaN
Raw,240746948334161,657551201000000,,,-1265581155234500039,0.9722366333007812,46.76076787291095,4.805359075387277,11.339460162134614,195,9,0.0,23567,392306354318134,31,23.4,576.5517578125,0.6934999823570251,16,0.0,0.0,1.57542003E9,,,,0,,6,0.45,1.57542003E9,400.0,NaN,NaN
Raw,240746948334161,657551201000000,,,-1265581155234500039,0.9722366333007812,46.76076787291095,4.805359075387277,11.339460162134614,195,24,0.0,23567,392306363243454,17,28.3,-112.82723236083984,0.053700003772974014,25,-630.1352709561381,0.006565131413727744,1.57542003E9,,,,0,,6,0.45,1.57542003E9,400.0,NaN,NaN
Raw,240746948334161,657551201000000,,,-1265581155234500039,0.9722366333007812,46.76076787291095,4.805359075387277,11.339460162134614,195,25,0.0,23567,392306346601669,40,21.7,-481.975830078125,0.8134999871253967,16,0.0,0.0,1.57542003E9,,,,0,,6,0.45,1.57542003E9,400.0,NaN,NaN
Raw,240746948334161,657551201000000,,,-1265581155234500039,0.9722366333007812,46.76076787291095,4.805359075387277,11.339460162134614,195,26,0.0,23567,392306346914194,46,20.7,40.38031768798828,0.8734999895095825,16,0.0,0.0,1.57542003E9,,,,0,,6,0.45,1.57542003E9,400.0,NaN,NaN
Raw,240746948334161,657551201000000,,,-1265581155234500039,0.9722366333007812,46.76076787291095,4.805359075387277,11.339460162134614,195,31,0.0,23567,392306352862313,7,37.9,362.036376953125,0.04340000078082085,25,5540.158640594479,0.0021883771969841777,1.57542003E9,,,,0,,6,0.45,1.57542003E9,400.0,NaN,NaN
Raw,240746948334161,657551201000000,,,-1265581155234500039,0.9722366333007812,46.76076787291095,4.805359075387277,11.339460162134614,195,33,0.0,23567,392306343968836,24,25.0,-387.4358825683594,0.055800002068281174,21,-5959.770325042655,0.017526047264890512,1.57542003E9,,,,0,,6,0.45,1.57542003E9,400.0,NaN,NaN
Raw,240746948334161,657551201000000,,,-1265581155234500039,0.9722366333007812,46.76076787291095,4.805359075387277,11.339460162134614,195,25,0.0,81935,392306356219847,9,21.5,-706.4342651367188,0.8104999661445618,16,0.0,0.0,1.17645005E9,,,,0,,1,7.85,1.17645005E9,400.0,NaN,NaN
Raw,240746948334161,657551201000000,,,-1265581155234500039,0.9722366333007812,46.76076787291095,4.805359075387277,11.339460162134614,195,32,0.0,81935,392306355670766,6,25.9,-632.4248657226562,0.07699999958276749,29,-5287.251767132416,0.25482803839368795,1.17645005E9,,,,0,,1,7.85,1.17645005E9,400.0,NaN,NaN
Raw,240746948334161,657551201000000,,,-1265581155234500039,0.9722366333007812,46.76076787291095,4.805359075387277,11.339460162134614,195,3,0.0,81935,392306348872324,3,33.8,-359.8565368652344,0.02250000089406967,25,-3008.347092979403,0.0022170039651624013,1.17645005E9,,,,0,,6,7.85,1.17645005E9,400.0,NaN,NaN
Raw,240746948334161,657551201000000,,,-1265581155234500039,0.9722366333007812,46.76076787291095,4.805359075387277,11.339460162134614,195,5,0.0,81935,392306354812340,4,29.1,170.5135498046875,0.052000001072883606,25,1420.1397179399412,0.0037714549693657518,1.17645005E9,,,,0,,6,7.85,1.17645005E9,400.0,NaN,NaN
Raw,240746948334161,657551201000000,,,-1265581155234500039,0.9722366333007812,46.76076787291095,4.805359075387277,11.339460162134614,195,9,0.0,81935,392306354325668,12,18.7,576.9561767578125,1.0175000429153442,16,0.0,0.0,1.17645005E9,,,,0,,6,7.85,1.17645005E9,400.0,NaN,NaN
Raw,240746948334161,657551201000000,,,-1265581155234500039,0.9722366333007812,46.76076787291095,4.805359075387277,11.339460162134614,195,24,0.0,81935,392306363250442,11,19.4,-112.9432144165039,0.13939999043941498,25,-945.0348383115814,0.34557229348499413,1.17645005E9,,,,0,,6,7.85,1.17645005E9,400.0,NaN,NaN
Raw,240746948334161,657551201000000,,,-1265581155234500039,0.9722366333007812,46.76076787291095,4.805359075387277,11.339460162134614,195,25,0.0,81935,392306346608895,14,17.4,-480.8732604980469,1.8355000019073486,16,0.0,0.0,1.17645005E9,,,,0,,6,7.85,1.17645005E9,400.0,NaN,NaN
Raw,240746948334161,657551201000000,,,-1265581155234500039,0.9722366333007812,46.76076787291095,4.805359075387277,11.339460162134614,195,26,0.0,81935,392306346921304,9,21.9,40.53445053100586,0.039400000125169754,25,329.68986786067825,0.25482803839368795,1.17645005E9,,,,0,,6,7.85,1.17645005E9,400.0,NaN,NaN
Raw,240746948334161,657551201000000,,,-1265581155234500039,0.9722366333007812,46.76076787291095,4.805359075387277,11.339460162134614,195,31,0.0,81935,392306352869385,2,35.2,361.7806396484375,0.041600000113248825,25,3018.511845112022,0.0017837963238157039,1.17645005E9,,,,0,,6,7.85,1.17645005E9,400.0,NaN,NaN
Raw,240746948334161,657551201000000,,,-1265581155234500039,0.9722366333007812,46.76076787291095,4.805359075387277,11.339460162134614,195,33,0.0,81935,392306343975897,8,23.4,-387.5679016113281,0.02370000071823597,25,-3240.3841332836664,0.34557229348499413,1.17645005E9,,,,0,,6,7.85,1.17645005E9,400.0,NaN,NaN
Fix,gps,51.524569,-0.134207,73.531311,0.000000,3.790092,1582203490000,240747923617227
Raw,240747957157439,657552201000000,,,-1265581155234500039,0.22717857360839844,45.342760131461546,1.5284203339403215,11.347402611272168,195,10,0.0,16399,392307357836135,17,28.8,210.88002014160156,0.050700001418590546,25,2957.2630520168414,0.0030066398239606148,1.57542003E9,,,,0,,1,0.7,1.57542003E9,400.0,NaN,NaN
Raw,240747957157439,657552201000000,,,-1265581155234500039,0.22717857360839844,45.342760131461546,1.5284203339403215,11.347402611272168,195,12,0.0,16399,392307365631080,10,34.7,-455.06256103515625,0.013100000098347664,25,-7346.889206623908,0.0015223494237726067,1.57542003E9,,,,0,,1,0.7,1.57542003E9,400.0,NaN,NaN
Raw,240747957157439,657552201000000,,,-1265581155234500039,0.22717857360839844,45.342760131461546,1.5284203339403215,11.347402611272168,195,13,0.0,16399,392307352986614,80,16.5,736.4365234375,2.7744998931884766,16,0.0,0.0,1.57542003E9,,,,0,,1,0.7,1.57542003E9,400.0,NaN,NaN
Raw,240747957157439,657552201000000,,,-1265581155234500039,0.22717857360839844,45.342760131461546,1.5284203339403215,11.347402611272168,195,15,0.0,16399,392307359109938,21,26.6,665.0289306640625,0.0552000030875206,17,2300.2899929412115,0.005442398901996786,1.57542003E9,,,,0,,1,0.7,1.57542003E9,400.0,NaN,NaN
Raw,240747957157439,657552201000000,,,-1265581155234500039,0.22717857360839844,45.342760131461546,1.5284203339403215,11.347402611272168,195,17,0.0,16399,392307358731524,5,40.7,238.4744873046875,0.04560000076889992,25,3863.957814814655,7.42145288706399E-4,1.57542003E9,,,,0,,1,0.7,1.57542003E9,400.0,NaN,NaN
Raw,240747957157439,657552201000000,,,-1265581155234500039,0.22717857360839844,45.342760131461546,1.5284203339403215,11.347402611272168,195,19,0.0,16399,392307362178683,8,36.0,-98.61041259765625,0.007600000128149986,25,-1615.5091388550366,0.001160791358090767,1.57542003E9,,,,0,,1,0.7,1.57542003E9,400.0,NaN,NaN
Raw,240747957157439,657552201000000,,,-1265581155234500039,0.22717857360839844,45.342760131461546,1.5284203339403215,11.347402611272168,195,20,0.0,16399,392307355419004,17,28.2,528.71875,0.047700002789497375,25,8220.312816685053,0.0030066398239606148,1.57542003E9,,,,0,,1,0.7,1.57542003E9,400.0,NaN,NaN
Raw,240747957157439,657552201000000,,,-1265581155234500039,0.22717857360839844,45.342760131461546,1.5284203339403215,11.347402611272168,195,24,0.0,16399,392307368530518,40,21.6,21.750566482543945,0.8585000038146973,16,0.0,0.0,1.57542003E9,,,,0,,1,0.7,1.57542003E9,400.0,NaN,NaN
Raw,240747957157439,657552201000000,,,-1265581155234500039,0.22717857360839844,45.342760131461546,1.5284203339403215,11.347402611272168,195,32,0.0,16399,392307355665008,13,31.3,-632.3824462890625,0.044600002467632294,17,-8270.881226024188,0.002074201012354331,1.57542003E9,,,,0,,1,0.7,1.57542003E9,400.0,NaN,NaN
Raw,240747957157439,657552201000000,,,-1265581155234500039,0.22717857360839844,45.342760131461546,1.5284203339403215,11.347402611272168,195,14,0.0,49359,57489361236253,16,29.8,631.5552368164062,0.21040000021457672,25,9737.14600933151,0.0027764423980239216,1.59806246E9,,,,0,,3,-1.68,1.59806246E9,400.0,NaN,NaN
Raw,240747957157439,657552201000000,,,-1265581155234500039,0.22717857360839844,45.342760131461546,1.5284203339403215,11.347402611272168,195,6,0.0,49359,57489367142770,14,30.0,-187.35784912109375,0.2184000015258789,25,-2179.5852922586464,0.0023612345291040655,1.59975002E9,,,,0,,3,-1.68,1.59975002E9,400.0,NaN,NaN
Raw,240747957157439,657552201000000,,,-1265581155234500039,0.22717857360839844,45.342760131461546,1.5284203339403215,11.347402611272168,195,16,0.0,49359,57489365489939,31,23.9,-505.61865234375,0.3037000000476837,21,-6861.8635276986515,0.18720210387987432,1.60143744E9,,,,0,,3,-1.68,1.60143744E9,400.0,NaN,NaN
Raw,240747957157439,657552201000000,,,-1265581155234500039,0.22717857360839844,45.342760131461546,1.5284203339403215,11.347402611272168,195,15,0.0,49359,57489370843812,14,30.7,146.34652709960938,0.2379000037908554,25,2244.380506143899,0.0023579182120561683,1.602E9,,,,0,,3,-1.68,1.602E9,400.0,NaN,NaN
Raw,240747957157439,657552201000000,,,-1265581155234500039,0.22717857360839844,45.342760131461546,1.5284203339403215,11.347402611272168,195,5,0.0,49359,57489365491105,14,30.7,649.1113891601562,0.21540001034736633,25,9429.761265655867,0.0023570904936865496,1.60256256E9,,,,0,,3,-1.68,1.60256256E9,400.0,NaN,NaN
Raw,240747957157439,657552201000000,,,-1265581155234500039,0.22717857360839844,45.342760131461546,1.5284203339403215,11.347402611272168,195,23,0.0,49359,57489359075761,46,20.7,418.0620422363281,1.0750000476837158,16,0.0,0.0,1.60368755E9,,,,0,,3,-1.68,1.60368755E9,400.0,NaN,NaN
Raw,240747957157439,657552201000000,,,-1265581155234500039,0.22717857360839844,45.342760131461546,1.5284203339403215,11.347402611272168,195,17,0.0,49359,57489360023724,6,38.5,-692.247802734375,0.20409999787807465,25,-10077.573190210336,9.156821419811199E-4,1.60424998E9,,,,0,,3,-1.68,1.60424998E9,400.0,NaN,NaN
Raw,240747957157439,657552201000000,,,-1265581155234500039,0.22717857360839844,45.342760131461546,1.5284203339403215,11.347402611272168,195,7,0.0,49359,57489356309529,122,13.4,-738.6591186523438,5.450500011444092,16,0.0,0.0,1.60481254E9,,,,0,,3,-1.68,1.60481254E9,400.0,NaN,NaN
Raw,240747957157439,657552201000000,,,-1265581155234500039,0.22717857360839844,45.342760131461546,1.5284203339403215,11.347402611272168,195,30,0.0,16399,392293352684273,16,29.6,-564.83984375,0.04190000146627426,25,-8846.745575449144,0.0028421844273806814,1.56109798E9,,,,0,,5,0.41,1.56109798E9,400.0,NaN,NaN
Raw,240747957157439,657552201000000,,,-1265581155234500039,0.22717857360839844,45.342760131461546,1.5284203339403215,11.347402611272168,195,27,0.0,16399,392293354801766,5,41.4,-128.73695373535156,0.03930000215768814,25,-2038.6274327069464,6.913421459270097E-4,1.56109798E9,,,,0,,5,0.41,1.56109798E9,400.0,NaN,NaN
Raw,240747957157439,657552201000000,,,-1265581155234500039,0.22717857360839844,45.342760131461546,1.5284203339403215,11.347402611272168,195,22,0.0,16399,392293355489491,16,29.2,420.3510437011719,0.046400003135204315,25,6604.686621446292,0.0028421844273806814,1.56109798E9,,,,0,,5,0.41,1.56109798E9,400.0,NaN,NaN
Raw,240747957157439,657552201000000,,,-1265581155234500039,0.22717857360839844,45.342760131461546,1.5284203339403215,11.347402611272168,195,21,0.0,16399,392293354843560,12,32.4,-141.73292541503906,0.04260000213980675,17,-2119.5389356218284,0.0018243750799829725,1.56109798E9,,,,0,,5,0.41,1.56109798E9,400.0,NaN,NaN
Raw,240747957157439,657552201000000,,,-1265581155234500039,0.22717857360839844,45.342760131461546,1.5284203339403215,11.347402611272168,195,3,0.0,23567,392307348866436,8,36.6,-359.6457214355469,0.04360000044107437,25,-3440.7557345979426,0.0025499350854412276,1.57542003E9,,,,0,,6,0.64,1.57542003E9,400.0,NaN,NaN
Raw,240747957157439,657552201000000,,,-1265581155234500039,0.22717857360839844,45.342760131461546,1.5284203339403215,11.347402611272168,195,5,0.0,23567,392307354804731,21,26.2,170.72540283203125,0.053700003772974014,25,2776.0121435507267,0.011874324619302384,1.57542003E9,,,,0,,6,0.64,1.57542003E9,400.0,NaN,NaN
Raw,240747957157439,657552201000000,,,-1265581155234500039,0.22717857360839844,45.342760131461546,1.5284203339403215,11.347402611272168,195,9,0.0,23567,392307354316197,31,23.0,576.4470825195312,0.7534999847412109,16,0.0,0.0,1.57542003E9,,,,0,,6,0.64,1.57542003E9,400.0,NaN,NaN
Raw,240747957157439,657552201000000,,,-1265581155234500039,0.22717857360839844,45.342760131461546,1.5284203339403215,11.347402611272168,195,24,0.0,23567,392307363243827,14,30.5,-112.89698028564453,0.05140000209212303,25,-743.0852261422053,0.005233075867304602,1.57542003E9,,,,0,,6,0.64,1.57542003E9,400.0,NaN,NaN
Raw,240747957157439,657552201000000,,,-1265581155234500039,0.22717857360839844,45.342760131461546,1.5284203339403215,11.347402611272168,195,25,0.0,23567,392307346603224,27,24.1,-481.5381164550781,0.6934999823570251,16,0.0,0.0,1.57542003E9,,,,0,,6,0.64,1.57542003E9,400.0,NaN,NaN
Raw,240747957157439,657552201000000,,,-1265581155234500039,0.22717857360839844,45.342760131461546,1.5284203339403215,11.347402611272168,195,26,0.0,23567,392307346913982,27,24.1,40.65624237060547,0.6934999823570251,16,0.0,0.0,1.57542003E9,,,,0,,6,0.64,1.57542003E9,400.0,NaN,NaN
Raw,240747957157439,657552201000000,,,-1265581155234500039,0.22717857360839844,45.342760131461546,1.5284203339403215,11.347402611272168,195,31,0.0,23567,392307352861102,6,39.2,361.9757385253906,0.04280000180006027,25,5902.079145644055,0.0018458486430946374,1.57542003E9,,,,0,,6,0.64,1.57542003E9,400.0,NaN,NaN
Raw,240747957157439,657552201000000,,,-1265581155234500039,0.22717857360839844,45.342760131461546,1.5284203339403215,11.347402611272168,195,33,0.0,23567,392307343970075,19,27.1,-387.3948059082031,0.04830000177025795,25,-6347.1484343601,0.007212130206821385,1.57542003E9,,,,0,,6,0.64,1.57542003E9,400.0,NaN,NaN
Raw,240747957157439,657552201000000,,,-1265581155234500039,0.22717857360839844,45.342760131461546,1.5284203339403215,11.347402611272168,195,10,0.0,81935,392307357843996,14,17.8,210.6663360595703,1.8519999980926514,16,0.0,0.0,1.17645005E9,,,,0,,1,9.19,1.17645005E9,400.0,NaN,NaN
Raw,240747957157439,657552201000000,,,-1265581155234500039,0.22717857360839844,45.342760131461546,1.5284203339403215,11.347402611272168,195,25,0.0,81935,392307356222200,9,21.1,-705.8731689453125,0.06939999759197235,27,-6608.069404430659,0.25482803839368795,1.17645005E9,,,,0,,1,9.19,1.17645005E9,400.0,NaN,NaN
Raw,240747957157439,657552201000000,,,-1265581155234500039,0.22717857360839844,45.342760131461546,1.5284203339403215,11.347402611272168,195,32,0.0,81935,392307355672878,6,26.4,-632.4168701171875,0.06459999829530716,25,-5919.631172814451,0.007288081858568245,1.17645005E9,,,,0,,1,9.19,1.17645005E9,400.0,NaN,NaN
Raw,240747957157439,657552201000000,,,-1265581155234500039,0.22717857360839844,45.342760131461546,1.5284203339403215,11.347402611272168,195,3,0.0,81935,392307348873521,2,34.8,-359.59637451171875,0.036500003188848495,25,-3368.016211785423,0.0020386244039789624,1.17645005E9,,,,0,,6,9.19,1.17645005E9,400.0,NaN,NaN
Raw,240747957157439,657552201000000,,,-1265581155234500039,0.22717857360839844,45.342760131461546,1.5284203339403215,11.347402611272168,195,5,0.0,81935,392307354811772,5,28.8,170.70599365234375,0.054100003093481064,29,1590.8048813734852,0.0040262828122019055,1.17645005E9,,,,0,,6,9.19,1.17645005E9,400.0,NaN,NaN
Raw,240747957157439,657552201000000,,,-1265581155234500039,0.22717857360839844,45.342760131461546,1.5284203339403215,11.347402611272168,195,24,0.0,81935,392307363250902,10,20.1,-112.8769760131836,0.0348999984562397,25,-1057.900897956,0.34557229348499413,1.17645005E9,,,,0,,6,9.19,1.17645005E9,400.0,NaN,NaN
Raw,240747957157439,657552201000000,,,-1265581155234500039,0.22717857360839844,45.342760131461546,1.5284203339403215,11.347402611272168,195,26,0.0,81935,392307346921179,8,22.8,40.690086364746094,0.030700000002980232,25,370.32788498008546,0.25482803839368795,1.17645005E9,,,,0,,6,9.19,1.17645005E9,400.0,NaN,NaN
Raw,240747957157439,657552201000000,,,-1265581155234500039,0.22717857360839844,45.342760131461546,1.5284203339403215,11.347402611272168,195,31,0.0,81935,392307352868178,3,33.7,361.9981689453125,0.04350000247359276,25,3380.4355989925516,0.0022170039651624013,1.17645005E9,,,,0,,6,9.19,1.17645005E9,400.0,NaN,NaN
Raw,240747957157439,657552201000000,,,-1265581155234500039,0.22717857360839844,45.342760131461546,1.5284203339403215,11.347402611272168,195,33,0.0,81935,392307343977195,9,21.6,-387.458984375,0.0348999984562397,25,-3627.8541234116155,0.34557229348499413,1.17645005E9,,,,0,,6,9.19,1.17645005E9,400.0,NaN,NaN
Fix,gps,51.524569,-0.134207,73.560364,0.000000,3.790092,1582203491000,240748918878576
Raw,240748951271288,657553201000000,,,-1265581155234500033,0.24724769592285156,41.26364001422189,1.7932333543358665,10.91286228797593,195,10,0.0,16399,392308357835403,16,29.1,211.4802703857422,0.049400001764297485,25,3168.1804885377346,0.00281634630106073,1.57542003E9,,,,0,,1,0.77,1.57542003E9,400.0,NaN,NaN
Raw,240748951271288,657553201000000,,,-1265581155234500033,0.24724769592285156,41.26364001422189,1.7932333543358665,10.91286228797593,195,12,0.0,16399,392308365632630,11,33.5,-454.4532470703125,0.013700000010430813,25,-7801.914873675139,0.001655554942969963,1.57542003E9,,,,0,,1,0.77,1.57542003E9,400.0,NaN,NaN
Raw,240748951271288,657553201000000,,,-1265581155234500033,0.24724769592285156,41.26364001422189,1.7932333543358665,10.91286228797593,195,15,0.0,16399,392308359107713,21,26.9,665.5424194335938,0.0552000030875206,21,2965.333929851258,0.005442398901996786,1.57542003E9,,,,0,,1,0.77,1.57542003E9,400.0,NaN,NaN
Raw,240748951271288,657553201000000,,,-1265581155234500033,0.24724769592285156,41.26364001422189,1.7932333543358665,10.91286228797593,195,17,0.0,16399,392308358730737,5,40.0,239.0670166015625,0.04560000076889992,25,4102.470332771793,7.42145288706399E-4,1.57542003E9,,,,0,,1,0.77,1.57542003E9,400.0,NaN,NaN
Raw,240748951271288,657553201000000,,,-1265581155234500033,0.24724769592285156,41.26364001422189,1.7932333543358665,10.91286228797593,195,19,0.0,16399,392308362178992,7,37.5,-97.9510498046875,0.007400000002235174,25,-1714.0518430490104,0.0010085564157135064,1.57542003E9,,,,0,,1,0.77,1.57542003E9,400.0,NaN,NaN
