# 
# Header Description:
# 
# Version: v2.0.0.1 Platform: 10 Manufacturer: samsung Model: SM-G973F
# 
# Raw,ElapsedRealtimeNanos,TimeNanos,LeapSecond,TimeUncertaintyNanos,FullBiasNanos,BiasNanos,BiasUncertaintyNanos,DriftNanosPerSecond,DriftUncertaintyNanosPerSecond,HardwareClockDiscontinuityCount,Svid,TimeOffsetNanos,State,ReceivedSvTimeNanos,ReceivedSvTimeUncertaintyNanos,Cn0DbHz,PseudorangeRateMetersPerSecond,PseudorangeRateUncertaintyMetersPerSecond,AccumulatedDeltaRangeState,AccumulatedDeltaRangeMeters,AccumulatedDeltaRangeUncertaintyMeters,CarrierFrequencyHz,CarrierCycles,CarrierPhase,CarrierPhaseUncertainty,MultipathIndicator,SnrInDb,ConstellationType,AgcDb,CarrierFrequencyHz,UserLatitude,UserLongitude,UserAltitude
# 
# Fix,Provider,Latitude,Longitude,Altitude,Speed,Accuracy,(UTC)TimeInMs,ElapsedRealtimeNanos
# 
# Nav,Svid,Type,Status,MessageId,Sub-messageId,Data(Bytes)
# 
Fix,gps,51.524317,-0.134509,82.401446,0.013564,3.000000,1581697306000,221463150993461
Raw,221463178964461,1563149000000,,,-1265730960851044583,0.0,6.800407342454977,,,23,2,0.0,16431,490923922306292,13,46.495365142822266,38.44570389203727,0.001612523687072098,25,-80583.02990561204,8.062618435360491E-4,1.57542003E9,,,,0,,1,35.23455810546875,1.57542003E9,201.0,NaN,NaN
Raw,221463178964461,1563149000000,,,-1265730960851044583,0.0,6.800407342454977,,,23,3,0.0,16384,490923914628303,1000000000,12.0,232.25075895622388,2.99792458E8,16,124497.15827125554,3.4028234663852886E38,1.57542003E9,,,,1,,1,35.23455810546875,1.57542003E9,201.0,NaN,NaN
Raw,221463178964461,1563149000000,,,-1265730960851044583,0.0,6.800407342454977,,,23,6,0.0,16431,490923919154399,46,28.52482032775879,348.6127473681313,0.9730028769068566,16,399267.25312779914,3.4028234663852886E38,1.57542003E9,,,,0,,1,35.23455810546875,1.57542003E9,201.0,NaN,NaN
Raw,221463178964461,1563149000000,,,-1265730960851044583,0.0,6.800407342454977,,,23,12,0.0,16431,490923927363751,13,46.603759765625,494.43095440161414,0.0015925256302580237,25,699813.092908998,7.962628151290119E-4,1.57542003E9,,,,0,,1,35.23455810546875,1.57542003E9,201.0,NaN,NaN
Raw,221463178964461,1563149000000,,,-1265730960851044583,0.0,6.800407342454977,,,23,14,0.0,16431,490923925849441,21,38.024391174316406,113.59637359085173,0.003824722021818161,25,21131.95640858468,0.0019123610109090805,1.57542003E9,,,,0,,1,35.23455810546875,1.57542003E9,201.0,NaN,NaN
Raw,221463178964461,1563149000000,,,-1265730960851044583,0.0,6.800407342454977,,,23,24,0.0,16430,490923917305137,1000000000,29.289953231811523,695.3193124157842,0.010454945266246796,17,1056744.8272438475,0.10037430903230583,1.57542003E9,,,,1,,1,35.23455810546875,1.57542003E9,201.0,NaN,NaN
Raw,221463178964461,1563149000000,,,-1265730960851044583,0.0,6.800407342454977,,,23,25,0.0,16431,490923933030989,14,43.33222579956055,99.62172123895289,0.002201833296567201,25,39344.05551160799,0.0011009166482836008,1.57542003E9,,,,0,,1,35.23455810546875,1.57542003E9,201.0,NaN,NaN
Raw,221463178964461,1563149000000,,,-1265730960851044583,0.0,6.800407342454977,,,23,29,0.0,16431,490923929658543,14,42.84500503540039,-452.4109932165593,0.002328871050849557,25,-828500.8236480467,0.0011644355254247785,1.57542003E9,,,,0,,1,35.23455810546875,1.57542003E9,201.0,NaN,NaN
Raw,221463178964461,1563149000000,,,-1265730960851044583,0.0,6.800407342454977,,,23,31,0.0,16431,490923926313469,11,48.06873321533203,-501.12931947025936,0.001345357857644558,25,-867256.1363533237,6.72678928822279E-4,1.57542003E9,,,,0,,1,35.23455810546875,1.57542003E9,201.0,NaN,NaN
Raw,221463178964461,1563149000000,,,-1265730960851044583,0.0,6.800407342454977,,,23,32,0.0,16431,490923924482844,23,37.028717041015625,467.6722249459708,0.004289271775633097,25,610315.649328785,0.0021446358878165483,1.57542003E9,,,,0,,1,35.23455810546875,1.57542003E9,201.0,NaN,NaN
Raw,221463178964461,1563149000000,,,-1265730960851044583,0.0,6.800407342454977,,,23,2,0.0,32995,69705925685485,122,25.09981918334961,150.5931978162116,1.0458075306158365,16,28996.163284507416,3.4028234663852886E38,1.59975002E9,,,,0,,3,50.053245544433594,1.59975002E9,201.0,NaN,NaN
Raw,221463178964461,1563149000000,,,-1265730960851044583,0.0,6.800407342454977,,,23,9,0.0,32995,69705921243115,101,27.400402069091797,677.7433491036068,0.9415538892561144,16,1008493.2515129083,3.4028234663852886E38,1.60087501E9,,,,0,,3,50.053245544433594,1.60087501E9,201.0,NaN,NaN
Raw,221463178964461,1563149000000,,,-1265730960851044583,0.0,6.800407342454977,,,23,12,0.0,32995,69705923439688,154,22.199243545532227,-705.484287435957,1.1758391583839352,16,-1093000.0872858462,3.4028234663852886E38,1.60143744E9,,,,0,,3,50.053245544433594,1.60143744E9,201.0,NaN,NaN
Raw,221463178964461,1563149000000,,,-1265730960851044583,0.0,6.800407342454977,,,23,11,0.0,32995,69705934605061,33,49.53848648071289,-315.18908877298236,0.0011170790530741215,25,-597522.0989908547,5.585395265370607E-4,1.602E9,,,,0,,3,50.053245544433594,1.602E9,201.0,NaN,NaN
Raw,221463178964461,1563149000000,,,-1265730960851044583,0.0,6.800407342454977,,,23,1,0.0,32995,69705920039412,178,20.448436737060547,717.8438813044759,1.2575569070120132,16,1051495.1288265921,3.4028234663852886E38,1.60256256E9,,,,1,,3,50.053245544433594,1.60256256E9,201.0,NaN,NaN
Raw,221463178964461,1563149000000,,,-1265730960851044583,0.0,6.800407342454977,,,23,19,0.0,32832,69705920269449,1000000000,15.684335708618164,780.1692425793044,2.99792458E8,16,772735.0399291979,3.4028234663852886E38,1.60368755E9,,,,1,,3,50.053245544433594,1.60368755E9,201.0,NaN,NaN
Raw,221463178964461,1563149000000,,,-1265730960851044583,0.0,6.800407342454977,,,23,21,0.0,32995,69705930823009,52,35.51507568359375,-653.8747231515522,0.7995910718496058,16,-1149614.0733874915,3.4028234663852886E38,1.60424998E9,,,,0,,3,50.053245544433594,1.60424998E9,201.0,NaN,NaN
Raw,221463178964461,1563149000000,,,-1265730960851044583,0.0,6.800407342454977,,,23,3,0.0,32995,69705920692593,106,26.82525062561035,-462.5393227255165,0.9709161918197071,16,-372614.3018114908,3.4028234663852886E38,1.60481254E9,,,,0,,3,50.053245544433594,1.60481254E9,201.0,NaN,NaN
Raw,221463178964461,1563149000000,,,-1265730960851044583,0.0,6.800407342454977,,,23,5,0.0,16904,490909864577378,1000000000,12.0,-25.853737330690336,2.99792458E8,16,-47761.50395251429,3.4028234663852886E38,1.56109798E9,,,,0,,5,50.755516052246094,1.56109798E9,201.0,NaN,NaN
Raw,221463178964461,1563149000000,,,-1265730960851044583,0.0,6.800407342454977,,,23,8,0.0,81967,490909869212889,44,20.324295043945312,55.74891697186368,1.2611917477463326,16,33457.25104381624,3.4028234663852886E38,1.56109798E9,,,,1,,5,50.755516052246094,1.56109798E9,201.0,NaN,NaN
Raw,221463178964461,1563149000000,,,-1265730960851044583,0.0,6.800407342454977,,,23,13,0.0,81967,490909872167035,7,42.010658264160156,-99.64660710186581,0.002587194088846445,25,-206902.25367528605,0.0012935970444232225,1.56109798E9,,,,0,,5,50.755516052246094,1.56109798E9,201.0,NaN,NaN
Raw,221463178964461,1563149000000,,,-1265730960851044583,0.0,6.800407342454977,,,23,14,0.0,16384,490909909824154,1000000000,12.0,-279.90767851030876,2.99792458E8,16,-106661.2752668876,3.4028234663852886E38,1.56109798E9,,,,0,,5,50.755516052246094,1.56109798E9,201.0,NaN,NaN
Raw,221463178964461,1563149000000,,,-1265730960851044583,0.0,6.800407342454977,,,23,21,0.0,16384,490909912312122,1000000000,12.0,350.35592868944696,2.99792458E8,16,215891.77386181767,3.4028234663852886E38,1.56109798E9,,,,1,,5,50.755516052246094,1.56109798E9,201.0,NaN,NaN
Raw,221463178964461,1563149000000,,,-1265730960851044583,0.0,6.800407342454977,,,23,27,0.0,81967,490909922194774,6,47.56181335449219,340.95018735807383,0.001439295709133148,25,410650.947984485,7.196478545665741E-4,1.56109798E9,,,,0,,5,50.755516052246094,1.56109798E9,201.0,NaN,NaN
Raw,221463178964461,1563149000000,,,-1265730960851044583,0.0,6.800407342454977,,,23,29,0.0,81967,490909916284150,44,20.449861526489258,-680.4439066286482,1.2568173443323873,16,-1071270.5622695596,3.4028234663852886E38,1.56109798E9,,,,1,,5,50.755516052246094,1.56109798E9,201.0,NaN,NaN
Raw,221463178964461,1563149000000,,,-1265730960851044583,0.0,6.800407342454977,,,23,30,0.0,81967,490909926309912,7,42.78273391723633,-272.67250602607965,0.002367147011682391,25,239133.59863898758,0.0011835735058411956,1.56109798E9,,,,0,,5,50.755516052246094,1.56109798E9,201.0,NaN,NaN
Raw,221463178964461,1563149000000,,,-1265730960851044583,0.0,6.800407342454977,,,23,36,0.0,81967,490909927277151,7,42.15660858154297,-6.352728371595731,0.002544084098190069,25,-112008.44703133928,0.0012720420490950346,1.56109798E9,,,,0,,5,50.755516052246094,1.56109798E9,201.0,NaN,NaN
Raw,221463178964461,1563149000000,,,-1265730960851044583,0.0,6.800407342454977,,,23,1,0.0,85026,490923910300375,31,33.17607879638672,448.10857205656293,0.6827377720460008,16,660891.2463611809,3.4028234663852886E38,1.57542003E9,,,,0,,6,35.23455810546875,1.57542003E9,201.0,NaN,NaN
Raw,221463178964461,1563149000000,,,-1265730960851044583,0.0,6.800407342454977,,,23,3,0.0,85026,490923908061977,38,32.07648468017578,-214.72315699900992,299.7931729746838,16,-151023.5412492079,3.4028234663852886E38,1.57542003E9,,,,0,,6,35.23455810546875,1.57542003E9,201.0,NaN,NaN
Raw,221463178964461,1563149000000,,,-1265730960851044583,0.0,6.800407342454977,,,23,5,0.0,85026,490923911752974,61,25.057220458984375,255.80691694687732,1.0473755233177795,16,170722.25785854305,3.4028234663852886E38,1.57542003E9,,,,1,,6,35.23455810546875,1.57542003E9,201.0,NaN,NaN
Raw,221463178964461,1563149000000,,,-1265730960851044583,0.0,6.800407342454977,,,23,9,0.0,83968,490923914016116,1000000000,13.129436492919922,549.5045277785978,2.99792458E8,16,934461.4634915338,3.4028234663852886E38,1.57542003E9,,,,1,,6,35.23455810546875,1.57542003E9,201.0,NaN,NaN
Raw,221463178964461,1563149000000,,,-1265730960851044583,0.0,6.800407342454977,,,23,12,0.0,85026,490923916525320,46,28.41558074951172,-630.9872629578763,0.8964927545604895,16,-943298.1591742133,3.4028234663852886E38,1.57542003E9,,,,1,,6,35.23455810546875,1.57542003E9,201.0,NaN,NaN
Raw,221463178964461,1563149000000,,,-1265730960851044583,0.0,6.800407342454977,,,23,26,0.0,21546,490923916975237,14,42.55107116699219,251.44082063558744,0.0024090297520160675,25,276957.1783219447,0.0012045148760080338,1.57542003E9,,,,0,,6,35.23455810546875,1.57542003E9,201.0,NaN,NaN
Raw,221463178964461,1563149000000,,,-1265730960851044583,0.0,6.800407342454977,,,23,31,0.0,21546,490923921436657,22,37.29492950439453,106.07288126673666,0.004412139765918255,25,99189.32600311967,0.0022060698829591274,1.57542003E9,,,,0,,6,35.23455810546875,1.57542003E9,201.0,NaN,NaN
Raw,221463178964461,1563149000000,,,-1265730960851044583,0.0,6.800407342454977,,,23,33,0.0,85026,490923917370365,50,28.778066635131836,-281.7757720347805,299.79341155187944,16,-543707.8821940101,3.4028234663852886E38,1.57542003E9,,,,0,,6,35.23455810546875,1.57542003E9,201.0,NaN,NaN
Fix,gps,51.524319,-0.134509,82.437161,0.048854,3.000000,1581697307000,221464172050460
Raw,221464198801691,1564149000000,,,-1265730960851044641,0.0,6.893438258411914,,,23,2,0.0,16431,490924922306170,13,44.08750915527344,38.51267318354803,0.0020184603054076433,25,-80544.5172324285,0.0010092301527038217,1.57542003E9,,,,0,,1,36.56269836425781,1.57542003E9,201.0,NaN,NaN
Raw,221464198801691,1564149000000,,,-1265730960851044641,0.0,6.893438258411914,,,23,3,0.0,16384,490924914627367,1000000000,12.570178985595703,232.43640609690362,2.99792458E8,16,124729.63461806145,3.4028234663852886E38,1.57542003E9,,,,1,,1,36.56269836425781,1.57542003E9,201.0,NaN,NaN
Raw,221464198801691,1564149000000,,,-1265730960851044641,0.0,6.893438258411914,,,23,6,0.0,16431,490924919153235,40,30.114768981933594,348.5967286135656,0.8227134224757147,16,399615.2454636463,3.4028234663852886E38,1.57542003E9,,,,0,,1,36.56269836425781,1.57542003E9,201.0,NaN,NaN
Raw,221464198801691,1564149000000,,,-1265730960851044641,0.0,6.893438258411914,,,23,12,0.0,16431,490924927362112,12,44.41700744628906,494.4427851436194,0.0019433245761319995,25,700307.5356941416,9.716622880659997E-4,1.57542003E9,,,,0,,1,36.56269836425781,1.57542003E9,201.0,NaN,NaN
Raw,221464198801691,1564149000000,,,-1265730960851044641,0.0,6.893438258411914,,,23,14,0.0,16431,490924925849052,21,37.997623443603516,113.76129640430736,0.00406925193965435,25,21245.717704988987,0.002034625969827175,1.57542003E9,,,,0,,1,36.56269836425781,1.57542003E9,201.0,NaN,NaN
Raw,221464198801691,1564149000000,,,-1265730960851044641,0.0,6.893438258411914,,,23,24,0.0,16430,490924917302757,1000000000,27.32637596130371,695.5718821106889,2.99792458E8,16,1057440.4783082672,3.4028234663852886E38,1.57542003E9,,,,1,,1,36.56269836425781,1.57542003E9,201.0,NaN,NaN
Raw,221464198801691,1564149000000,,,-1265730960851044641,0.0,6.893438258411914,,,23,25,0.0,16431,490924933030647,14,42.84405517578125,99.69497694361053,0.002329126000404358,25,39443.7504885516,0.001164563000202179,1.57542003E9,,,,0,,1,36.56269836425781,1.57542003E9,201.0,NaN,NaN
Raw,221464198801691,1564149000000,,,-1265730960851044641,0.0,6.893438258411914,,,23,29,0.0,16431,490924929660029,16,41.34210205078125,-452.27932297752704,0.002768794074654579,25,-828953.1029710242,0.0013843970373272896,1.57542003E9,,,,0,,1,36.56269836425781,1.57542003E9,201.0,NaN,NaN
Raw,221464198801691,1564149000000,,,-1265730960851044641,0.0,6.893438258411914,,,23,31,0.0,16431,490924926315167,10,49.192710876464844,-501.0647390176309,0.0011820585932582617,25,-867757.2010923413,5.910292966291308E-4,1.57542003E9,,,,0,,1,36.56269836425781,1.57542003E9,201.0,NaN,NaN
Raw,221464198801691,1564149000000,,,-1265730960851044641,0.0,6.893438258411914,,,23,32,0.0,16431,490924924481311,21,37.98232650756836,467.7361662935,0.0038432900328189135,25,610783.3854950785,0.0019216450164094567,1.57542003E9,,,,0,,1,36.56269836425781,1.57542003E9,201.0,NaN,NaN
Raw,221464198801691,1564149000000,,,-1265730960851044641,0.0,6.893438258411914,,,23,2,0.0,32995,69706925685015,144,23.53433609008789,150.7652290155105,299.7934797167925,16,29145.853334501753,3.4028234663852886E38,1.59975002E9,,,,0,,3,50.053245544433594,1.59975002E9,201.0,NaN,NaN
Raw,221464198801691,1564149000000,,,-1265730960851044641,0.0,6.893438258411914,,,23,9,0.0,32995,69706921240821,109,26.5130615234375,677.9924918607885,0.9814561249320883,16,1009170.9165713665,3.4028234663852886E38,1.60087501E9,,,,0,,3,50.053245544433594,1.60087501E9,201.0,NaN,NaN
Raw,221464198801691,1564149000000,,,-1265730960851044641,0.0,6.893438258411914,,,23,12,0.0,32995,69706923442044,194,19.38860321044922,-705.2739305142982,1.3022308863030743,16,-1093705.5182848428,3.4028234663852886E38,1.60143744E9,,,,0,,3,50.053245544433594,1.60143744E9,201.0,NaN,NaN
Raw,221464198801691,1564149000000,,,-1265730960851044641,0.0,6.893438258411914,,,23,11,0.0,32995,69706934606120,33,47.55572509765625,-315.1109432961093,0.0014035315252840517,25,-597837.2099341508,7.01765762642026E-4,1.602E9,,,,0,,3,50.053245544433594,1.602E9,201.0,NaN,NaN
Raw,221464198801691,1564149000000,,,-1265730960851044641,0.0,6.893438258411914,,,23,1,0.0,32995,69706920037063,184,20.037622451782227,717.8937780208253,1.2760302641203554,16,1052213.441250982,3.4028234663852886E38,1.60256256E9,,,,1,,3,50.053245544433594,1.60256256E9,201.0,NaN,NaN
Raw,221464198801691,1564149000000,,,-1265730960851044641,0.0,6.893438258411914,,,23,19,0.0,32832,69706920266850,1000000000,15.658744812011719,780.1344103087381,2.99792458E8,16,773514.9715448946,3.4028234663852886E38,1.60368755E9,,,,1,,3,50.053245544433594,1.60368755E9,201.0,NaN,NaN
Raw,221464198801691,1564149000000,,,-1265730960851044641,0.0,6.893438258411914,,,23,21,0.0,32995,69706930825167,33,41.056453704833984,-654.9386632384267,0.0028099417686462402,25,-1150269.01205073,0.0014049708843231201,1.60424998E9,,,,0,,3,50.053245544433594,1.60424998E9,201.0,NaN,NaN
Raw,221464198801691,1564149000000,,,-1265730960851044641,0.0,6.893438258411914,,,23,3,0.0,32995,69706920694219,76,30.961477279663086,-462.269419811666,0.008466767147183418,25,-373076.57123130246,0.004233383573591709,1.60481254E9,,,,0,,3,50.053245544433594,1.60481254E9,201.0,NaN,NaN
Raw,221464198801691,1564149000000,,,-1265730960851044641,0.0,6.893438258411914,,,23,5,0.0,16904,490910864577464,1000000000,12.0,-25.853737330690336,2.99792458E8,16,-47787.35769079749,3.4028234663852886E38,1.56109798E9,,,,0,,5,51.1672477722168,1.56109798E9,201.0,NaN,NaN
Raw,221464198801691,1564149000000,,,-1265730960851044641,0.0,6.893438258411914,,,23,8,0.0,81967,490910869212716,23,28.476638793945312,55.782573397679954,0.8945901946193207,16,33513.00406589627,3.4028234663852886E38,1.56109798E9,,,,1,,5,51.1672477722168,1.56109798E9,201.0,NaN,NaN
Raw,221464198801691,1564149000000,,,-1265730960851044641,0.0,6.893438258411914,,,23,13,0.0,81967,490910872167368,7,43.08958435058594,-99.66185898688855,0.0022849810775369406,25,-207001.91553427294,0.0011424905387684703,1.56109798E9,,,,0,,5,51.1672477722168,1.56109798E9,201.0,NaN,NaN
Raw,221464198801691,1564149000000,,,-1265730960851044641,0.0,6.893438258411914,,,23,14,0.0,16384,490910909825087,1000000000,14.186641693115234,-279.90767851030876,2.99792458E8,16,-106941.18295160521,3.4028234663852886E38,1.56109798E9,,,,1,,5,51.1672477722168,1.56109798E9,201.0,NaN,NaN
Raw,221464198801691,1564149000000,,,-1265730960851044641,0.0,6.893438258411914,,,23,21,0.0,16384,490910912310952,1000000000,12.0,350.35592868944696,2.99792458E8,16,216242.1298023258,3.4028234663852886E38,1.56109798E9,,,,1,,5,51.1672477722168,1.56109798E9,201.0,NaN,NaN
Raw,221464198801691,1564149000000,,,-1265730960851044641,0.0,6.893438258411914,,,23,27,0.0,81967,490910922193644,6,46.76848602294922,340.99782978603616,0.0015769443707540631,25,410991.94581427105,7.884721853770316E-4,1.56109798E9,,,,0,,5,51.1672477722168,1.56109798E9,201.0,NaN,NaN
Raw,221464198801691,1564149000000,,,-1265730960851044641,0.0,6.893438258411914,,,23,29,0.0,81967,490910916286394,39,21.936296463012695,-680.4381807759523,1.1899744578229834,16,-1071949.4394172295,3.4028234663852886E38,1.56109798E9,,,,1,,5,51.1672477722168,1.56109798E9,201.0,NaN,NaN
Raw,221464198801691,1564149000000,,,-1265730960851044641,0.0,6.893438258411914,,,23,30,0.0,81967,490910926310831,8,41.484657287597656,-272.60982298108866,0.002748711034655571,25,238860.9888160065,0.0013743555173277855,1.56109798E9,,,,0,,5,51.1672477722168,1.56109798E9,201.0,NaN,NaN
Raw,221464198801691,1564149000000,,,-1265730960851044641,0.0,6.893438258411914,,,23,36,0.0,81967,490910927277189,9,39.965370178222656,-6.287220512604108,0.003274111077189446,25,-112014.73425185189,0.0016370555385947227,1.56109798E9,,,,0,,5,51.1672477722168,1.56109798E9,201.0,NaN,NaN
Raw,221464198801691,1564149000000,,,-1265730960851044641,0.0,6.893438258411914,,,23,1,0.0,85026,490924910299012,35,31.80583953857422,448.09614002972376,0.007825776934623718,25,661339.3425012106,0.003912888467311859,1.57542003E9,,,,1,,6,36.56269836425781,1.57542003E9,201.0,NaN,NaN
Raw,221464198801691,1564149000000,,,-1265730960851044641,0.0,6.893438258411914,,,23,3,0.0,85026,490924908062703,43,30.493995666503906,-215.0611186378901,299.7931729746838,16,-151235.29310955608,3.4028234663852886E38,1.57542003E9,,,,0,,6,36.56269836425781,1.57542003E9,201.0,NaN,NaN
Raw,221464198801691,1564149000000,,,-1265730960851044641,0.0,6.893438258411914,,,23,5,0.0,85026,490924911752114,66,24.14277458190918,255.9846910401003,1.0884970056220187,16,170976.66555778997,3.4028234663852886E38,1.57542003E9,,,,1,,6,36.56269836425781,1.57542003E9,201.0,NaN,NaN
Raw,221464198801691,1564149000000,,,-1265730960851044641,0.0,6.893438258411914,,,23,9,0.0,83968,490924914014272,1000000000,12.90212631225586,549.4370445146826,2.99792458E8,16,935010.9181789835,3.4028234663852886E38,1.57542003E9,,,,1,,6,36.56269836425781,1.57542003E9,201.0,NaN,NaN
Raw,221464198801691,1564149000000,,,-1265730960851044641,0.0,6.893438258411914,,,23,12,0.0,85026,490924916527432,46,28.442445755004883,-631.258695641624,0.8953187071274957,16,-943929.3100158774,3.4028234663852886E38,1.57542003E9,,,,1,,6,36.56269836425781,1.57542003E9,201.0,NaN,NaN
Raw,221464198801691,1564149000000,,,-1265730960851044641,0.0,6.893438258411914,,,23,26,0.0,21546,490924916974413,12,44.46776580810547,251.43838154856348,0.0019320013234391809,25,277208.6167034933,9.660006617195904E-4,1.57542003E9,,,,0,,6,36.56269836425781,1.57542003E9,201.0,NaN,NaN
Raw,221464198801691,1564149000000,,,-1265730960851044641,0.0,6.893438258411914,,,23,31,0.0,21546,490924921436267,16,41.6256103515625,106.08624024965684,0.0026798793114721775,25,99295.41224336933,0.0013399396557360888,1.57542003E9,,,,0,,6,36.56269836425781,1.57542003E9,201.0,NaN,NaN
Raw,221464198801691,1564149000000,,,-1265730960851044641,0.0,6.893438258411914,,,23,33,0.0,85026,490924917371333,22,37.610572814941406,-282.7649301292138,0.48315656486874436,16,-543990.219454264,3.4028234663852886E38,1.57542003E9,,,,0,,6,36.56269836425781,1.57542003E9,201.0,NaN,NaN
Fix,gps,51.524321,-0.134506,82.451920,0.028472,2.000000,1581697308000,221465167330536
Raw,221465189827036,1565149000000,,,-1265730960851044697,0.0,6.871437666348101,,,23,2,0.0,16431,490925922306033,13,44.133026123046875,38.59178436655202,0.0020079107489436865,25,-80505.92544806194,0.0010039553744718432,1.57542003E9,,,,0,,1,35.604225158691406,1.57542003E9,201.0,NaN,NaN
Raw,221465189827036,1565149000000,,,-1265730960851044697,0.0,6.871437666348101,,,23,3,0.0,16384,490925914626665,1000000000,13.11422348022461,232.43640609690362,2.99792458E8,16,124962.19927521874,3.4028234663852886E38,1.57542003E9,,,,1,,1,35.604225158691406,1.57542003E9,201.0,NaN,NaN
Raw,221465189827036,1565149000000,,,-1265730960851044697,0.0,6.871437666348101,,,23,6,0.0,16431,490925919152067,47,28.345468521118164,347.9722016802416,0.902276653940087,16,399963.2691760028,3.4028234663852886E38,1.57542003E9,,,,0,,1,35.604225158691406,1.57542003E9,201.0,NaN,NaN
Raw,221465189827036,1565149000000,,,-1265730960851044697,0.0,6.871437666348101,,,23,12,0.0,16431,490925927360473,14,42.55332565307617,494.46986553119496,0.0024084048345685005,25,700802.0055596728,0.0012042024172842503,1.57542003E9,,,,0,,1,35.604225158691406,1.57542003E9,201.0,NaN,NaN
Raw,221465189827036,1565149000000,,,-1265730960851044697,0.0,6.871437666348101,,,23,14,0.0,16431,490925925848681,27,34.92188262939453,113.43220932552185,0.6041496849285086,16,21359.215079589452,3.4028234663852886E38,1.57542003E9,,,,0,,1,35.604225158691406,1.57542003E9,201.0,NaN,NaN
Raw,221465189827036,1565149000000,,,-1265730960851044697,0.0,6.871437666348101,,,23,24,0.0,16430,490925917300480,1000000000,24.234745025634766,694.0108374370311,2.99792458E8,16,1058136.5377150145,3.4028234663852886E38,1.57542003E9,,,,1,,1,35.604225158691406,1.57542003E9,201.0,NaN,NaN
Raw,221465189827036,1565149000000,,,-1265730960851044697,0.0,6.871437666348101,,,23,25,0.0,16431,490925933030319,13,43.74384307861328,99.7447316204707,0.00209992378950119,25,39543.49522017207,0.001049961894750595,1.57542003E9,,,,0,,1,35.604225158691406,1.57542003E9,201.0,NaN,NaN
Raw,221465189827036,1565149000000,,,-1265730960851044697,0.0,6.871437666348101,,,23,29,0.0,16431,490925929661534,13,43.59020233154297,-452.256793909939,0.0021373990457504988,25,-829405.3597649342,0.0010686995228752494,1.57542003E9,,,,0,,1,35.604225158691406,1.57542003E9,201.0,NaN,NaN
Raw,221465189827036,1565149000000,,,-1265730960851044697,0.0,6.871437666348101,,,23,31,0.0,16431,490925926316820,10,49.34821319580078,-501.0242036014097,0.0011610847432166336,25,-868258.2252959427,5.805423716083169E-4,1.57542003E9,,,,0,,1,35.604225158691406,1.57542003E9,201.0,NaN,NaN
Raw,221465189827036,1565149000000,,,-1265730960851044697,0.0,6.871437666348101,,,23,32,0.0,16431,490925924479693,18,39.632877349853516,467.8092442629858,0.003370946040377021,25,611251.1947393415,0.0016854730201885104,1.57542003E9,,,,0,,1,35.604225158691406,1.57542003E9,201.0,NaN,NaN
Raw,221465189827036,1565149000000,,,-1265730960851044697,0.0,6.871437666348101,,,23,2,0.0,32995,69707925684521,125,24.753986358642578,150.84781080766527,1.1459330009965312,16,29295.64535057304,3.4028234663852886E38,1.59975002E9,,,,0,,3,50.053245544433594,1.59975002E9,201.0,NaN,NaN
Raw,221465189827036,1565149000000,,,-1265730960851044697,0.0,6.871437666348101,,,23,9,0.0,32995,69707921238524,109,26.486461639404297,677.876679673524,0.9826518733041962,16,1009848.2385817566,3.4028234663852886E38,1.60087501E9,,,,0,,3,50.053245544433594,1.60087501E9,201.0,NaN,NaN
Raw,221465189827036,1565149000000,,,-1265730960851044697,0.0,6.871437666348101,,,23,12,0.0,32995,69707923444398,243,16.598575592041016,-704.9750955355062,1.4276958643009037,16,-1094411.1327802278,3.4028234663852886E38,1.60143744E9,,,,0,,3,50.053245544433594,1.60143744E9,201.0,NaN,NaN
Raw,221465189827036,1565149000000,,,-1265730960851044697,0.0,6.871437666348101,,,23,11,0.0,32995,69707934607142,33,48.64205551147461,-315.05777797917835,0.001238527474924922,25,-598152.26771213,6.19263737462461E-4,1.602E9,,,,0,,3,50.053245544433594,1.602E9,201.0,NaN,NaN
Raw,221465189827036,1565149000000,,,-1265730960851044697,0.0,6.871437666348101,,,23,1,0.0,32995,69707920034769,192,19.512062072753906,717.9246567264349,1.2996637850270085,16,1052931.5300663707,3.4028234663852886E38,1.60256256E9,,,,1,,3,50.053245544433594,1.60256256E9,201.0,NaN,NaN
Raw,221465189827036,1565149000000,,,-1265730960851044697,0.0,6.871437666348101,,,23,19,0.0,32832,69707920264113,1000000000,16.299379348754883,780.1987579866532,2.99792458E8,16,774295.2480331233,3.4028234663852886E38,1.60368755E9,,,,1,,3,50.053245544433594,1.60368755E9,201.0,NaN,NaN
Raw,221465189827036,1565149000000,,,-1265730960851044697,0.0,6.871437666348101,,,23,21,0.0,32995,69707930827347,34,40.77085494995117,-654.9066901539918,0.0029038707725703716,25,-1150923.918740884,0.0014519353862851858,1.60424998E9,,,,0,,3,50.053245544433594,1.60424998E9,201.0,NaN,NaN
Raw,221465189827036,1565149000000,,,-1265730960851044697,0.0,6.871437666348101,,,23,3,0.0,32995,69707920695810,92,28.63439178466797,-462.5531942853213,0.953387957206894,16,-373538.8348502288,3.4028234663852886E38,1.60481254E9,,,,0,,3,50.053245544433594,1.60481254E9,201.0,NaN,NaN
Raw,221465189827036,1565149000000,,,-1265730960851044697,0.0,6.871437666348101,,,23,5,0.0,16904,490911864577554,1000000000,13.655464172363281,-25.853737330690336,2.99792458E8,16,-47813.21142899873,3.4028234663852886E38,1.56109798E9,,,,0,,5,51.1672477722168,1.56109798E9,201.0,NaN,NaN
Raw,221465189827036,1565149000000,,,-1265730960851044697,0.0,6.871437666348101,,,23,8,0.0,81967,490911869212546,33,23.83603858947754,55.14600257628223,1.1032727490341254,16,33568.77828937364,3.4028234663852886E38,1.56109798E9,,,,1,,5,51.1672477722168,1.56109798E9,201.0,NaN,NaN
Raw,221465189827036,1565149000000,,,-1265730960851044697,0.0,6.871437666348101,,,23,13,0.0,81967,490911872167707,7,42.618412017822266,-99.61528820981039,0.0024123550392687325,25,-207101.53082248275,0.001206177519634366,1.56109798E9,,,,0,,5,51.1672477722168,1.56109798E9,201.0,NaN,NaN
Raw,221465189827036,1565149000000,,,-1265730960851044697,0.0,6.871437666348101,,,23,14,0.0,16384,490911909826022,1000000000,12.0,-279.90767851030876,2.99792458E8,16,-107220.7942139637,3.4028234663852886E38,1.56109798E9,,,,0,,5,51.1672477722168,1.56109798E9,201.0,NaN,NaN
Raw,221465189827036,1565149000000,,,-1265730960851044697,0.0,6.871437666348101,,,23,21,0.0,16384,490911912309782,1000000000,12.0,350.35592868944696,2.99792458E8,16,216592.85596161603,3.4028234663852886E38,1.56109798E9,,,,1,,5,51.1672477722168,1.56109798E9,201.0,NaN,NaN
Raw,221465189827036,1565149000000,,,-1265730960851044697,0.0,6.871437666348101,,,23,27,0.0,81967,490911922192495,6,47.513275146484375,341.08988326840336,0.00144736107904464,25,411333.03569753945,7.2368053952232E-4,1.56109798E9,,,,0,,5,51.1672477722168,1.56109798E9,201.0,NaN,NaN
Raw,221465189827036,1565149000000,,,-1265730960851044697,0.0,6.871437666348101,,,23,29,0.0,81967,490911916288650,41,21.33127212524414,-680.2134410576409,1.217181976953679,16,-1072630.1558819248,3.4028234663852886E38,1.56109798E9,,,,1,,5,51.1672477722168,1.56109798E9,201.0,NaN,NaN
Raw,221465189827036,1565149000000,,,-1265730960851044697,0.0,6.871437666348101,,,23,30,0.0,81967,490911926311732,7,43.303497314453125,-272.5152530481573,0.0022293950896710157,25,238588.47356295833,0.0011146975448355079,1.56109798E9,,,,0,,5,51.1672477722168,1.56109798E9,201.0,NaN,NaN
Raw,221465189827036,1565149000000,,,-1265730960851044697,0.0,6.871437666348101,,,23,36,0.0,81967,490911927277201,8,40.64834213256836,-6.2603899894456845,0.003026528749614954,25,-112020.99464184133,0.001513264374807477,1.56109798E9,,,,0,,5,51.1672477722168,1.56109798E9,201.0,NaN,NaN
Raw,221465189827036,1565149000000,,,-1265730960851044697,0.0,6.871437666348101,,,23,1,0.0,85026,490925910297498,54,27.93149757385254,446.3758881318563,299.79358196416206,16,661787.5934196913,3.4028234663852886E38,1.57542003E9,,,,1,,6,35.604225158691406,1.57542003E9,201.0,NaN,NaN
Raw,221465189827036,1565149000000,,,-1265730960851044697,0.0,6.871437666348101,,,23,3,0.0,83968,490925908063412,1000000000,28.76006317138672,-214.98681888267038,2.99792458E8,16,-151447.0350060054,3.4028234663852886E38,1.57542003E9,,,,0,,6,35.604225158691406,1.57542003E9,201.0,NaN,NaN
Raw,221465189827036,1565149000000,,,-1265730960851044697,0.0,6.871437666348101,,,23,5,0.0,85026,490925911751259,68,23.73239517211914,256.1696906141061,1.106951124781269,16,171231.06682799035,3.4028234663852886E38,1.57542003E9,,,,0,,6,35.604225158691406,1.57542003E9,201.0,NaN,NaN
Raw,221465189827036,1565149000000,,,-1265730960851044697,0.0,6.871437666348101,,,23,9,0.0,83968,490925914013055,1000000000,12.041925430297852,549.552652207208,2.99792458E8,16,935560.4643248151,3.4028234663852886E38,1.57542003E9,,,,0,,6,35.604225158691406,1.57542003E9,201.0,NaN,NaN
Raw,221465189827036,1565149000000,,,-1265730960851044697,0.0,6.871437666348101,,,23,12,0.0,85026,490925916529550,54,26.469486236572266,-631.1584932194469,0.984007250056659,16,-944560.4474577883,3.4028234663852886E38,1.57542003E9,,,,1,,6,35.604225158691406,1.57542003E9,201.0,NaN,NaN
Raw,221465189827036,1565149000000,,,-1265730960851044697,0.0,6.871437666348101,,,23,26,0.0,21546,490925916973602,12,45.20708465576172,251.54640899586957,0.001774358912371099,25,277460.16311248916,8.871794561855495E-4,1.57542003E9,,,,0,,6,35.604225158691406,1.57542003E9,201.0,NaN,NaN
Raw,221465189827036,1565149000000,,,-1265730960851044697,0.0,6.871437666348101,,,23,31,0.0,21546,490925921435946,18,40.064979553222656,106.10270354249224,0.0032073534093797207,25,99401.51494691182,0.0016036767046898603,1.57542003E9,,,,0,,6,35.604225158691406,1.57542003E9,201.0,NaN,NaN
Raw,221465189827036,1565149000000,,,-1265730960851044697,0.0,6.871437666348101,,,23,33,0.0,85026,490925917372297,25,35.900047302246094,-282.53756661491934,0.004884466528892517,25,-544272.757020879,0.0024422332644462585,1.57542003E9,,,,0,,6,35.604225158691406,1.57542003E9,201.0,NaN,NaN
Fix,gps,51.524325,-0.134503,82.600604,0.203927,2.000000,1581697309000,221466159330843
Raw,221466189112882,1566149000000,,,-1265730960851044751,0.0,6.58329226016821,,,23,2,0.0,16431,490926922305907,13,43.467655181884766,38.69147404147952,0.0021677687764167786,25,-80467.23397402046,0.0010838843882083893,1.57542003E9,,,,0,,1,34.6890754699707,1.57542003E9,201.0,NaN,NaN
Raw,221466189112882,1566149000000,,,-1265730960851044751,0.0,6.58329226016821,,,23,3,0.0,16384,490926914625950,1000000000,13.06745719909668,232.62205323758337,2.99792458E8,16,125194.50904651888,3.4028234663852886E38,1.57542003E9,,,,1,,1,34.6890754699707,1.57542003E9,201.0,NaN,NaN
Raw,221466189112882,1566149000000,,,-1265730960851044751,0.0,6.58329226016821,,,23,6,0.0,16431,490926919150790,62,24.853538513183594,348.35375478101446,1.0593046493699547,16,400310.0998600792,3.4028234663852886E38,1.57542003E9,,,,0,,1,34.6890754699707,1.57542003E9,201.0,NaN,NaN
Raw,221466189112882,1566149000000,,,-1265730960851044751,0.0,6.58329226016821,,,23,12,0.0,16431,490926927358808,13,43.98966979980469,494.511065493105,0.002041325205937028,25,701296.5166251659,0.001020662602968514,1.57542003E9,,,,0,,1,34.6890754699707,1.57542003E9,201.0,NaN,NaN
Raw,221466189112882,1566149000000,,,-1265730960851044751,0.0,6.58329226016821,,,23,14,0.0,16431,490926925848287,25,36.10884094238281,114.06826320242179,0.004768451675772668,17,21473.283342791874,0.09753106223706877,1.57542003E9,,,,0,,1,34.6890754699707,1.57542003E9,201.0,NaN,NaN
Raw,221466189112882,1566149000000,,,-1265730960851044751,0.0,6.58329226016821,,,23,24,0.0,16396,490926917298175,1000000000,25.25047492980957,694.3418462547806,2.99792458E8,16,1058830.3004650217,3.4028234663852886E38,1.57542003E9,,,,0,,1,34.6890754699707,1.57542003E9,201.0,NaN,NaN
Raw,221466189112882,1566149000000,,,-1265730960851044751,0.0,6.58329226016821,,,23,25,0.0,16431,490926933029979,12,44.46595001220703,99.8188218012001,0.0019324054010212421,25,39643.31404197327,9.662027005106211E-4,1.57542003E9,,,,0,,1,34.6890754699707,1.57542003E9,201.0,NaN,NaN
Raw,221466189112882,1566149000000,,,-1265730960851044751,0.0,6.58329226016821,,,23,29,0.0,16431,490926929663046,12,44.88617706298828,-452.1395654543303,0.0018411403289064765,25,-829857.4993303885,9.205701644532382E-4,1.57542003E9,,,,0,,1,34.6890754699707,1.57542003E9,201.0,NaN,NaN
Raw,221466189112882,1566149000000,,,-1265730960851044751,0.0,6.58329226016821,,,23,31,0.0,16431,490926926318500,10,49.962162017822266,-500.95942708593793,0.0010818481678143144,25,-868759.1847230287,5.409240839071572E-4,1.57542003E9,,,,0,,1,34.6890754699707,1.57542003E9,201.0,NaN,NaN
Raw,221466189112882,1566149000000,,,-1265730960851044751,0.0,6.58329226016821,,,23,32,0.0,16431,490926924478140,22,37.351295471191406,467.91578536166344,0.004383600316941738,25,611719.1105247032,0.002191800158470869,1.57542003E9,,,,0,,1,34.6890754699707,1.57542003E9,201.0,NaN,NaN
Raw,221466189112882,1566149000000,,,-1265730960851044751,0.0,6.58329226016821,,,23,2,0.0,32995,69708925684081,118,25.49018669128418,152.1355482624666,1.0282528687857586,16,29447.465087708704,3.4028234663852886E38,1.59975002E9,,,,0,,3,51.1672477722168,1.59975002E9,201.0,NaN,NaN
Raw,221466189112882,1566149000000,,,-1265730960851044751,0.0,6.58329226016821,,,23,9,0.0,32995,69708921236294,139,23.519968032836914,677.5275389889043,1.1160514069420508,16,1010526.3694443573,3.4028234663852886E38,1.60087501E9,,,,0,,3,51.1672477722168,1.60087501E9,201.0,NaN,NaN
Raw,221466189112882,1566149000000,,,-1265730960851044751,0.0,6.58329226016821,,,23,12,0.0,96,923446640,1000000000,15.738388061523438,-705.1294208986415,2.99792458E8,16,-1095117.1168633183,3.4028234663852886E38,1.60143744E9,,,,1,,3,51.1672477722168,1.60143744E9,201.0,NaN,NaN
Raw,221466189112882,1566149000000,,,-1265730960851044751,0.0,6.58329226016821,,,23,11,0.0,32995,69708934608213,33,48.91183853149414,-314.9797052798094,0.0012006498873233795,25,-598467.2474174098,6.003249436616898E-4,1.602E9,,,,0,,3,51.1672477722168,1.602E9,201.0,NaN,NaN
Raw,221466189112882,1566149000000,,,-1265730960851044751,0.0,6.58329226016821,,,23,1,0.0,32995,69708920032328,199,19.0556583404541,718.1078158477885,1.3201871486413594,16,1053649.5287793102,3.4028234663852886E38,1.60256256E9,,,,1,,3,51.1672477722168,1.60256256E9,201.0,NaN,NaN
Raw,221466189112882,1566149000000,,,-1265730960851044751,0.0,6.58329226016821,,,23,19,0.0,32832,69708920261383,1000000000,16.2093563079834,780.1586770177823,2.99792458E8,16,775075.6345621264,3.4028234663852886E38,1.60368755E9,,,,0,,3,51.1672477722168,1.60368755E9,201.0,NaN,NaN
Raw,221466189112882,1566149000000,,,-1265730960851044751,0.0,6.58329226016821,,,23,21,0.0,32995,69708930829539,33,42.091487884521484,-654.7164674415253,0.0024942823220044374,25,-1151578.6352083255,0.0012471411610022187,1.60424998E9,,,,0,,3,51.1672477722168,1.60424998E9,201.0,NaN,NaN
Raw,221466189112882,1566149000000,,,-1265730960851044751,0.0,6.58329226016821,,,23,3,0.0,32995,69708920697353,82,29.948490142822266,-461.85985487227777,0.9457445003605685,16,-374000.8114648821,3.4028234663852886E38,1.60481254E9,,,,0,,3,51.1672477722168,1.60481254E9,201.0,NaN,NaN
Raw,221466189112882,1566149000000,,,-1265730960851044751,0.0,6.58329226016821,,,23,5,0.0,16904,490912864577639,1000000000,12.0,-25.853737330690336,2.99792458E8,16,-47839.06516719994,3.4028234663852886E38,1.56109798E9,,,,0,,5,51.712730407714844,1.56109798E9,201.0,NaN,NaN
Raw,221466189112882,1566149000000,,,-1265730960851044751,0.0,6.58329226016821,,,23,8,0.0,81967,490912869212389,27,26.361421585083008,55.48737672112176,0.9897091385252486,16,33624.554849238484,3.4028234663852886E38,1.56109798E9,,,,1,,5,51.712730407714844,1.56109798E9,201.0,NaN,NaN
Raw,221466189112882,1566149000000,,,-1265730960851044751,0.0,6.58329226016821,,,23,13,0.0,81967,490912872168026,6,44.14019012451172,-99.63737881268027,0.002024661051109433,25,-207201.16820129543,0.0010123305255547166,1.56109798E9,,,,0,,5,51.712730407714844,1.56109798E9,201.0,NaN,NaN
Raw,221466189112882,1566149000000,,,-1265730960851044751,0.0,6.58329226016821,,,23,14,0.0,16384,490912909826955,1000000000,12.0,-279.532975983297,2.99792458E8,16,-107500.2489007654,3.4028234663852886E38,1.56109798E9,,,,1,,5,51.712730407714844,1.56109798E9,201.0,NaN,NaN
Raw,221466189112882,1566149000000,,,-1265730960851044751,0.0,6.58329226016821,,,23,21,0.0,16384,490912912308610,1000000000,12.0,350.73063121645873,2.99792458E8,16,216943.59110329545,3.4028234663852886E38,1.56109798E9,,,,1,,5,51.712730407714844,1.56109798E9,201.0,NaN,NaN
Raw,221466189112882,1566149000000,,,-1265730960851044751,0.0,6.58329226016821,,,23,27,0.0,81967,490912922191362,6,48.214393615722656,341.12513710564235,0.0013351221568882465,25,411674.1608346451,6.675610784441233E-4,1.56109798E9,,,,0,,5,51.712730407714844,1.56109798E9,201.0,NaN,NaN
Raw,221466189112882,1566149000000,,,-1265730960851044751,0.0,6.58329226016821,,,23,29,0.0,81967,490912916290929,31,24.912599563598633,-680.2634059389034,1.0561342486730565,16,-1073310.802086921,3.4028234663852886E38,1.56109798E9,,,,1,,5,51.712730407714844,1.56109798E9,201.0,NaN,NaN
Raw,221466189112882,1566149000000,,,-1265730960851044751,0.0,6.58329226016821,,,23,30,0.0,81967,490912926312649,7,42.85293197631836,-272.4443952040456,0.002348093083128333,25,238316.02916775428,0.0011740465415641665,1.56109798E9,,,,0,,5,51.712730407714844,1.56109798E9,201.0,NaN,NaN
Raw,221466189112882,1566149000000,,,-1265730960851044751,0.0,6.58329226016821,,,23,36,0.0,81967,490912927277235,8,40.8204345703125,-6.163773051928729,0.0029671546071767807,25,-112027.15841489326,0.0014835773035883904,1.56109798E9,,,,1,,5,51.712730407714844,1.56109798E9,201.0,NaN,NaN
Raw,221466189112882,1566149000000,,,-1265730960851044751,0.0,6.58329226016821,,,23,1,0.0,85026,490926910295927,44,29.004390716552734,448.19647071193526,0.8703331378332746,16,662235.8081639762,3.4028234663852886E38,1.57542003E9,,,,1,,6,34.6890754699707,1.57542003E9,201.0,NaN,NaN
Raw,221466189112882,1566149000000,,,-1265730960851044751,0.0,6.58329226016821,,,23,3,0.0,16384,490926908064121,1000000000,27.829118728637695,-215.74757339471603,2.99792458E8,16,-151658.47507098684,3.4028234663852886E38,1.57542003E9,,,,0,,6,34.6890754699707,1.57542003E9,201.0,NaN,NaN
Raw,221466189112882,1566149000000,,,-1265730960851044751,0.0,6.58329226016821,,,23,5,0.0,85026,490926911750401,81,21.571434020996094,256.1809207835304,1.2041269316248888,16,171485.4755749321,3.4028234663852886E38,1.57542003E9,,,,0,,6,34.6890754699707,1.57542003E9,201.0,NaN,NaN
Raw,221466189112882,1566149000000,,,-1265730960851044751,0.0,6.58329226016821,,,23,9,0.0,83968,490926914011219,1000000000,13.157023429870605,549.4334317742912,2.99792458E8,16,936110.141420725,3.4028234663852886E38,1.57542003E9,,,,0,,6,34.6890754699707,1.57542003E9,201.0,NaN,NaN
Raw,221466189112882,1566149000000,,,-1265730960851044751,0.0,6.58329226016821,,,23,12,0.0,85026,490926916531551,53,26.694936752319336,-631.2280895956665,1.3132103632834635,16,-945191.6133529684,3.4028234663852886E38,1.57542003E9,,,,1,,6,34.6890754699707,1.57542003E9,201.0,NaN,NaN
Raw,221466189112882,1566149000000,,,-1265730960851044751,0.0,6.58329226016821,,,23,26,0.0,21546,490926916972736,10,46.5965576171875,251.56263293279335,0.0015120564494282007,25,277711.72574542195,7.560282247141004E-4,1.57542003E9,,,,0,,6,34.6890754699707,1.57542003E9,201.0,NaN,NaN
Raw,221466189112882,1566149000000,,,-1265730960851044751,0.0,6.58329226016821,,,23,31,0.0,21546,490926921435584,16,41.08943176269531,106.14039271872025,0.002850519958883524,25,99507.65533963054,0.001425259979441762,1.57542003E9,,,,0,,6,34.6890754699707,1.57542003E9,201.0,NaN,NaN
Raw,221466189112882,1566149000000,,,-1265730960851044751,0.0,6.58329226016821,,,23,33,0.0,85026,490926917373162,32,32.923988342285156,-282.5230118021136,0.006880500353872776,25,-544555.2800326811,0.003440250176936388,1.57542003E9,,,,0,,6,34.6890754699707,1.57542003E9,201.0,NaN,NaN
Fix,gps,51.524326,-0.134503,82.646510,0.029166,2.000000,1581697310000,221467146949381
Raw,221467171760035,1567149000000,,,-1265730960851044806,0.0,6.523569209914591,,,23,2,0.0,16431,490927922305777,12,44.95256042480469,38.785871913976735,0.001827122876420617,25,-80428.44810210649,9.135614382103086E-4,1.57542003E9,,,,0,,1,32.40216064453125,1.57542003E9,201.0,NaN,NaN
Raw,221467171760035,1567149000000,,,-1265730960851044806,0.0,6.523569209914591,,,23,3,0.0,16384,490927914625258,1000000000,12.285236358642578,232.62205323758337,2.99792458E8,16,125426.77193825087,3.4028234663852886E38,1.57542003E9,,,,1,,1,32.40216064453125,1.57542003E9,201.0,NaN,NaN
Raw,221467171760035,1567149000000,,,-1265730960851044806,0.0,6.523569209914591,,,23,6,0.0,16431,490927919149827,53,26.78506851196289,348.4086275360162,0.9724457086234661,16,400658.3947084955,3.4028234663852886E38,1.57542003E9,,,,1,,1,32.40216064453125,1.57542003E9,201.0,NaN,NaN
Raw,221467171760035,1567149000000,,,-1265730960851044806,0.0,6.523569209914591,,,23,12,0.0,16431,490927927357150,14,42.66780090332031,494.53856875374913,0.002376871183514595,25,701791.0551939197,0.0011884355917572975,1.57542003E9,,,,0,,1,32.40216064453125,1.57542003E9,201.0,NaN,NaN
Raw,221467171760035,1567149000000,,,-1265730960851044806,0.0,6.523569209914591,,,23,14,0.0,16431,490927925847889,24,36.461509704589844,114.07088729454699,0.004578718449920416,17,21587.35423008642,0.09743619562414264,1.57542003E9,,,,0,,1,32.40216064453125,1.57542003E9,201.0,NaN,NaN
Raw,221467171760035,1567149000000,,,-1265730960851044806,0.0,6.523569209914591,,,23,24,0.0,16396,490927917296544,1000000000,30.194053649902344,695.1505547831539,2.99792458E8,16,1059526.197143217,3.4028234663852886E38,1.57542003E9,,,,0,,1,32.40216064453125,1.57542003E9,201.0,NaN,NaN
Raw,221467171760035,1567149000000,,,-1265730960851044806,0.0,6.523569209914591,,,23,25,0.0,16431,490927933029647,13,43.733699798583984,99.89123026315065,0.002102377824485302,25,39743.205272236424,0.001051188912242651,1.57542003E9,,,,0,,1,32.40216064453125,1.57542003E9,201.0,NaN,NaN
Raw,221467171760035,1567149000000,,,-1265730960851044806,0.0,6.523569209914591,,,23,29,0.0,16431,490927929664556,12,45.02349090576172,-452.08029106794856,0.0018122633919119835,25,-830309.5796214564,9.061316959559917E-4,1.57542003E9,,,,0,,1,32.40216064453125,1.57542003E9,201.0,NaN,NaN
Raw,221467171760035,1567149000000,,,-1265730960851044806,0.0,6.523569209914591,,,23,31,0.0,16431,490927926320168,12,47.762168884277344,-500.9036472341977,0.0013936894247308373,25,-869260.0883702629,6.968447123654187E-4,1.57542003E9,,,,0,,1,32.40216064453125,1.57542003E9,201.0,NaN,NaN
Raw,221467171760035,1567149000000,,,-1265730960851044806,0.0,6.523569209914591,,,23,32,0.0,16431,490927924476621,27,35.219730377197266,467.9268645559205,0.0052824197337031364,25,612187.0373892591,0.0026412098668515682,1.57542003E9,,,,0,,1,32.40216064453125,1.57542003E9,201.0,NaN,NaN
Raw,221467171760035,1567149000000,,,-1265730960851044806,0.0,6.523569209914591,,,23,2,0.0,32995,69709925683565,148,22.682903289794922,152.7086788513542,1.154493156102184,16,29601.07568784432,3.4028234663852886E38,1.59975002E9,,,,0,,3,50.670780181884766,1.59975002E9,201.0,NaN,NaN
Raw,221467171760035,1567149000000,,,-1265730960851044806,0.0,6.523569209914591,,,23,9,0.0,32995,69709921234014,113,25.999242782592773,677.6812508678222,1.004560635522361,16,1011202.8589492588,3.4028234663852886E38,1.60087501E9,,,,0,,3,50.670780181884766,1.60087501E9,201.0,NaN,NaN
Raw,221467171760035,1567149000000,,,-1265730960851044806,0.0,6.523569209914591,,,23,12,0.0,32995,69709923448345,247,16.372066497802734,-705.0144948552465,1.4378822584941586,16,-1095822.1995982805,3.4028234663852886E38,1.60143744E9,,,,1,,3,50.670780181884766,1.60143744E9,201.0,NaN,NaN
Raw,221467171760035,1567149000000,,,-1265730960851044806,0.0,6.523569209914591,,,23,11,0.0,32995,69709934609257,33,48.382625579833984,-314.88737973116804,0.0012760774698108433,25,-598782.134797141,6.380387349054217E-4,1.602E9,,,,0,,3,50.670780181884766,1.602E9,201.0,NaN,NaN
Raw,221467171760035,1567149000000,,,-1265730960851044806,0.0,6.523569209914591,,,23,1,0.0,32995,69709920029712,204,18.77188491821289,718.07271091757,1.332947833378853,16,1054368.0158459267,3.4028234663852886E38,1.60256256E9,,,,1,,3,50.670780181884766,1.60256256E9,201.0,NaN,NaN
Raw,221467171760035,1567149000000,,,-1265730960851044806,0.0,6.523569209914591,,,23,19,0.0,32832,69709920258667,1000000000,16.860811233520508,780.3513792269623,2.99792458E8,16,775856.0505013156,3.4028234663852886E38,1.60368755E9,,,,0,,3,50.670780181884766,1.60368755E9,201.0,NaN,NaN
Raw,221467171760035,1567149000000,,,-1265730960851044806,0.0,6.523569209914591,,,23,21,0.0,32995,69709930831722,33,41.054683685302734,-654.6777699554804,0.002810514997690916,25,-1152233.312978281,0.001405257498845458,1.60424998E9,,,,0,,3,50.670780181884766,1.60424998E9,201.0,NaN,NaN
Raw,221467171760035,1567149000000,,,-1265730960851044806,0.0,6.523569209914591,,,23,3,0.0,32995,69709920698892,111,26.301300048828125,-463.51687574350376,0.9944788185541009,16,-374462.6592718946,3.4028234663852886E38,1.60481254E9,,,,0,,3,50.670780181884766,1.60481254E9,201.0,NaN,NaN
Raw,221467171760035,1567149000000,,,-1265730960851044806,0.0,6.523569209914591,,,23,5,0.0,16904,490913864577725,1000000000,12.0,-25.853737330690336,2.99792458E8,16,-47864.91890548321,3.4028234663852886E38,1.56109798E9,,,,0,,5,48.451316833496094,1.56109798E9,201.0,NaN,NaN
Raw,221467171760035,1567149000000,,,-1265730960851044806,0.0,6.523569209914591,,,23,8,0.0,81967,490913869212206,27,26.295719146728516,54.98130762574988,0.9926636614750697,16,33680.36831396103,3.4028234663852886E38,1.56109798E9,,,,1,,5,48.451316833496094,1.56109798E9,201.0,NaN,NaN
Raw,221467171760035,1567149000000,,,-1265730960851044806,0.0,6.523569209914591,,,23,13,0.0,81967,490913872168361,7,42.65066909790039,-99.62484468350885,0.0024034134112298493,25,-207300.79304597893,0.0012017067056149244,1.56109798E9,,,,0,,5,48.451316833496094,1.56109798E9,201.0,NaN,NaN
Raw,221467171760035,1567149000000,,,-1265730960851044806,0.0,6.523569209914591,,,23,14,0.0,16384,490913909827887,1000000000,12.0,-279.532975983297,2.99792458E8,16,-107779.78187456542,3.4028234663852886E38,1.56109798E9,,,,1,,5,48.451316833496094,1.56109798E9,201.0,NaN,NaN
Raw,221467171760035,1567149000000,,,-1265730960851044806,0.0,6.523569209914591,,,23,21,0.0,16384,490913912307438,1000000000,12.0,350.73063121645873,2.99792458E8,16,217294.32175471968,3.4028234663852886E38,1.56109798E9,,,,1,,5,48.451316833496094,1.56109798E9,201.0,NaN,NaN
Raw,221467171760035,1567149000000,,,-1265730960851044806,0.0,6.523569209914591,,,23,27,0.0,81967,490913922190225,6,46.00892639160156,341.1877821148956,0.0017210535006597638,25,412015.34861676,8.605267503298819E-4,1.56109798E9,,,,0,,5,48.451316833496094,1.56109798E9,201.0,NaN,NaN
Raw,221467171760035,1567149000000,,,-1265730960851044806,0.0,6.523569209914591,,,23,29,0.0,81967,490913916293190,27,26.619043350219727,-679.5097064953579,0.9793977309465447,16,-1073990.6491449687,3.4028234663852886E38,1.56109798E9,,,,0,,5,48.451316833496094,1.56109798E9,201.0,NaN,NaN
Raw,221467171760035,1567149000000,,,-1265730960851044806,0.0,6.523569209914591,,,23,30,0.0,81967,490913926313561,8,40.39126968383789,-272.3380412590632,0.0031174425967037678,25,238043.69112649522,0.0015587212983518839,1.56109798E9,,,,0,,5,48.451316833496094,1.56109798E9,201.0,NaN,NaN
Raw,221467171760035,1567149000000,,,-1265730960851044806,0.0,6.523569209914591,,,23,36,0.0,81967,490913927277251,9,39.14286422729492,-6.132323900674237,0.0035993054043501616,25,-112033.29073879393,0.0017996527021750808,1.56109798E9,,,,0,,5,48.451316833496094,1.56109798E9,201.0,NaN,NaN
Raw,221467171760035,1567149000000,,,-1265730960851044806,0.0,6.523569209914591,,,23,1,0.0,85026,490927910294486,33,32.58844757080078,448.27950324036647,0.007151500321924686,25,662684.0876672165,0.003575750160962343,1.57542003E9,,,,0,,6,32.40216064453125,1.57542003E9,201.0,NaN,NaN
Raw,221467171760035,1567149000000,,,-1265730960851044806,0.0,6.523569209914591,,,23,3,0.0,85026,490927908064830,40,30.37214469909668,-213.1903496405813,0.8084254842225906,16,-151871.7913150972,3.4028234663852886E38,1.57542003E9,,,,0,,6,32.40216064453125,1.57542003E9,201.0,NaN,NaN
Raw,221467171760035,1567149000000,,,-1265730960851044806,0.0,6.523569209914591,,,23,5,0.0,85026,490927911749522,92,19.912208557128906,256.188589336248,1.2787402188177062,16,171739.93474874654,3.4028234663852886E38,1.57542003E9,,,,1,,6,32.40216064453125,1.57542003E9,201.0,NaN,NaN
Raw,221467171760035,1567149000000,,,-1265730960851044806,0.0,6.523569209914591,,,23,9,0.0,83968,490927914009382,1000000000,13.322383880615234,549.3922260843551,2.99792458E8,16,936659.2711521613,3.4028234663852886E38,1.57542003E9,,,,1,,6,32.40216064453125,1.57542003E9,201.0,NaN,NaN
Raw,221467171760035,1567149000000,,,-1265730960851044806,0.0,6.523569209914591,,,23,12,0.0,85026,490927916533714,53,26.74783706665039,-630.7409831270425,0.9714908673024443,16,-945822.6831420872,3.4028234663852886E38,1.57542003E9,,,,1,,6,32.40216064453125,1.57542003E9,201.0,NaN,NaN
Raw,221467171760035,1567149000000,,,-1265730960851044806,0.0,6.523569209914591,,,23,26,0.0,21546,490927916971896,12,44.803955078125,251.6919318208238,0.0018586514052003622,25,277963.4176772428,9.293257026001811E-4,1.57542003E9,,,,0,,6,32.40216064453125,1.57542003E9,201.0,NaN,NaN
Raw,221467171760035,1567149000000,,,-1265730960851044806,0.0,6.523569209914591,,,23,31,0.0,21546,490927921435242,18,40.13684844970703,106.18084646301577,0.0031809245701879263,25,99613.83618609355,0.0015904622850939631,1.57542003E9,,,,0,,6,32.40216064453125,1.57542003E9,201.0,NaN,NaN
Raw,221467171760035,1567149000000,,,-1265730960851044806,0.0,6.523569209914591,,,23,33,0.0,85026,490927917374107,28,34.60699462890625,-282.38518415228464,0.0056685199961066255,25,-544837.6652168334,0.0028342599980533123,1.57542003E9,,,,0,,6,32.40216064453125,1.57542003E9,201.0,NaN,NaN
Fix,gps,51.524326,-0.134502,82.671227,0.020676,2.000000,1581697311000,221468167116496
Raw,221468185782727,1568149000000,,,-1265730960851044862,0.0,6.693183086179833,,,23,2,0.0,16431,490928922305635,12,44.73735809326172,38.96978605851473,0.001872957218438387,25,-80389.47831604797,9.364786092191935E-4,1.57542003E9,,,,0,,1,34.6890754699707,1.57542003E9,201.0,NaN,NaN
Raw,221468185782727,1568149000000,,,-1265730960851044862,0.0,6.693183086179833,,,23,3,0.0,16384,490928914624578,1000000000,12.0,232.80770037826312,2.99792458E8,16,125660.33422225899,3.4028234663852886E38,1.57542003E9,,,,0,,1,34.6890754699707,1.57542003E9,201.0,NaN,NaN
Raw,221468185782727,1568149000000,,,-1265730960851044862,0.0,6.693183086179833,,,23,6,0.0,16431,490928919148560,44,29.124860763549805,348.40583457320463,0.010655563324689865,17,401006.80054306873,0.10047461806152737,1.57542003E9,,,,1,,1,34.6890754699707,1.57542003E9,201.0,NaN,NaN
Raw,221468185782727,1568149000000,,,-1265730960851044862,0.0,6.693183086179833,,,23,12,0.0,16431,490928927355500,14,43.304954528808594,494.6537136641564,0.0022087576799094677,25,702285.7089075838,0.0011043788399547338,1.57542003E9,,,,0,,1,34.6890754699707,1.57542003E9,201.0,NaN,NaN
Raw,221468185782727,1568149000000,,,-1265730960851044862,0.0,6.693183086179833,,,23,14,0.0,16431,490928925847521,25,36.09390640258789,114.21530133338092,0.004776657558977604,17,21701.569531419802,0.09753516517867124,1.57542003E9,,,,0,,1,34.6890754699707,1.57542003E9,201.0,NaN,NaN
Raw,221468185782727,1568149000000,,,-1265730960851044862,0.0,6.693183086179833,,,23,24,0.0,16396,490928917294139,1000000000,31.06354522705078,696.060692702139,2.99792458E8,16,1060221.6411696933,3.4028234663852886E38,1.57542003E9,,,,1,,1,34.6890754699707,1.57542003E9,201.0,NaN,NaN
Raw,221468185782727,1568149000000,,,-1265730960851044862,0.0,6.693183086179833,,,23,25,0.0,16431,490928933029321,16,41.5211181640625,100.04154709231081,0.0027123133186250925,25,39843.246819328735,0.0013561566593125463,1.57542003E9,,,,0,,1,34.6890754699707,1.57542003E9,201.0,NaN,NaN
Raw,221468185782727,1568149000000,,,-1265730960851044862,0.0,6.693183086179833,,,23,29,0.0,16431,490928929666075,15,41.76229476928711,-451.9117050484056,0.002638037782162428,25,-830761.4913265049,0.001319018891081214,1.57542003E9,,,,0,,1,34.6890754699707,1.57542003E9,201.0,NaN,NaN
Raw,221468185782727,1568149000000,,,-1265730960851044862,0.0,6.693183086179833,,,23,31,0.0,16431,490928926321839,12,47.19628143310547,-500.80807561124675,0.0014875114429742098,25,-869760.8964458741,7.437557214871049E-4,1.57542003E9,,,,0,,1,34.6890754699707,1.57542003E9,201.0,NaN,NaN
Raw,221468185782727,1568149000000,,,-1265730960851044862,0.0,6.693183086179833,,,23,32,0.0,16431,490928924475072,29,33.97954559326172,468.0659482739866,0.00609315512701869,25,612655.1033375331,0.003046577563509345,1.57542003E9,,,,1,,1,34.6890754699707,1.57542003E9,201.0,NaN,NaN
Raw,221468185782727,1568149000000,,,-1265730960851044862,0.0,6.693183086179833,,,23,2,0.0,32995,69710925683054,168,21.12713623046875,152.50820584208702,1.2244541879796378,16,29754.219694447136,3.4028234663852886E38,1.59975002E9,,,,0,,3,50.411476135253906,1.59975002E9,201.0,NaN,NaN
Raw,221468185782727,1568149000000,,,-1265730960851044862,0.0,6.693183086179833,,,23,9,0.0,32995,69710921231757,99,27.642894744873047,678.3245231522337,0.9306471037650277,16,1011880.5564395905,3.4028234663852886E38,1.60087501E9,,,,0,,3,50.411476135253906,1.60087501E9,201.0,NaN,NaN
Raw,221468185782727,1568149000000,,,-1265730960851044862,0.0,6.693183086179833,,,23,12,0.0,32994,69710923451318,1000000000,17.070772171020508,-704.8736661448943,2.99792458E8,16,-1096527.346012419,3.4028234663852886E38,1.60143744E9,,,,1,,3,50.411476135253906,1.60143744E9,201.0,NaN,NaN
Raw,221468185782727,1568149000000,,,-1265730960851044862,0.0,6.693183086179833,,,23,11,0.0,32995,69710934610296,33,48.67466354370117,-314.77967531641474,0.0012338862288743258,25,-599096.9144724574,6.169431144371629E-4,1.602E9,,,,0,,3,50.411476135253906,1.602E9,201.0,NaN,NaN
Raw,221468185782727,1568149000000,,,-1265730960851044862,0.0,6.693183086179833,,,23,1,0.0,32995,69710920027232,207,18.545982360839844,718.396835079102,1.3431057367686083,16,1055085.4713965163,3.4028234663852886E38,1.60256256E9,,,,1,,3,50.411476135253906,1.60256256E9,201.0,NaN,NaN
Raw,221468185782727,1568149000000,,,-1265730960851044862,0.0,6.693183086179833,,,23,19,0.0,32867,69710920256050,238,16.860960006713867,780.1931002988704,1.4189206968230463,16,776636.3845108978,3.4028234663852886E38,1.60368755E9,,,,0,,3,50.411476135253906,1.60368755E9,201.0,NaN,NaN
Raw,221468185782727,1568149000000,,,-1265730960851044862,0.0,6.693183086179833,,,23,21,0.0,32995,69710930833923,39,39.30111312866211,-654.4776407524478,0.003439254593104124,25,-1152887.7906190334,0.001719627296552062,1.60424998E9,,,,0,,3,50.411476135253906,1.60424998E9,201.0,NaN,NaN
Raw,221468185782727,1568149000000,,,-1265730960851044862,0.0,6.693183086179833,,,23,3,0.0,32995,69710920700426,123,24.970436096191406,-463.25672435286515,1.0543265471313896,16,-374926.3746073141,3.4028234663852886E38,1.60481254E9,,,,0,,3,50.411476135253906,1.60481254E9,201.0,NaN,NaN
Raw,221468185782727,1568149000000,,,-1265730960851044862,0.0,6.693183086179833,,,23,5,0.0,16904,490914864577811,1000000000,12.0,-25.853737330690336,2.99792458E8,16,-47890.772643684424,3.4028234663852886E38,1.56109798E9,,,,0,,5,51.86248779296875,1.56109798E9,201.0,NaN,NaN
Raw,221468185782727,1568149000000,,,-1265730960851044862,0.0,6.693183086179833,,,23,8,0.0,81967,490914869211973,25,27.14052963256836,56.01550142617097,0.9546733717292679,16,33736.29513213871,3.4028234663852886E38,1.56109798E9,,,,0,,5,51.86248779296875,1.56109798E9,201.0,NaN,NaN
Raw,221468185782727,1568149000000,,,-1265730960851044862,0.0,6.693183086179833,,,23,13,0.0,81967,490914872168686,8,41.51875305175781,-99.36507842858555,0.002737942151725292,17,-207400.15812440752,0.09738871423100089,1.56109798E9,,,,0,,5,51.86248779296875,1.56109798E9,201.0,NaN,NaN
Raw,221468185782727,1568149000000,,,-1265730960851044862,0.0,6.693183086179833,,,23,14,0.0,16384,490914909828819,1000000000,12.0,-279.532975983297,2.99792458E8,16,-108059.31484836519,3.4028234663852886E38,1.56109798E9,,,,1,,5,51.86248779296875,1.56109798E9,201.0,NaN,NaN
Raw,221468185782727,1568149000000,,,-1265730960851044862,0.0,6.693183086179833,,,23,21,0.0,16384,490914912306266,1000000000,12.0,350.73063121645873,2.99792458E8,16,217645.05240614386,3.4028234663852886E38,1.56109798E9,,,,1,,5,51.86248779296875,1.56109798E9,201.0,NaN,NaN
Raw,221468185782727,1568149000000,,,-1265730960851044862,0.0,6.693183086179833,,,23,27,0.0,81967,490914922189100,7,45.69921875,341.36789568525273,0.001783526851795614,25,412356.71651244524,8.917634258978069E-4,1.56109798E9,,,,0,,5,51.86248779296875,1.56109798E9,201.0,NaN,NaN
Raw,221468185782727,1568149000000,,,-1265730960851044862,0.0,6.693183086179833,,,23,29,0.0,81967,490914916295420,26,26.895950317382812,-679.2292078781752,0.9669458519039913,16,-1074670.5520759227,3.4028234663852886E38,1.56109798E9,,,,1,,5,51.86248779296875,1.56109798E9,201.0,NaN,NaN
Raw,221468185782727,1568149000000,,,-1265730960851044862,0.0,6.693183086179833,,,23,30,0.0,81967,490914926314456,10,38.85545349121094,-272.1864759803284,0.0037203968968242407,25,237771.5046505149,0.0018601984484121203,1.56109798E9,,,,0,,5,51.86248779296875,1.56109798E9,201.0,NaN,NaN
Raw,221468185782727,1568149000000,,,-1265730960851044862,0.0,6.693183086179833,,,23,36,0.0,81967,490914927277254,9,39.661468505859375,-5.978193556933547,0.0033906924072653055,25,-112039.26893235087,0.0016953462036326528,1.56109798E9,,,,0,,5,51.86248779296875,1.56109798E9,201.0,NaN,NaN
Raw,221468185782727,1568149000000,,,-1265730960851044862,0.0,6.693183086179833,,,23,1,0.0,85026,490928910292981,33,32.75759506225586,448.27383049356285,0.0070135798305273065,25,663132.3614977101,0.003506789915263653,1.57542003E9,,,,0,,6,34.6890754699707,1.57542003E9,201.0,NaN,NaN
Raw,221468185782727,1568149000000,,,-1265730960851044862,0.0,6.693183086179833,,,23,3,0.0,85026,490928908065547,28,34.561031341552734,-213.38905889060695,0.005698596592992544,25,-152085.1803739878,0.002849298296496272,1.57542003E9,,,,0,,6,34.6890754699707,1.57542003E9,201.0,NaN,NaN
Raw,221468185782727,1568149000000,,,-1265730960851044862,0.0,6.693183086179833,,,23,5,0.0,84002,490928911748647,1000000000,23.712343215942383,256.2904106751099,2.99792458E8,16,171994.50322272297,3.4028234663852886E38,1.57542003E9,,,,1,,6,34.6890754699707,1.57542003E9,201.0,NaN,NaN
Raw,221468185782727,1568149000000,,,-1265730960851044862,0.0,6.693183086179833,,,23,9,0.0,83968,490928914007549,1000000000,12.462177276611328,549.5303622806421,2.99792458E8,16,937209.0936288383,3.4028234663852886E38,1.57542003E9,,,,0,,6,34.6890754699707,1.57542003E9,201.0,NaN,NaN
Raw,221468185782727,1568149000000,,,-1265730960851044862,0.0,6.693183086179833,,,23,12,0.0,85026,490928916535808,56,26.00440216064453,-631.2969361578425,1.0049225619210223,16,-946453.8436655883,3.4028234663852886E38,1.57542003E9,,,,1,,6,34.6890754699707,1.57542003E9,201.0,NaN,NaN
Raw,221468185782727,1568149000000,,,-1265730960851044862,0.0,6.693183086179833,,,23,26,0.0,21546,490928916971070,12,44.45732116699219,251.7832004566444,0.001934325904585421,25,278215.2008776994,9.671629522927105E-4,1.57542003E9,,,,0,,6,34.6890754699707,1.57542003E9,201.0,NaN,NaN
