# 
# Header Description:
# 
# Version: v2.0.0.1 Platform: 10 Manufacturer: Google Model: Pixel 4
# 
# Raw,ElapsedRealtimeNanos,TimeNanos,LeapSecond,TimeUncertaintyNanos,FullBiasNanos,BiasNanos,BiasUncertaintyNanos,DriftNanosPerSecond,DriftUncertaintyNanosPerSecond,HardwareClockDiscontinuityCount,Svid,TimeOffsetNanos,State,ReceivedSvTimeNanos,ReceivedSvTimeUncertaintyNanos,Cn0DbHz,PseudorangeRateMetersPerSecond,PseudorangeRateUncertaintyMetersPerSecond,AccumulatedDeltaRangeState,AccumulatedDeltaRangeMeters,AccumulatedDeltaRangeUncertaintyMeters,CarrierFrequencyHz,CarrierCycles,CarrierPhase,CarrierPhaseUncertainty,MultipathIndicator,SnrInDb,ConstellationType,AgcDb,CarrierFrequencyHz,UserLatitude,UserLongitude,UserAltitude
# 
# Fix,Provider,Latitude,Longitude,Altitude,Speed,Accuracy,(UTC)TimeInMs,ElapsedRealtimeNanos
# 
# Nav,Svid,Type,Status,MessageId,Sub-messageId,Data(Bytes)
# 
Fix,gps,51.524630,-0.134217,72.674255,0.000000,3.790092,1582195808000,233065904024933
Raw,233065926071863,649870208000000,,,-1265581155234616647,0.8889884948730469,32.77038922533393,1.9152784258836104,11.430747031735423,158,5,0.0,16399,384625360391016,14,30.7,728.7034912109375,0.007899999618530273,25,8270.93883617596,0.002397700231676362,1.57542003E9,,,,0,,1,-0.07,1.57542003E9,366.0,NaN,NaN
Raw,233065926071863,649870208000000,,,-1265581155234616647,0.8889884948730469,32.77038922533393,1.9152784258836104,11.430747031735423,158,13,0.0,16399,384625374243304,9,35.0,267.1557922363281,0.04110000282526016,25,3035.7337158077485,0.0013320557236479321,1.57542003E9,,,,0,,1,-0.07,1.57542003E9,366.0,NaN,NaN
Raw,233065926071863,649870208000000,,,-1265581155234616647,0.8889884948730469,32.77038922533393,1.9152784258836104,11.430747031735423,158,15,0.0,16399,384625375076842,6,39.6,-59.08114242553711,0.04130000248551369,25,-678.9155212945159,8.372921387687362E-4,1.57542003E9,,,,0,,1,-0.07,1.57542003E9,366.0,NaN,NaN
Raw,233065926071863,649870208000000,,,-1265581155234616647,0.8889884948730469,32.77038922533393,1.9152784258836104,11.430747031735423,158,17,0.0,16399,384625361053861,6,38.8,-520.9517822265625,0.005600000265985727,25,-5997.666505785787,9.324389888310735E-4,1.57542003E9,,,,0,,1,-0.07,1.57542003E9,366.0,NaN,NaN
Raw,233065926071863,649870208000000,,,-1265581155234616647,0.8889884948730469,32.77038922533393,1.9152784258836104,11.430747031735423,158,20,0.0,16399,384625366561296,4,42.9,-302.0037536621094,0.02710000053048134,25,-3423.9953648337378,5.899103906353357E-4,1.57542003E9,,,,0,,1,-0.07,1.57542003E9,366.0,NaN,NaN
Raw,233065926071863,649870208000000,,,-1265581155234616647,0.8889884948730469,32.77038922533393,1.9152784258836104,11.430747031735423,158,24,0.0,16399,384625368029187,13,31.0,-563.2252197265625,0.0340999998152256,17,-6388.214118327104,0.002074201012354331,1.57542003E9,,,,0,,1,-0.07,1.57542003E9,366.0,NaN,NaN
Raw,233065926071863,649870208000000,,,-1265581155234616647,0.8889884948730469,32.77038922533393,1.9152784258836104,11.430747031735423,158,28,0.0,16399,384625370687110,4,44.0,240.33126831054688,0.03280000016093254,25,2772.5929737059528,4.947635405729984E-4,1.57542003E9,,,,0,,1,-0.07,1.57542003E9,366.0,NaN,NaN
Raw,233065926071863,649870208000000,,,-1265581155234616647,0.8889884948730469,32.77038922533393,1.9152784258836104,11.430747031735423,158,30,0.0,16399,384625363615217,21,26.8,601.920654296875,0.031200001016259193,25,6836.1371260768,0.005442398901996786,1.57542003E9,,,,0,,1,-0.07,1.57542003E9,366.0,NaN,NaN
Raw,233065926071863,649870208000000,,,-1265581155234616647,0.8889884948730469,32.77038922533393,1.9152784258836104,11.430747031735423,158,14,0.0,49359,49807378759663,9,35.2,34.27117156982422,0.24710001051425934,25,368.7592932509553,0.0013131822554185268,1.59806246E9,,,,0,,3,-5.1,1.59806246E9,366.0,NaN,NaN
Raw,233065926071863,649870208000000,,,-1265581155234616647,0.8889884948730469,32.77038922533393,1.9152784258836104,11.430747031735423,158,22,0.0,49359,49807365312179,16,29.0,-85.15892028808594,0.2314000129699707,25,-910.7638760055834,0.00277253881595763,1.60031245E9,,,,0,,3,-5.1,1.60031245E9,366.0,NaN,NaN
Raw,233065926071863,649870208000000,,,-1265581155234616647,0.8889884948730469,32.77038922533393,1.9152784258836104,11.430747031735423,158,13,0.0,49359,49807370535387,13,31.1,667.0494995117188,0.2371000051498413,21,4371.271379840018,0.0020412198384807895,1.60087501E9,,,,0,,3,-5.1,1.60087501E9,366.0,NaN,NaN
Raw,233065926071863,649870208000000,,,-1265581155234616647,0.8889884948730469,32.77038922533393,1.9152784258836104,11.430747031735423,158,15,0.0,49359,49807371722503,35,22.5,-622.213134765625,0.5982999801635742,19,-5316.853766566234,0.18713636579275905,1.602E9,,,,0,,3,-5.1,1.602E9,366.0,NaN,NaN
Raw,233065926071863,649870208000000,,,-1265581155234616647,0.8889884948730469,32.77038922533393,1.9152784258836104,11.430747031735423,158,5,0.0,49359,49807374451536,11,33.0,-506.9649658203125,0.24220000207424164,25,-5417.879609715078,0.0016275148854291823,1.60256256E9,,,,0,,3,-5.1,1.60256256E9,366.0,NaN,NaN
Raw,233065926071863,649870208000000,,,-1265581155234616647,0.8889884948730469,32.77038922533393,1.9152784258836104,11.430747031735423,158,3,0.0,49359,49807367062114,21,26.7,798.122314453125,0.23720000684261322,21,8537.05898622426,0.005342720110455805,1.60481254E9,,,,0,,3,-5.1,1.60481254E9,366.0,NaN,NaN
Raw,233065926071863,649870208000000,,,-1265581155234616647,0.8889884948730469,32.77038922533393,1.9152784258836104,11.430747031735423,158,4,0.0,49359,49807377787135,6,38.0,279.3848571777344,0.24459999799728394,25,2991.116837978757,9.150404631835356E-4,1.60537498E9,,,,0,,3,-5.1,1.60537498E9,366.0,NaN,NaN
Raw,233065926071863,649870208000000,,,-1265581155234616647,0.8889884948730469,32.77038922533393,1.9152784258836104,11.430747031735423,158,37,0.0,16399,384611362247392,8,36.5,497.0338439941406,0.022600000724196434,17,5472.707047839395,0.0011714408558922843,1.56109798E9,,,,0,,5,-0.09,1.56109798E9,366.0,NaN,NaN
Raw,233065926071863,649870208000000,,,-1265581155234616647,0.8889884948730469,32.77038922533393,1.9152784258836104,11.430747031735423,158,22,0.0,16399,384611363360368,14,30.9,-364.4922180175781,0.027400000020861626,25,-4005.664491409711,0.0024196975554572116,1.56109798E9,,,,0,,5,-0.09,1.56109798E9,366.0,NaN,NaN
Raw,233065926071863,649870208000000,,,-1265581155234616647,0.8889884948730469,32.77038922533393,1.9152784258836104,11.430747031735423,158,20,0.0,16399,384611358598491,17,28.6,652.4751586914062,0.05220000073313713,17,3501.188241354836,0.003034223768286223,1.56109798E9,,,,0,,5,-0.09,1.56109798E9,366.0,NaN,NaN
Raw,233065926071863,649870208000000,,,-1265581155234616647,0.8889884948730469,32.77038922533393,1.9152784258836104,11.430747031735423,158,19,0.0,16399,384611368729767,16,29.4,249.8881072998047,0.03590000048279762,19,1342.8375091865125,0.0028421844273806814,1.56109798E9,,,,0,,5,-0.09,1.56109798E9,366.0,NaN,NaN
Raw,233065926071863,649870208000000,,,-1265581155234616647,0.8889884948730469,32.77038922533393,1.9152784258836104,11.430747031735423,158,10,0.0,16399,384611309950699,10,34.8,174.29281616210938,0.0340999998152256,25,1923.1063662310637,0.001536315979199305,1.56109798E9,,,,0,,5,-0.09,1.56109798E9,366.0,NaN,NaN
Raw,233065926071863,649870208000000,,,-1265581155234616647,0.8889884948730469,32.77038922533393,1.9152784258836104,11.430747031735423,158,1,0.0,23567,384625357546331,11,33.1,412.2954406738281,0.04670000076293945,25,4775.042664210276,0.003596550258902148,1.57542003E9,,,,0,,6,0.07,1.57542003E9,366.0,NaN,NaN
Raw,233065926071863,649870208000000,,,-1265581155234616647,0.8889884948730469,32.77038922533393,1.9152784258836104,11.430747031735423,158,4,0.0,23567,384625355377328,5,40.4,518.5697631835938,0.0471000038087368,25,6011.309955230531,0.001617496273834944,1.57542003E9,,,,0,,6,0.07,1.57542003E9,366.0,NaN,NaN
Raw,233065926071863,649870208000000,,,-1265581155234616647,0.8889884948730469,32.77038922533393,1.9152784258836104,11.430747031735423,158,5,0.0,23567,384625358185571,8,36.9,-403.07293701171875,0.04660000279545784,25,-4659.9733857289575,0.0025499350854412276,1.57542003E9,,,,0,,6,0.07,1.57542003E9,366.0,NaN,NaN
Raw,233065926071863,649870208000000,,,-1265581155234616647,0.8889884948730469,32.77038922533393,1.9152784258836104,11.430747031735423,158,9,0.0,23567,384625370772270,6,38.7,94.92488861083984,0.04610000178217888,25,1104.0248074082926,0.0020551716777868216,1.57542003E9,,,,0,,6,0.07,1.57542003E9,366.0,NaN,NaN
Raw,233065926071863,649870208000000,,,-1265581155234616647,0.8889884948730469,32.77038922533393,1.9152784258836104,11.430747031735423,158,24,0.0,23567,384625361721000,24,25.9,-536.1490478515625,0.058800000697374344,21,-5653.610172651795,0.017526047264890512,1.57542003E9,,,,0,,6,0.07,1.57542003E9,366.0,NaN,NaN
Raw,233065926071863,649870208000000,,,-1265581155234616647,0.8889884948730469,32.77038922533393,1.9152784258836104,11.430747031735423,158,31,0.0,23567,384625364057533,8,36.7,-105.9743881225586,0.04360000044107437,25,-1222.8549633976238,0.0025499350854412276,1.57542003E9,,,,0,,6,0.07,1.57542003E9,366.0,NaN,NaN
Raw,233065926071863,649870208000000,,,-1265581155234616647,0.8889884948730469,32.77038922533393,1.9152784258836104,11.430747031735423,158,24,0.0,81935,384625368036922,11,19.3,-563.3738403320312,0.9284999966621399,16,0.0,0.0,1.17645005E9,,,,0,,1,-7.56,1.17645005E9,366.0,NaN,NaN
Raw,233065926071863,649870208000000,,,-1265581155234616647,0.8889884948730469,32.77038922533393,1.9152784258836104,11.430747031735423,158,30,0.0,81935,384625363623008,8,23.1,601.7781982421875,0.03869999945163727,25,2632.900833645287,0.25482803839368795,1.17645005E9,,,,0,,1,-7.56,1.17645005E9,366.0,NaN,NaN
Raw,233065926071863,649870208000000,,,-1265581155234616647,0.8889884948730469,32.77038922533393,1.9152784258836104,11.430747031735423,158,1,0.0,81935,384625357553474,2,34.5,412.1258850097656,0.05000000074505806,25,2211.335946589601,0.0020386244039789624,1.17645005E9,,,,0,,6,-7.56,1.17645005E9,366.0,NaN,NaN
Raw,233065926071863,649870208000000,,,-1265581155234616647,0.8889884948730469,32.77038922533393,1.9152784258836104,11.430747031735423,158,4,0.0,81935,384625355384394,5,28.4,518.3649291992188,0.05560000240802765,25,2783.430993070773,0.0040262828122019055,1.17645005E9,,,,0,,6,-7.56,1.17645005E9,366.0,NaN,NaN
Raw,233065926071863,649870208000000,,,-1265581155234616647,0.8889884948730469,32.77038922533393,1.9152784258836104,11.430747031735423,158,5,0.0,81935,384625358192664,2,34.0,-403.1612548828125,0.05150000378489494,25,-2153.3686934050174,0.0020386244039789624,1.17645005E9,,,,0,,6,-7.56,1.17645005E9,366.0,NaN,NaN
Raw,233065926071863,649870208000000,,,-1265581155234616647,0.8889884948730469,32.77038922533393,1.9152784258836104,11.430747031735423,158,9,0.0,81935,384625370779349,3,32.1,94.72114562988281,0.041600000113248825,25,513.8364747251964,0.0024208662868967453,1.17645005E9,,,,0,,6,-7.56,1.17645005E9,366.0,NaN,NaN
Raw,233065926071863,649870208000000,,,-1265581155234616647,0.8889884948730469,32.77038922533393,1.9152784258836104,11.430747031735423,158,24,0.0,81935,384625361728026,10,20.0,-536.3271484375,0.062199998646974564,25,-2863.807727523723,0.34557229348499413,1.17645005E9,,,,0,,6,-7.56,1.17645005E9,366.0,NaN,NaN
Raw,233065926071863,649870208000000,,,-1265581155234616647,0.8889884948730469,32.77038922533393,1.9152784258836104,11.430747031735423,158,31,0.0,81935,384625364064610,3,33.2,-105.99005126953125,0.03150000050663948,25,-561.0464923654383,0.0022170039651624013,1.17645005E9,,,,0,,6,-7.56,1.17645005E9,366.0,NaN,NaN
Fix,gps,51.524632,-0.134215,72.767395,0.000000,3.790092,1582195809000,233066913372326
Raw,233066932941963,649871208000000,,,-1265581155234616658,0.2362804412841797,33.84641604498029,-2.4404206849346854,10.433538226236323,158,5,0.0,16399,384626360388517,17,28.9,729.4419555664062,0.025200000032782555,25,8999.734885294514,0.0030066398239606148,1.57542003E9,,,,0,,1,0.14,1.57542003E9,366.0,NaN,NaN
Raw,233066932941963,649871208000000,,,-1265581155234616658,0.2362804412841797,33.84641604498029,-2.4404206849346854,10.433538226236323,158,13,0.0,16399,384626374242425,10,34.2,267.9222412109375,0.041600000113248825,25,3302.9793861465846,0.0015223494237726067,1.57542003E9,,,,0,,1,0.14,1.57542003E9,366.0,NaN,NaN
Raw,233066932941963,649871208000000,,,-1265581155234616658,0.2362804412841797,33.84641604498029,-2.4404206849346854,10.433538226236323,158,15,0.0,16399,384626375077020,5,41.3,-58.30430603027344,0.040800001472234726,25,-737.8979542892617,6.850571963914755E-4,1.57542003E9,,,,0,,1,0.14,1.57542003E9,366.0,NaN,NaN
Raw,233066932941963,649871208000000,,,-1265581155234616658,0.2362804412841797,33.84641604498029,-2.4404206849346854,10.433538226236323,158,17,0.0,16399,384626361055586,6,39.3,-520.1375122070312,0.0203000009059906,25,-6518.476002725915,8.372921387687362E-4,1.57542003E9,,,,0,,1,0.14,1.57542003E9,366.0,NaN,NaN
Raw,233066932941963,649871208000000,,,-1265581155234616658,0.2362804412841797,33.84641604498029,-2.4404206849346854,10.433538226236323,158,20,0.0,16399,384626366562292,4,42.4,-301.22711181640625,0.02710000053048134,25,-3725.9029374460715,5.899103906353357E-4,1.57542003E9,,,,0,,1,0.14,1.57542003E9,366.0,NaN,NaN
Raw,233066932941963,649871208000000,,,-1265581155234616658,0.2362804412841797,33.84641604498029,-2.4404206849346854,10.433538226236323,158,24,0.0,16399,384626368030997,17,28.7,-562.4409790039062,0.03720000013709068,17,-6951.322852252405,0.0030066398239606148,1.57542003E9,,,,0,,1,0.14,1.57542003E9,366.0,NaN,NaN
Raw,233066932941963,649871208000000,,,-1265581155234616658,0.2362804412841797,33.84641604498029,-2.4404206849346854,10.433538226236323,158,28,0.0,16399,384626370686312,4,42.7,241.15097045898438,0.03310000151395798,25,3013.0521496246197,5.899103906353357E-4,1.57542003E9,,,,0,,1,0.14,1.57542003E9,366.0,NaN,NaN
Raw,233066932941963,649871208000000,,,-1265581155234616658,0.2362804412841797,33.84641604498029,-2.4404206849346854,10.433538226236323,158,30,0.0,16399,384626363613280,19,27.6,602.5711669921875,0.030300000682473183,25,7438.077514185994,0.003234992547669888,1.57542003E9,,,,0,,1,0.14,1.57542003E9,366.0,NaN,NaN
Raw,233066932941963,649871208000000,,,-1265581155234616658,0.2362804412841797,33.84641604498029,-2.4404206849346854,10.433538226236323,158,14,0.0,49359,49808378759558,8,36.3,35.093017578125,0.24660000205039978,25,403.15095611561236,0.0011443444794587703,1.59806246E9,,,,0,,3,-4.88,1.59806246E9,366.0,NaN,NaN
Raw,233066932941963,649871208000000,,,-1265581155234616658,0.2362804412841797,33.84641604498029,-2.4404206849346854,10.433538226236323,158,22,0.0,49359,49808365312425,13,31.4,-84.31549835205078,0.22960001230239868,25,-995.8051605742978,0.002041937391252294,1.60031245E9,,,,0,,3,-4.88,1.60031245E9,366.0,NaN,NaN
Raw,233066932941963,649871208000000,,,-1265581155234616658,0.2362804412841797,33.84641604498029,-2.4404206849346854,10.433538226236323,158,13,0.0,49359,49808370533208,11,33.5,667.8229370117188,0.2362000048160553,25,5038.427146181376,0.0016292305196830812,1.60087501E9,,,,0,,3,-4.88,1.60087501E9,366.0,NaN,NaN
Raw,233066932941963,649871208000000,,,-1265581155234616658,0.2362804412841797,33.84641604498029,-2.4404206849346854,10.433538226236323,158,15,0.0,49359,49808371724552,70,17.9,-621.751220703125,1.2929999828338623,16,0.0,0.0,1.602E9,,,,0,,3,-4.88,1.602E9,366.0,NaN,NaN
Raw,233066932941963,649871208000000,,,-1265581155234616658,0.2362804412841797,33.84641604498029,-2.4404206849346854,10.433538226236323,158,5,0.0,49359,49808374453313,21,26.0,-506.19720458984375,0.24770000576972961,29,-5924.761630139527,0.005350221243369457,1.60256256E9,,,,0,,3,-4.88,1.60256256E9,366.0,NaN,NaN
Raw,233066932941963,649871208000000,,,-1265581155234616658,0.2362804412841797,33.84641604498029,-2.4404206849346854,10.433538226236323,158,3,0.0,49359,49808367059306,24,25.7,798.9515380859375,0.24379999935626984,29,9335.379740328224,0.1868083964827234,1.60481254E9,,,,0,,3,-4.88,1.60481254E9,366.0,NaN,NaN
Raw,233066932941963,649871208000000,,,-1265581155234616658,0.2362804412841797,33.84641604498029,-2.4404206849346854,10.433538226236323,158,4,0.0,49359,49808377786220,7,37.4,280.199462890625,0.24490000307559967,25,3270.6289680393875,9.897376030341073E-4,1.60537498E9,,,,0,,3,-4.88,1.60537498E9,366.0,NaN,NaN
Raw,233066932941963,649871208000000,,,-1265581155234616658,0.2362804412841797,33.84641604498029,-2.4404206849346854,10.433538226236323,158,37,0.0,16399,384612362245736,9,35.6,497.81646728515625,0.023100001737475395,17,5969.843800520272,0.0013442764594430532,1.56109798E9,,,,0,,5,0.17,1.56109798E9,366.0,NaN,NaN
Raw,233066932941963,649871208000000,,,-1265581155234616658,0.2362804412841797,33.84641604498029,-2.4404206849346854,10.433538226236323,158,28,0.0,16399,384612355184237,92,15.4,-376.9255065917969,2.879000186920166,16,0.0,0.0,1.56109798E9,,,,0,,5,0.17,1.56109798E9,366.0,NaN,NaN
Raw,233066932941963,649871208000000,,,-1265581155234616658,0.2362804412841797,33.84641604498029,-2.4404206849346854,10.433538226236323,158,22,0.0,16399,384612363361616,13,31.8,-363.7604675292969,0.026600001379847527,25,-4370.106723843104,0.0020932304434118673,1.56109798E9,,,,0,,5,0.17,1.56109798E9,366.0,NaN,NaN
Raw,233066932941963,649871208000000,,,-1265581155234616658,0.2362804412841797,33.84641604498029,-2.4404206849346854,10.433538226236323,158,20,0.0,16399,384612358596346,13,31.1,653.168701171875,0.04910000041127205,17,4153.724668954584,0.0020932304434118673,1.56109798E9,,,,0,,5,0.17,1.56109798E9,366.0,NaN,NaN
Raw,233066932941963,649871208000000,,,-1265581155234616658,0.2362804412841797,33.84641604498029,-2.4404206849346854,10.433538226236323,158,19,0.0,16399,384612368728918,13,31.2,250.68478393554688,0.0340999998152256,17,1592.83531023566,0.0020932304434118673,1.56109798E9,,,,0,,5,0.17,1.56109798E9,366.0,NaN,NaN
Raw,233066932941963,649871208000000,,,-1265581155234616658,0.2362804412841797,33.84641604498029,-2.4404206849346854,10.433538226236323,158,10,0.0,16399,384612309950127,9,35.0,175.022705078125,0.03360000252723694,25,2097.4814593560013,0.0013442764594430532,1.56109798E9,,,,0,,5,0.17,1.56109798E9,366.0,NaN,NaN
Raw,233066932941963,649871208000000,,,-1265581155234616658,0.2362804412841797,33.84641604498029,-2.4404206849346854,10.433538226236323,158,1,0.0,23567,384626357544969,13,31.1,412.856201171875,0.047600001096725464,25,5187.334719960851,0.004528989424958011,1.57542003E9,,,,0,,6,0.28,1.57542003E9,366.0,NaN,NaN
Raw,233066932941963,649871208000000,,,-1265581155234616658,0.2362804412841797,33.84641604498029,-2.4404206849346854,10.433538226236323,158,4,0.0,23567,384626355375582,5,40.5,519.2029418945312,0.0471000038087368,25,6529.943700413522,0.001617496273834944,1.57542003E9,,,,0,,6,0.28,1.57542003E9,366.0,NaN,NaN
Raw,233066932941963,649871208000000,,,-1265581155234616658,0.2362804412841797,33.84641604498029,-2.4404206849346854,10.433538226236323,158,5,0.0,23567,384626358186916,9,35.4,-402.4989318847656,0.0471000038087368,25,-5063.043742217472,0.0028924638165555576,1.57542003E9,,,,0,,6,0.28,1.57542003E9,366.0,NaN,NaN
Raw,233066932941963,649871208000000,,,-1265581155234616658,0.2362804412841797,33.84641604498029,-2.4404206849346854,10.433538226236323,158,9,0.0,23567,384626370771942,6,39.1,95.56962585449219,0.04580000042915344,25,1199.0027550205643,0.0018458486430946374,1.57542003E9,,,,0,,6,0.28,1.57542003E9,366.0,NaN,NaN
Raw,233066932941963,649871208000000,,,-1265581155234616658,0.2362804412841797,33.84641604498029,-2.4404206849346854,10.433538226236323,158,24,0.0,23567,384626361722737,17,28.1,-535.5840454101562,0.050700001418590546,25,-6189.679300886425,0.006565131413727744,1.57542003E9,,,,0,,6,0.28,1.57542003E9,366.0,NaN,NaN
Raw,233066932941963,649871208000000,,,-1265581155234616658,0.2362804412841797,33.84641604498029,-2.4404206849346854,10.433538226236323,158,31,0.0,23567,384626364057875,8,36.0,-105.2847900390625,0.04360000044107437,25,-1328.7424735467591,0.0025499350854412276,1.57542003E9,,,,0,,6,0.28,1.57542003E9,366.0,NaN,NaN
Raw,233066932941963,649871208000000,,,-1265581155234616658,0.2362804412841797,33.84641604498029,-2.4404206849346854,10.433538226236323,158,24,0.0,81935,384626368038950,11,19.8,-562.4249877929688,0.05739999935030937,27,-3019.8885002213947,0.25482803839368795,1.17645005E9,,,,0,,1,0.43,1.17645005E9,366.0,NaN,NaN
Raw,233066932941963,649871208000000,,,-1265581155234616658,0.2362804412841797,33.84641604498029,-2.4404206849346854,10.433538226236323,158,30,0.0,81935,384626363621101,9,21.7,601.8783569335938,0.7910000085830688,16,0.0,0.0,1.17645005E9,,,,0,,1,0.43,1.17645005E9,366.0,NaN,NaN
Raw,233066932941963,649871208000000,,,-1265581155234616658,0.2362804412841797,33.84641604498029,-2.4404206849346854,10.433538226236323,158,1,0.0,81935,384626357552098,2,38.6,413.0538635253906,0.04700000211596489,25,2623.6399146202984,0.0012486574029382824,1.17645005E9,,,,0,,6,0.43,1.17645005E9,366.0,NaN,NaN
Raw,233066932941963,649871208000000,,,-1265581155234616658,0.2362804412841797,33.84641604498029,-2.4404206849346854,10.433538226236323,158,4,0.0,81935,384626355382660,3,31.4,519.3634643554688,0.050300002098083496,25,3302.0670586940832,0.0027776256465907277,1.17645005E9,,,,0,,6,0.43,1.17645005E9,366.0,NaN,NaN
Raw,233066932941963,649871208000000,,,-1265581155234616658,0.2362804412841797,33.84641604498029,-2.4404206849346854,10.433538226236323,158,5,0.0,81935,384626358194005,2,37.7,-402.3417663574219,0.04910000041127205,25,-2556.4217650001374,0.0013505885638054542,1.17645005E9,,,,0,,6,0.43,1.17645005E9,366.0,NaN,NaN
Raw,233066932941963,649871208000000,,,-1265581155234616658,0.2362804412841797,33.84641604498029,-2.4404206849346854,10.433538226236323,158,9,0.0,81935,384626370779036,2,34.7,95.71443939208984,0.039500001817941666,25,608.8335965257927,0.0020386244039789624,1.17645005E9,,,,0,,6,0.43,1.17645005E9,366.0,NaN,NaN
Raw,233066932941963,649871208000000,,,-1265581155234616658,0.2362804412841797,33.84641604498029,-2.4404206849346854,10.433538226236323,158,24,0.0,81935,384626361729809,7,24.6,-535.4487915039062,0.03359999880194664,25,-3399.9932547102835,0.08959753608771179,1.17645005E9,,,,0,,6,0.43,1.17645005E9,366.0,NaN,NaN
Raw,233066932941963,649871208000000,,,-1265581155234616658,0.2362804412841797,33.84641604498029,-2.4404206849346854,10.433538226236323,158,31,0.0,81935,384626364064962,2,36.0,-105.09504699707031,0.02890000119805336,25,-666.9249655546037,0.0015544510042033504,1.17645005E9,,,,0,,6,0.43,1.17645005E9,366.0,NaN,NaN
Fix,gps,51.524633,-0.134214,72.772827,0.000000,3.790092,1582195810000,233067911753310
Raw,233067933297115,649872208000000,,,-1265581155234616659,0.6700363159179688,35.54020804585889,-0.051558438747320606,11.446543654066376,158,5,0.0,16399,384627360386142,17,28.0,729.7141723632812,0.010200000368058681,25,9729.549930666393,0.0030066398239606148,1.57542003E9,,,,0,,1,0.14,1.57542003E9,366.0,NaN,NaN
Raw,233067933297115,649872208000000,,,-1265581155234616659,0.6700363159179688,35.54020804585889,-0.051558438747320606,11.446543654066376,158,13,0.0,16399,384627374241525,8,36.1,268.3120422363281,0.0406000018119812,25,3571.332040066992,0.001160791358090767,1.57542003E9,,,,0,,1,0.14,1.57542003E9,366.0,NaN,NaN
Raw,233067933297115,649872208000000,,,-1265581155234616659,0.6700363159179688,35.54020804585889,-0.051558438747320606,11.446543654066376,158,15,0.0,16399,384627375077218,5,41.8,-57.8947868347168,0.040800001472234726,25,-795.7754525773692,6.850571963914755E-4,1.57542003E9,,,,0,,1,0.14,1.57542003E9,366.0,NaN,NaN
Raw,233067933297115,649872208000000,,,-1265581155234616659,0.6700363159179688,35.54020804585889,-0.051558438747320606,11.446543654066376,158,17,0.0,16399,384627361057316,6,39.1,-519.8269653320312,0.005300000309944153,25,-7038.242649994662,8.372921387687362E-4,1.57542003E9,,,,0,,1,0.14,1.57542003E9,366.0,NaN,NaN
Raw,233067933297115,649872208000000,,,-1265581155234616659,0.6700363159179688,35.54020804585889,-0.051558438747320606,11.446543654066376,158,20,0.0,16399,384627366563303,4,42.0,-300.81451416015625,0.02710000053048134,25,-4026.708033024417,5.899103906353357E-4,1.57542003E9,,,,0,,1,0.14,1.57542003E9,366.0,NaN,NaN
Raw,233067933297115,649872208000000,,,-1265581155234616659,0.6700363159179688,35.54020804585889,-0.051558438747320606,11.446543654066376,158,24,0.0,16399,384627368032897,14,30.6,-562.1035766601562,0.03490000218153,17,-7513.40176716991,0.002397700231676362,1.57542003E9,,,,0,,1,0.14,1.57542003E9,366.0,NaN,NaN
Raw,233067933297115,649872208000000,,,-1265581155234616659,0.6700363159179688,35.54020804585889,-0.051558438747320606,11.446543654066376,158,28,0.0,16399,384627370685513,4,42.1,241.53988647460938,0.03310000151395798,25,3254.6181238475633,5.899103906353357E-4,1.57542003E9,,,,0,,1,0.14,1.57542003E9,366.0,NaN,NaN
Raw,233067933297115,649872208000000,,,-1265581155234616659,0.6700363159179688,35.54020804585889,-0.051558438747320606,11.446543654066376,158,30,0.0,16399,384627363611227,19,27.6,602.8948974609375,0.030300000682473183,25,8041.032856556997,0.003234992547669888,1.57542003E9,,,,0,,1,0.14,1.57542003E9,366.0,NaN,NaN
Raw,233067933297115,649872208000000,,,-1265581155234616659,0.6700363159179688,35.54020804585889,-0.051558438747320606,11.446543654066376,158,14,0.0,49359,49809378759411,7,37.5,35.5170783996582,0.24639999866485596,25,438.68228064245096,9.94266504915028E-4,1.59806246E9,,,,0,,3,-4.9,1.59806246E9,366.0,NaN,NaN
Raw,233067933297115,649872208000000,,,-1265581155234616659,0.6700363159179688,35.54020804585889,-0.051558438747320606,11.446543654066376,158,22,0.0,49359,49809365312714,13,31.4,-83.89126586914062,0.22960001230239868,25,-1079.6953472772134,0.002041937391252294,1.60031245E9,,,,0,,3,-4.9,1.60031245E9,366.0,NaN,NaN
Raw,233067933297115,649872208000000,,,-1265581155234616659,0.6700363159179688,35.54020804585889,-0.051558438747320606,11.446543654066376,158,13,0.0,49359,49809370531018,10,34.1,668.1422729492188,0.23560000956058502,25,5706.630331368562,0.001498143056722028,1.60087501E9,,,,0,,3,-4.9,1.60087501E9,366.0,NaN,NaN
Raw,233067933297115,649872208000000,,,-1265581155234616659,0.6700363159179688,35.54020804585889,-0.051558438747320606,11.446543654066376,158,15,0.0,49359,49809371726613,46,20.5,-621.975830078125,1.062999963760376,16,0.0,0.0,1.602E9,,,,0,,3,-4.9,1.602E9,366.0,NaN,NaN
Raw,233067933297115,649872208000000,,,-1265581155234616659,0.6700363159179688,35.54020804585889,-0.051558438747320606,11.446543654066376,158,5,0.0,49359,49809374454950,35,22.1,-505.3620910644531,0.9474999904632568,16,0.0,0.0,1.60256256E9,,,,0,,3,-4.9,1.60256256E9,366.0,NaN,NaN
Raw,233067933297115,649872208000000,,,-1265581155234616659,0.6700363159179688,35.54020804585889,-0.051558438747320606,11.446543654066376,158,23,0.0,49359,49809361573656,139,12.3,-662.6349487304688,6.942999839782715,16,0.0,0.0,1.60368755E9,,,,0,,3,-4.9,1.60368755E9,366.0,NaN,NaN
Raw,233067933297115,649872208000000,,,-1265581155234616659,0.6700363159179688,35.54020804585889,-0.051558438747320606,11.446543654066376,158,21,0.0,49359,49809361560721,122,13.1,511.5953674316406,4.663000106811523,16,0.0,0.0,1.60424998E9,,,,0,,3,-4.9,1.60424998E9,366.0,NaN,NaN
Raw,233067933297115,649872208000000,,,-1265581155234616659,0.6700363159179688,35.54020804585889,-0.051558438747320606,11.446543654066376,158,3,0.0,49359,49809367056671,24,25.6,799.2026977539062,0.24379999935626984,25,10134.64185859979,0.1868083964827234,1.60481254E9,,,,0,,3,-4.9,1.60481254E9,366.0,NaN,NaN
Raw,233067933297115,649872208000000,,,-1265581155234616659,0.6700363159179688,35.54020804585889,-0.051558438747320606,11.446543654066376,158,4,0.0,49359,49809377785275,7,37.1,280.6724853515625,0.24490000307559967,25,3551.292480936072,9.897376030341073E-4,1.60537498E9,,,,0,,3,-4.9,1.60537498E9,366.0,NaN,NaN
Raw,233067933297115,649872208000000,,,-1265581155234616659,0.6700363159179688,35.54020804585889,-0.051558438747320606,11.446543654066376,158,37,0.0,16399,384613362244078,9,35.5,498.130126953125,0.008100000210106373,25,6468.134434977173,0.0013442764594430532,1.56109798E9,,,,0,,5,0.17,1.56109798E9,366.0,NaN,NaN
Raw,233067933297115,649872208000000,,,-1265581155234616659,0.6700363159179688,35.54020804585889,-0.051558438747320606,11.446543654066376,158,28,0.0,16399,384613355185392,61,18.5,-377.29998779296875,1.0989999771118164,16,0.0,0.0,1.56109798E9,,,,0,,5,0.17,1.56109798E9,366.0,NaN,NaN
Raw,233067933297115,649872208000000,,,-1265581155234616659,0.6700363159179688,35.54020804585889,-0.051558438747320606,11.446543654066376,158,22,0.0,16399,384613363362814,12,32.5,-363.4027099609375,0.011100000701844692,25,-4733.473141339706,0.0018243750799829725,1.56109798E9,,,,0,,5,0.17,1.56109798E9,366.0,NaN,NaN
Raw,233067933297115,649872208000000,,,-1265581155234616659,0.6700363159179688,35.54020804585889,-0.051558438747320606,11.446543654066376,158,20,0.0,16399,384613358594146,14,30.0,653.5051879882812,0.04990000277757645,25,4807.304233001461,0.0024196975554572116,1.56109798E9,,,,0,,5,0.17,1.56109798E9,366.0,NaN,NaN
Raw,233067933297115,649872208000000,,,-1265581155234616659,0.6700363159179688,35.54020804585889,-0.051558438747320606,11.446543654066376,158,19,0.0,16399,384613368728071,13,31.3,251.0659637451172,0.0340999998152256,25,1843.9200738883267,0.0020932304434118673,1.56109798E9,,,,0,,5,0.17,1.56109798E9,366.0,NaN,NaN
Raw,233067933297115,649872208000000,,,-1265581155234616659,0.6700363159179688,35.54020804585889,-0.051558438747320606,11.446543654066376,158,10,0.0,16399,384613309949544,10,34.3,175.33294677734375,0.0340999998152256,25,2272.878412496985,0.001536315979199305,1.56109798E9,,,,0,,5,0.17,1.56109798E9,366.0,NaN,NaN
Raw,233067933297115,649872208000000,,,-1265581155234616659,0.6700363159179688,35.54020804585889,-0.051558438747320606,11.446543654066376,158,5,0.0,17167,384613306572359,53,19.4,6.577352523803711,9.14680004119873,16,0.0,0.0,1.56109798E9,,,,0,,5,0.17,1.56109798E9,366.0,NaN,NaN
Raw,233067933297115,649872208000000,,,-1265581155234616659,0.6700363159179688,35.54020804585889,-0.051558438747320606,11.446543654066376,158,1,0.0,23567,384627357543607,12,32.6,413.3355407714844,0.0471000038087368,25,5600.7112831575405,0.003958108324583987,1.57542003E9,,,,0,,6,0.31,1.57542003E9,366.0,NaN,NaN
Raw,233067933297115,649872208000000,,,-1265581155234616659,0.6700363159179688,35.54020804585889,-0.051558438747320606,11.446543654066376,158,4,0.0,23567,384627355373862,5,40.9,519.6333618164062,0.0471000038087368,25,7049.624021573001,0.001617496273834944,1.57542003E9,,,,0,,6,0.31,1.57542003E9,366.0,NaN,NaN
Raw,233067933297115,649872208000000,,,-1265581155234616659,0.6700363159179688,35.54020804585889,-0.051558438747320606,11.446543654066376,158,5,0.0,23567,384627358188260,9,35.2,-402.0666809082031,0.0471000038087368,25,-5465.068655831682,0.0028924638165555576,1.57542003E9,,,,0,,6,0.31,1.57542003E9,366.0,NaN,NaN
Raw,233067933297115,649872208000000,,,-1265581155234616659,0.6700363159179688,35.54020804585889,-0.051558438747320606,11.446543654066376,158,9,0.0,23567,384627370771622,6,38.8,96.0465316772461,0.04610000178217888,25,1295.0689265938872,0.0020551716777868216,1.57542003E9,,,,0,,6,0.31,1.57542003E9,366.0,NaN,NaN
Raw,233067933297115,649872208000000,,,-1265581155234616659,0.6700363159179688,35.54020804585889,-0.051558438747320606,11.446543654066376,158,24,0.0,23567,384627361724529,21,26.5,-535.1723022460938,0.05220000073313713,25,-6724.799986540214,0.011874324619302384,1.57542003E9,,,,0,,6,0.31,1.57542003E9,366.0,NaN,NaN
Raw,233067933297115,649872208000000,,,-1265581155234616659,0.6700363159179688,35.54020804585889,-0.051558438747320606,11.446543654066376,158,31,0.0,23567,384627364058239,9,35.1,-104.82431030273438,0.04410000145435333,25,-1433.543967998378,0.0028924638165555576,1.57542003E9,,,,0,,6,0.31,1.57542003E9,366.0,NaN,NaN
Raw,233067933297115,649872208000000,,,-1265581155234616659,0.6700363159179688,35.54020804585889,-0.051558438747320606,11.446543654066376,158,24,0.0,81935,384627368040864,12,18.1,-563.14453125,1.0084999799728394,16,0.0,0.0,1.17645005E9,,,,0,,1,-1.29,1.17645005E9,366.0,NaN,NaN
Raw,233067933297115,649872208000000,,,-1265581155234616659,0.6700363159179688,35.54020804585889,-0.051558438747320606,11.446543654066376,158,30,0.0,81935,384627363619084,9,21.7,602.8612670898438,0.02160000056028366,27,3837.6792542338685,0.25482803839368795,1.17645005E9,,,,0,,1,-1.29,1.17645005E9,366.0,NaN,NaN
Raw,233067933297115,649872208000000,,,-1265581155234616659,0.6700363159179688,35.54020804585889,-0.051558438747320606,11.446543654066376,158,1,0.0,81935,384627357550718,2,38.8,413.1027526855469,0.04700000211596489,25,3037.0042062324837,0.0012486574029382824,1.17645005E9,,,,0,,6,-1.29,1.17645005E9,366.0,NaN,NaN
Raw,233067933297115,649872208000000,,,-1265581155234616659,0.6700363159179688,35.54020804585889,-0.051558438747320606,11.446543654066376,158,4,0.0,81935,384627355380930,3,31.1,519.4503784179688,0.050300002098083496,25,3821.7400073715253,0.0027776256465907277,1.17645005E9,,,,0,,6,-1.29,1.17645005E9,366.0,NaN,NaN
Raw,233067933297115,649872208000000,,,-1265581155234616659,0.6700363159179688,35.54020804585889,-0.051558438747320606,11.446543654066376,158,5,0.0,81935,384627358195346,2,38.2,-402.2526550292969,0.048500001430511475,25,-2958.449673834,0.0012486574029382824,1.17645005E9,,,,0,,6,-1.29,1.17645005E9,366.0,NaN,NaN
Raw,233067933297115,649872208000000,,,-1265581155234616659,0.6700363159179688,35.54020804585889,-0.051558438747320606,11.446543654066376,158,9,0.0,81935,384627370778717,2,34.1,95.82317352294922,0.039500001817941666,25,704.8888339500987,0.0020386244039789624,1.17645005E9,,,,0,,6,-1.29,1.17645005E9,366.0,NaN,NaN
Raw,233067933297115,649872208000000,,,-1265581155234616659,0.6700363159179688,35.54020804585889,-0.051558438747320606,11.446543654066376,158,24,0.0,81935,384627361731594,8,22.1,-535.2598876953125,0.02319999970495701,25,-3935.1086355046873,0.34557229348499413,1.17645005E9,,,,0,,6,-1.29,1.17645005E9,366.0,NaN,NaN
Raw,233067933297115,649872208000000,,,-1265581155234616659,0.6700363159179688,35.54020804585889,-0.051558438747320606,11.446543654066376,158,31,0.0,81935,384627364065314,2,36.1,-105.03633880615234,0.013900000602006912,25,-771.732522849256,0.0015544510042033504,1.17645005E9,,,,0,,6,-1.29,1.17645005E9,366.0,NaN,NaN
Fix,gps,51.524634,-0.134212,72.530457,0.000000,3.790092,1582195811000,233068905114347
Raw,233068920297942,649873208000000,,,-1265581155234616657,0.219757080078125,35.692963137989864,0.9057920072282362,11.419170953869573,158,5,0.0,16399,384628360383687,21,26.7,729.7677612304688,0.011700000613927841,25,10459.354766611104,0.005442398901996786,1.57542003E9,,,,0,,1,0.12,1.57542003E9,366.0,NaN,NaN
Raw,233068920297942,649873208000000,,,-1265581155234616657,0.219757080078125,35.692963137989864,0.9057920072282362,11.419170953869573,158,13,0.0,16399,384628374240594,6,39.2,268.46063232421875,0.0398000031709671,25,3839.7736021409883,8.372921387687362E-4,1.57542003E9,,,,0,,1,0.12,1.57542003E9,366.0,NaN,NaN
Raw,233068920297942,649873208000000,,,-1265581155234616657,0.219757080078125,35.692963137989864,0.9057920072282362,11.419170953869573,158,15,0.0,16399,384628375077407,5,41.5,-57.73756790161133,0.040800001472234726,25,-853.5492964801584,6.850571963914755E-4,1.57542003E9,,,,0,,1,0.12,1.57542003E9,366.0,NaN,NaN
Raw,233068920297942,649873208000000,,,-1265581155234616657,0.219757080078125,35.692963137989864,0.9057920072282362,11.419170953869573,158,17,0.0,16399,384628361059063,6,39.1,-519.7135620117188,0.005300000309944153,25,-7557.945863914279,8.372921387687362E-4,1.57542003E9,,,,0,,1,0.12,1.57542003E9,366.0,NaN,NaN
Raw,233068920297942,649873208000000,,,-1265581155234616657,0.219757080078125,35.692963137989864,0.9057920072282362,11.419170953869573,158,20,0.0,16399,384628366564309,4,42.1,-300.6785888671875,0.012100000865757465,25,-4327.4098116336045,5.899103906353357E-4,1.57542003E9,,,,0,,1,0.12,1.57542003E9,366.0,NaN,NaN
Raw,233068920297942,649873208000000,,,-1265581155234616657,0.219757080078125,35.692963137989864,0.9057920072282362,11.419170953869573,158,24,0.0,16399,384628368034759,16,29.0,-562.0263671875,0.03590000048279762,17,-8075.409811771754,0.00281634630106073,1.57542003E9,,,,0,,1,0.12,1.57542003E9,366.0,NaN,NaN
Raw,233068920297942,649873208000000,,,-1265581155234616657,0.219757080078125,35.692963137989864,0.9057920072282362,11.419170953869573,158,28,0.0,16399,384628370684701,5,41.3,241.68043518066406,0.0333000011742115,25,3496.293994458229,6.850571963914755E-4,1.57542003E9,,,,0,,1,0.12,1.57542003E9,366.0,NaN,NaN
Raw,233068920297942,649873208000000,,,-1265581155234616657,0.219757080078125,35.692963137989864,0.9057920072282362,11.419170953869573,158,30,0.0,16399,384628363609251,19,27.5,602.95263671875,0.015300000086426735,25,8644.002286440456,0.003234992547669888,1.57542003E9,,,,0,,1,0.12,1.57542003E9,366.0,NaN,NaN
Raw,233068920297942,649873208000000,,,-1265581155234616657,0.219757080078125,35.692963137989864,0.9057920072282362,11.419170953869573,158,14,0.0,49359,49810378759304,8,36.2,35.68989562988281,0.24660000205039978,25,474.3329505288227,0.0011443444794587703,1.59806246E9,,,,0,,3,-4.94,1.59806246E9,366.0,NaN,NaN
Raw,233068920297942,649873208000000,,,-1265581155234616657,0.219757080078125,35.692963137989864,0.9057920072282362,11.419170953869573,158,22,0.0,49359,49810365313049,12,32.0,-83.70924377441406,0.21410000324249268,25,-1163.4236895794352,0.0017796701281556596,1.60031245E9,,,,0,,3,-4.94,1.60031245E9,366.0,NaN,NaN
Raw,233068920297942,649873208000000,,,-1265581155234616657,0.219757080078125,35.692963137989864,0.9057920072282362,11.419170953869573,158,13,0.0,49359,49810370528831,10,34.1,668.2361450195312,0.23560000956058502,25,6374.881837464546,0.001498143056722028,1.60087501E9,,,,0,,3,-4.94,1.60087501E9,366.0,NaN,NaN
Raw,233068920297942,649873208000000,,,-1265581155234616657,0.219757080078125,35.692963137989864,0.9057920072282362,11.419170953869573,158,15,0.0,49359,49810371728528,31,23.4,-620.8908081054688,0.32770001888275146,27,-7180.57710207399,0.18713636579275905,1.602E9,,,,0,,3,-4.94,1.602E9,366.0,NaN,NaN
Raw,233068920297942,649873208000000,,,-1265581155234616657,0.219757080078125,35.692963137989864,0.9057920072282362,11.419170953869573,158,5,0.0,49359,49810374456399,35,22.3,-506.1852111816406,0.9474999904632568,16,0.0,0.0,1.60256256E9,,,,0,,3,-4.94,1.60256256E9,366.0,NaN,NaN
Raw,233068920297942,649873208000000,,,-1265581155234616657,0.219757080078125,35.692963137989864,0.9057920072282362,11.419170953869573,158,3,0.0,49359,49810367054112,27,24.6,799.3796997070312,0.251800000667572,29,10933.935092617518,0.1868083964827234,1.60481254E9,,,,0,,3,-4.94,1.60481254E9,366.0,NaN,NaN
Raw,233068920297942,649873208000000,,,-1265581155234616657,0.219757080078125,35.692963137989864,0.9057920072282362,11.419170953869573,158,4,0.0,49359,49810377784305,7,37.9,280.86138916015625,0.24490000307559967,25,3832.1103324788337,9.897376030341073E-4,1.60537498E9,,,,0,,3,-4.94,1.60537498E9,366.0,NaN,NaN
Raw,233068920297942,649873208000000,,,-1265581155234616657,0.219757080078125,35.692963137989864,0.9057920072282362,11.419170953869573,158,37,0.0,16399,384614362242389,6,39.0,498.2001953125,0.006800000090152025,25,6966.357218354123,8.449737438469402E-4,1.56109798E9,,,,0,,5,0.1,1.56109798E9,366.0,NaN,NaN
Raw,233068920297942,649873208000000,,,-1265581155234616657,0.219757080078125,35.692963137989864,0.9057920072282362,11.419170953869573,158,28,0.0,16399,384614355186715,53,19.6,-375.7156677246094,1.0190000534057617,16,0.0,0.0,1.56109798E9,,,,0,,5,0.1,1.56109798E9,366.0,NaN,NaN
Raw,233068920297942,649873208000000,,,-1265581155234616657,0.219757080078125,35.692963137989864,0.9057920072282362,11.419170953869573,158,22,0.0,16399,384614363364016,11,33.2,-363.29937744140625,0.010700000450015068,25,-5096.754325266031,0.0016707435714883973,1.56109798E9,,,,0,,5,0.1,1.56109798E9,366.0,NaN,NaN
Raw,233068920297942,649873208000000,,,-1265581155234616657,0.219757080078125,35.692963137989864,0.9057920072282362,11.419170953869573,158,20,0.0,16399,384614358591976,14,30.2,653.58203125,0.04990000277757645,25,5460.902903117003,0.0024196975554572116,1.56109798E9,,,,0,,5,0.1,1.56109798E9,366.0,NaN,NaN
Raw,233068920297942,649873208000000,,,-1265581155234616657,0.219757080078125,35.692963137989864,0.9057920072282362,11.419170953869573,158,19,0.0,16399,384614368727239,13,31.1,251.2354278564453,0.0340999998152256,25,2095.1069251531303,0.0020932304434118673,1.56109798E9,,,,0,,5,0.1,1.56109798E9,366.0,NaN,NaN
Raw,233068920297942,649873208000000,,,-1265581155234616657,0.219757080078125,35.692963137989864,0.9057920072282362,11.419170953869573,158,10,0.0,16399,384614309948953,10,34.6,175.38922119140625,0.0340999998152256,25,2448.286147844089,0.001536315979199305,1.56109798E9,,,,0,,5,0.1,1.56109798E9,366.0,NaN,NaN
Raw,233068920297942,649873208000000,,,-1265581155234616657,0.219757080078125,35.692963137989864,0.9057920072282362,11.419170953869573,158,1,0.0,23567,384628357542249,13,31.5,413.3385314941406,0.047600001096725464,21,6014.019216077741,0.004528989424958011,1.57542003E9,,,,0,,6,0.26,1.57542003E9,366.0,NaN,NaN
Raw,233068920297942,649873208000000,,,-1265581155234616657,0.219757080078125,35.692963137989864,0.9057920072282362,11.419170953869573,158,4,0.0,23567,384628355372123,6,39.6,519.755859375,0.047300003468990326,25,7569.353712962399,0.0018458486430946374,1.57542003E9,,,,0,,6,0.26,1.57542003E9,366.0,NaN,NaN
Raw,233068920297942,649873208000000,,,-1265581155234616657,0.219757080078125,35.692963137989864,0.9057920072282362,11.419170953869573,158,5,0.0,23567,384628358189593,10,34.6,-402.0181884765625,0.047600001096725464,25,-5867.059401963793,0.003311109885939926,1.57542003E9,,,,0,,6,0.26,1.57542003E9,366.0,NaN,NaN
Raw,233068920297942,649873208000000,,,-1265581155234616657,0.219757080078125,35.692963137989864,0.9057920072282362,11.419170953869573,158,9,0.0,23567,384628370771287,6,38.4,96.17268371582031,0.04610000178217888,25,1391.2092924316194,0.0020551716777868216,1.57542003E9,,,,0,,6,0.26,1.57542003E9,366.0,NaN,NaN
Raw,233068920297942,649873208000000,,,-1265581155234616657,0.219757080078125,35.692963137989864,0.9057920072282362,11.419170953869573,158,24,0.0,23567,384628361726295,19,27.3,-535.0087280273438,0.05130000039935112,21,-7259.97427645642,0.007212130206821385,1.57542003E9,,,,0,,6,0.26,1.57542003E9,366.0,NaN,NaN
Raw,233068920297942,649873208000000,,,-1265581155234616657,0.219757080078125,35.692963137989864,0.9057920072282362,11.419170953869573,158,31,0.0,23567,384628364058578,10,34.6,-104.70310974121094,0.044600002467632294,25,-1538.257649006711,0.003311109885939926,1.57542003E9,,,,0,,6,0.26,1.57542003E9,366.0,NaN,NaN
Raw,233068920297942,649873208000000,,,-1265581155234616657,0.219757080078125,35.692963137989864,0.9057920072282362,11.419170953869573,158,24,0.0,81935,384628368042701,11,19.0,-561.9500122070312,0.16189999878406525,27,-4143.861940665057,0.25482803839368795,1.17645005E9,,,,0,,1,-2.0,1.17645005E9,366.0,NaN,NaN
Raw,233068920297942,649873208000000,,,-1265581155234616657,0.219757080078125,35.692963137989864,0.9057920072282362,11.419170953869573,158,30,0.0,81935,384628363617070,8,23.6,602.782958984375,0.6559999585151672,16,0.0,0.0,1.17645005E9,,,,0,,1,-2.0,1.17645005E9,366.0,NaN,NaN
Raw,233068920297942,649873208000000,,,-1265581155234616657,0.219757080078125,35.692963137989864,0.9057920072282362,11.419170953869573,158,1,0.0,81935,384628357549340,2,39.2,413.3465881347656,0.04650000110268593,25,3450.4096092614654,0.001121243362856653,1.17645005E9,,,,0,,6,-2.0,1.17645005E9,366.0,NaN,NaN
Raw,233068920297942,649873208000000,,,-1265581155234616657,0.219757080078125,35.692963137989864,0.9057920072282362,11.419170953869573,158,4,0.0,81935,384628355379198,3,31.5,519.5908813476562,0.050300002098083496,25,4341.461238971788,0.0027776256465907277,1.17645005E9,,,,0,,6,-2.0,1.17645005E9,366.0,NaN,NaN
Raw,233068920297942,649873208000000,,,-1265581155234616657,0.219757080078125,35.692963137989864,0.9057920072282362,11.419170953869573,158,5,0.0,81935,384628358196687,2,37.8,-401.99053955078125,0.04910000041127205,25,-3360.4412275510954,0.0013505885638054542,1.17645005E9,,,,0,,6,-2.0,1.17645005E9,366.0,NaN,NaN
Raw,233068920297942,649873208000000,,,-1265581155234616657,0.219757080078125,35.692963137989864,0.9057920072282362,11.419170953869573,158,9,0.0,81935,384628370778397,2,34.1,96.0956802368164,0.039500001817941666,25,801.0234088185304,0.0020386244039789624,1.17645005E9,,,,0,,6,-2.0,1.17645005E9,366.0,NaN,NaN
Raw,233068920297942,649873208000000,,,-1265581155234616657,0.219757080078125,35.692963137989864,0.9057920072282362,11.419170953869573,158,24,0.0,81935,384628361733378,8,23.0,-535.1454467773438,0.02070000022649765,25,-4470.191320002023,0.34557229348499413,1.17645005E9,,,,0,,6,-2.0,1.17645005E9,366.0,NaN,NaN
Raw,233068920297942,649873208000000,,,-1265581155234616657,0.219757080078125,35.692963137989864,0.9057920072282362,11.419170953869573,158,31,0.0,81935,384628364065664,2,35.1,-104.76006317138672,0.014600000344216824,25,-876.451133192501,0.0017837963238157039,1.17645005E9,,,,0,,6,-2.0,1.17645005E9,366.0,NaN,NaN
Fix,gps,51.524637,-0.134210,72.348511,0.000000,3.790092,1582195812000,233069898596425
Raw,233069915496843,649874208000000,,,-1265581155234616655,0.6933498382568359,34.55721162026748,1.040577941819369,10.470446318959336,158,5,0.0,16399,384629360381312,24,25.0,729.18603515625,0.018299998715519905,21,11188.754511226216,0.19029366893311156,1.57542003E9,,,,0,,1,0.05,1.57542003E9,366.0,NaN,NaN
Raw,233069915496843,649874208000000,,,-1265581155234616655,0.6933498382568359,34.55721162026748,1.040577941819369,10.470446318959336,158,13,0.0,16399,384629374239693,6,39.6,267.95123291015625,0.0398000031709671,25,4108.000294390415,8.372921387687362E-4,1.57542003E9,,,,0,,1,0.05,1.57542003E9,366.0,NaN,NaN
Raw,233069915496843,649874208000000,,,-1265581155234616655,0.6933498382568359,34.55721162026748,1.040577941819369,10.470446318959336,158,15,0.0,16399,384629375077607,5,41.4,-58.226322174072266,0.040800001472234726,25,-911.5095540523997,6.850571963914755E-4,1.57542003E9,,,,0,,1,0.05,1.57542003E9,366.0,NaN,NaN
Raw,233069915496843,649874208000000,,,-1265581155234616655,0.6933498382568359,34.55721162026748,1.040577941819369,10.470446318959336,158,17,0.0,16399,384629361060800,5,40.4,-520.2803344726562,0.005100000184029341,25,-8077.887567879891,7.42145288706399E-4,1.57542003E9,,,,0,,1,0.05,1.57542003E9,366.0,NaN,NaN
Raw,233069915496843,649874208000000,,,-1265581155234616655,0.6933498382568359,34.55721162026748,1.040577941819369,10.470446318959336,158,20,0.0,16399,384629366565311,4,42.8,-301.1336669921875,0.02710000053048134,25,-4628.313314537039,5.899103906353357E-4,1.57542003E9,,,,0,,1,0.05,1.57542003E9,366.0,NaN,NaN
Raw,233069915496843,649874208000000,,,-1265581155234616655,0.6933498382568359,34.55721162026748,1.040577941819369,10.470446318959336,158,24,0.0,16399,384629368036689,19,27.2,-562.511474609375,0.037800002843141556,17,-8637.710907603207,0.003234992547669888,1.57542003E9,,,,0,,1,0.05,1.57542003E9,366.0,NaN,NaN
Raw,233069915496843,649874208000000,,,-1265581155234616655,0.6933498382568359,34.55721162026748,1.040577941819369,10.470446318959336,158,28,0.0,16399,384629370683885,5,41.7,241.2545623779297,0.0333000011742115,25,3737.7628649873086,6.850571963914755E-4,1.57542003E9,,,,0,,1,0.05,1.57542003E9,366.0,NaN,NaN
Raw,233069915496843,649874208000000,,,-1265581155234616655,0.6933498382568359,34.55721162026748,1.040577941819369,10.470446318959336,158,30,0.0,16399,384629363607048,53,19.6,601.52783203125,1.0010000467300415,16,0.0,0.0,1.57542003E9,,,,0,,1,0.05,1.57542003E9,366.0,NaN,NaN
Raw,233069915496843,649874208000000,,,-1265581155234616655,0.6933498382568359,34.55721162026748,1.040577941819369,10.470446318959336,158,14,0.0,49359,49811378759225,13,31.1,35.21881103515625,0.249099999666214,25,509.8308989809436,0.0020448123267212243,1.59806246E9,,,,0,,3,-4.98,1.59806246E9,366.0,NaN,NaN
Raw,233069915496843,649874208000000,,,-1265581155234616655,0.6933498382568359,34.55721162026748,1.040577941819369,10.470446318959336,158,22,0.0,49359,49811365313445,16,29.5,-84.09529113769531,0.2314000129699707,25,-1247.3009319289092,0.00277253881595763,1.60031245E9,,,,0,,3,-4.98,1.60031245E9,366.0,NaN,NaN
Raw,233069915496843,649874208000000,,,-1265581155234616655,0.6933498382568359,34.55721162026748,1.040577941819369,10.470446318959336,158,13,0.0,49359,49811370526617,11,33.0,667.7349243164062,0.2362000048160553,25,7042.871626544788,0.0016292305196830812,1.60087501E9,,,,0,,3,-4.98,1.60087501E9,366.0,NaN,NaN
Raw,233069915496843,649874208000000,,,-1265581155234616655,0.6933498382568359,34.55721162026748,1.040577941819369,10.470446318959336,158,15,0.0,49359,49811371730685,40,21.7,-621.7699584960938,1.003000020980835,16,0.0,0.0,1.602E9,,,,0,,3,-4.98,1.602E9,366.0,NaN,NaN
Raw,233069915496843,649874208000000,,,-1265581155234616655,0.6933498382568359,34.55721162026748,1.040577941819369,10.470446318959336,158,5,0.0,49359,49811374458309,16,29.2,-505.81427001953125,0.24490000307559967,19,-7441.928051573864,0.002768645973945739,1.60256256E9,,,,0,,3,-4.98,1.60256256E9,366.0,NaN,NaN
Raw,233069915496843,649874208000000,,,-1265581155234616655,0.6933498382568359,34.55721162026748,1.040577941819369,10.470446318959336,158,3,0.0,49359,49811367051671,27,24.6,798.833251953125,0.251800000667572,21,11733.039039850599,0.1868083964827234,1.60481254E9,,,,0,,3,-4.98,1.60481254E9,366.0,NaN,NaN
Raw,233069915496843,649874208000000,,,-1265581155234616655,0.6933498382568359,34.55721162026748,1.040577941819369,10.470446318959336,158,4,0.0,49359,49811377783401,6,38.0,280.3934326171875,0.24459999799728394,25,4112.7740430192,9.150404631835356E-4,1.60537498E9,,,,0,,3,-4.98,1.60537498E9,366.0,NaN,NaN
Raw,233069915496843,649874208000000,,,-1265581155234616655,0.6933498382568359,34.55721162026748,1.040577941819369,10.470446318959336,158,37,0.0,16399,384615362240711,5,40.6,497.6422119140625,0.006599999964237213,25,7464.324017696593,7.489539839688142E-4,1.56109798E9,,,,0,,5,0.0,1.56109798E9,366.0,NaN,NaN
Raw,233069915496843,649874208000000,,,-1265581155234616655,0.6933498382568359,34.55721162026748,1.040577941819369,10.470446318959336,158,22,0.0,16399,384615363365200,13,31.2,-363.8343811035156,0.026600001379847527,25,-5460.277861495276,0.0020932304434118673,1.56109798E9,,,,0,,5,0.0,1.56109798E9,366.0,NaN,NaN
Raw,233069915496843,649874208000000,,,-1265581155234616655,0.6933498382568359,34.55721162026748,1.040577941819369,10.470446318959336,158,20,0.0,16399,384615358589659,27,24.9,653.0608520507812,0.06830000132322311,21,6114.1948479394205,0.1920394882785269,1.56109798E9,,,,0,,5,0.0,1.56109798E9,366.0,NaN,NaN
Raw,233069915496843,649874208000000,,,-1265581155234616655,0.6933498382568359,34.55721162026748,1.040577941819369,10.470446318959336,158,19,0.0,16399,384615368726416,14,30.9,250.68984985351562,0.03490000218153,25,2346.093701342763,0.0024196975554572116,1.56109798E9,,,,0,,5,0.0,1.56109798E9,366.0,NaN,NaN
Raw,233069915496843,649874208000000,,,-1265581155234616655,0.6933498382568359,34.55721162026748,1.040577941819369,10.470446318959336,158,10,0.0,16399,384615309948387,10,34.0,174.8173828125,0.0340999998152256,25,2623.4012354847214,0.001536315979199305,1.56109798E9,,,,0,,5,0.0,1.56109798E9,366.0,NaN,NaN
Raw,233069915496843,649874208000000,,,-1265581155234616655,0.6933498382568359,34.55721162026748,1.040577941819369,10.470446318959336,158,1,0.0,23567,384629357540903,12,32.7,412.9288635253906,0.0471000038087368,21,6427.143036358057,0.003958108324583987,1.57542003E9,,,,0,,6,0.23,1.57542003E9,366.0,NaN,NaN
Raw,233069915496843,649874208000000,,,-1265581155234616655,0.6933498382568359,34.55721162026748,1.040577941819369,10.470446318959336,158,4,0.0,23567,384629355370383,7,37.7,519.1951904296875,0.0479000024497509,25,8088.840565419938,0.0021883771969841777,1.57542003E9,,,,0,,6,0.23,1.57542003E9,366.0,NaN,NaN
Raw,233069915496843,649874208000000,,,-1265581155234616655,0.6933498382568359,34.55721162026748,1.040577941819369,10.470446318959336,158,5,0.0,23567,384629358190940,9,35.9,-402.52069091796875,0.0471000038087368,25,-6269.316789666471,0.0028924638165555576,1.57542003E9,,,,0,,6,0.23,1.57542003E9,366.0,NaN,NaN
Raw,233069915496843,649874208000000,,,-1265581155234616655,0.6933498382568359,34.55721162026748,1.040577941819369,10.470446318959336,158,9,0.0,23567,384629370770973,7,37.8,95.67008209228516,0.046400003135204315,25,1487.1264469636933,0.0021883771969841777,1.57542003E9,,,,0,,6,0.23,1.57542003E9,366.0,NaN,NaN
Raw,233069915496843,649874208000000,,,-1265581155234616655,0.6933498382568359,34.55721162026748,1.040577941819369,10.470446318959336,158,24,0.0,23567,384629361728096,14,30.2,-535.601318359375,0.04840000346302986,25,-7795.23866634979,0.005233075867304602,1.57542003E9,,,,0,,6,0.23,1.57542003E9,366.0,NaN,NaN
Raw,233069915496843,649874208000000,,,-1265581155234616655,0.6933498382568359,34.55721162026748,1.040577941819369,10.470446318959336,158,31,0.0,23567,384629364058928,8,36.2,-105.18363189697266,0.04360000044107437,25,-1643.197296039402,0.0025499350854412276,1.57542003E9,,,,0,,6,0.23,1.57542003E9,366.0,NaN,NaN
Raw,233069915496843,649874208000000,,,-1265581155234616655,0.6933498382568359,34.55721162026748,1.040577941819369,10.470446318959336,158,24,0.0,81935,384629368044610,11,19.9,-562.2653198242188,0.9284999966621399,16,0.0,0.0,1.17645005E9,,,,0,,1,-0.52,1.17645005E9,366.0,NaN,NaN
Raw,233069915496843,649874208000000,,,-1265581155234616655,0.6933498382568359,34.55721162026748,1.040577941819369,10.470446318959336,158,30,0.0,81935,384629363615032,9,21.9,602.3329467773438,0.04989999905228615,27,5043.284489590822,0.25482803839368795,1.17645005E9,,,,0,,1,-0.52,1.17645005E9,366.0,NaN,NaN
Raw,233069915496843,649874208000000,,,-1265581155234616655,0.6933498382568359,34.55721162026748,1.040577941819369,10.470446318959336,158,1,0.0,81935,384629357547962,2,39.2,412.80328369140625,0.04650000110268593,25,3863.560791151739,0.001121243362856653,1.17645005E9,,,,0,,6,-0.52,1.17645005E9,366.0,NaN,NaN
Raw,233069915496843,649874208000000,,,-1265581155234616655,0.6933498382568359,34.55721162026748,1.040577941819369,10.470446318959336,158,4,0.0,81935,384629355377474,3,32.7,519.01025390625,0.04910000041127205,25,4860.922018892951,0.0024208662868967453,1.17645005E9,,,,0,,6,-0.52,1.17645005E9,366.0,NaN,NaN
Raw,233069915496843,649874208000000,,,-1265581155234616655,0.6933498382568359,34.55721162026748,1.040577941819369,10.470446318959336,158,5,0.0,81935,384629358198032,2,35.7,-402.64129638671875,0.05060000345110893,25,-3762.706515848065,0.0017837963238157039,1.17645005E9,,,,0,,6,-0.52,1.17645005E9,366.0,NaN,NaN
Raw,233069915496843,649874208000000,,,-1265581155234616655,0.6933498382568359,34.55721162026748,1.040577941819369,10.470446318959336,158,9,0.0,81935,384629370778075,2,34.6,95.51404571533203,0.039500001817941666,25,896.9373670023722,0.0020386244039789624,1.17645005E9,,,,0,,6,-0.52,1.17645005E9,366.0,NaN,NaN
Raw,233069915496843,649874208000000,,,-1265581155234616655,0.6933498382568359,34.55721162026748,1.040577941819369,10.470446318959336,158,24,0.0,81935,384629361735190,10,20.2,-535.7135620117188,0.062199998646974564,25,-5005.54825879305,0.34557229348499413,1.17645005E9,,,,0,,6,-0.52,1.17645005E9,366.0,NaN,NaN
Raw,233069915496843,649874208000000,,,-1265581155234616655,0.6933498382568359,34.55721162026748,1.040577941819369,10.470446318959336,158,31,0.0,81935,384629364066017,2,34.5,-105.38714599609375,0.030500002205371857,25,-981.3976543046093,0.0020386244039789624,1.17645005E9,,,,0,,6,-0.52,1.17645005E9,366.0,NaN,NaN
Fix,gps,51.524640,-0.134207,72.209351,0.000000,3.790092,1582195813000,233070897965587
Raw,233070914626839,649875208000000,,,-1265581155234616657,0.6667919158935547,34.8141256836243,-0.8817844297629258,10.478383201145457,158,5,0.0,16399,384630360378851,24,25.2,729.6046752929688,0.018299998715519905,29,11918.127403149352,0.19029366893311156,1.57542003E9,,,,0,,1,0.05,1.57542003E9,366.0,NaN,NaN
Raw,233070914626839,649875208000000,,,-1265581155234616657,0.6667919158935547,34.8141256836243,-0.8817844297629258,10.478383201145457,158,13,0.0,16399,384630374238841,11,33.7,268.4026794433594,0.0422000028192997,25,4376.028674091312,0.001655554942969963,1.57542003E9,,,,0,,1,0.05,1.57542003E9,366.0,NaN,NaN
Raw,233070914626839,649875208000000,,,-1265581155234616657,0.6667919158935547,34.8141256836243,-0.8817844297629258,10.478383201145457,158,15,0.0,16399,384630375077805,5,40.5,-57.71604919433594,0.04110000282526016,25,-969.6275955683727,7.42145288706399E-4,1.57542003E9,,,,0,,1,0.05,1.57542003E9,366.0,NaN,NaN
Raw,233070914626839,649875208000000,,,-1265581155234616657,0.6667919158935547,34.8141256836243,-0.8817844297629258,10.478383201145457,158,17,0.0,16399,384630361062527,5,41.3,-519.8756103515625,0.004800000227987766,25,-8598.102204669476,6.850571963914755E-4,1.57542003E9,,,,0,,1,0.05,1.57542003E9,366.0,NaN,NaN
Raw,233070914626839,649875208000000,,,-1265581155234616657,0.6667919158935547,34.8141256836243,-0.8817844297629258,10.478383201145457,158,20,0.0,16399,384630366566309,4,42.2,-300.6075744628906,0.02710000053048134,25,-4929.323212294526,5.899103906353357E-4,1.57542003E9,,,,0,,1,0.05,1.57542003E9,366.0,NaN,NaN
Raw,233070914626839,649875208000000,,,-1265581155234616657,0.6667919158935547,34.8141256836243,-0.8817844297629258,10.478383201145457,158,24,0.0,16399,384630368038580,21,26.5,-562.1533203125,0.038700003176927567,29,-9200.087887038882,0.005442398901996786,1.57542003E9,,,,0,,1,0.05,1.57542003E9,366.0,NaN,NaN
Raw,233070914626839,649875208000000,,,-1265581155234616657,0.6667919158935547,34.8141256836243,-0.8817844297629258,10.478383201145457,158,28,0.0,16399,384630370683094,4,42.4,241.68394470214844,0.03310000151395798,25,3979.093830735364,5.899103906353357E-4,1.57542003E9,,,,0,,1,0.05,1.57542003E9,366.0,NaN,NaN
Raw,233070914626839,649875208000000,,,-1265581155234616657,0.6667919158935547,34.8141256836243,-0.8817844297629258,10.478383201145457,158,30,0.0,16399,384630363605117,21,26.6,602.8289184570312,0.016200000420212746,27,9848.950316964401,0.005442398901996786,1.57542003E9,,,,0,,1,0.05,1.57542003E9,366.0,NaN,NaN
Raw,233070914626839,649875208000000,,,-1265581155234616657,0.6667919158935547,34.8141256836243,-0.8817844297629258,10.478383201145457,158,14,0.0,49359,49812378759086,19,27.9,35.747554779052734,0.25280001759529114,25,545.1360667865529,0.0031891569808937432,1.59806246E9,,,,0,,3,-4.98,1.59806246E9,366.0,NaN,NaN
Raw,233070914626839,649875208000000,,,-1265581155234616657,0.6667919158935547,34.8141256836243,-0.8817844297629258,10.478383201145457,158,22,0.0,49359,49812365313669,14,30.4,-83.52506256103516,0.2303999960422516,25,-1331.278788059261,0.002360404669997281,1.60031245E9,,,,0,,3,-4.98,1.60031245E9,366.0,NaN,NaN
Raw,233070914626839,649875208000000,,,-1265581155234616657,0.6667919158935547,34.8141256836243,-0.8817844297629258,10.478383201145457,158,13,0.0,49359,49812370524440,13,31.4,668.1449584960938,0.2371000051498413,25,7710.661197377349,0.0020412198384807895,1.60087501E9,,,,0,,3,-4.98,1.60087501E9,366.0,NaN,NaN
Raw,233070914626839,649875208000000,,,-1265581155234616657,0.6667919158935547,34.8141256836243,-0.8817844297629258,10.478383201145457,158,15,0.0,49359,49812371732618,31,23.6,-621.0914916992188,0.32770001888275146,27,-8423.112598034142,0.18713636579275905,1.602E9,,,,0,,3,-4.98,1.602E9,366.0,NaN,NaN
Raw,233070914626839,649875208000000,,,-1265581155234616657,0.6667919158935547,34.8141256836243,-0.8817844297629258,10.478383201145457,158,5,0.0,49359,49812374460017,9,35.3,-505.5533447265625,0.241100013256073,25,-7947.6237352635,0.0013094947574310036,1.60256256E9,,,,0,,3,-4.98,1.60256256E9,366.0,NaN,NaN
Raw,233070914626839,649875208000000,,,-1265581155234616657,0.6667919158935547,34.8141256836243,-0.8817844297629258,10.478383201145457,158,3,0.0,49359,49812367048689,17,28.9,798.968505859375,0.23570001125335693,29,12531.79051368565,0.002951572521903534,1.60481254E9,,,,0,,3,-4.98,1.60481254E9,366.0,NaN,NaN
Raw,233070914626839,649875208000000,,,-1265581155234616657,0.6667919158935547,34.8141256836243,-0.8817844297629258,10.478383201145457,158,4,0.0,49359,49812377782456,6,39.0,280.9349060058594,0.2443000078201294,25,4393.296003304395,8.216689731510993E-4,1.60537498E9,,,,0,,3,-4.98,1.60537498E9,366.0,NaN,NaN
