# 
# Header Description:
# 
# Version: v2.0.0.1 Platform: 10 Manufacturer: Google Model: Pixel 4
# 
# Raw,ElapsedRealtimeNanos,TimeNanos,LeapSecond,TimeUncertaintyNanos,FullBiasNanos,BiasNanos,BiasUncertaintyNanos,DriftNanosPerSecond,DriftUncertaintyNanosPerSecond,HardwareClockDiscontinuityCount,Svid,TimeOffsetNanos,State,ReceivedSvTimeNanos,ReceivedSvTimeUncertaintyNanos,Cn0DbHz,PseudorangeRateMetersPerSecond,PseudorangeRateUncertaintyMetersPerSecond,AccumulatedDeltaRangeState,AccumulatedDeltaRangeMeters,AccumulatedDeltaRangeUncertaintyMeters,CarrierFrequencyHz,CarrierCycles,CarrierPhase,CarrierPhaseUncertainty,MultipathIndicator,SnrInDb,ConstellationType,AgcDb,CarrierFrequencyHz,UserLatitude,UserLongitude,UserAltitude
# 
# Fix,Provider,Latitude,Longitude,Altitude,Speed,Accuracy,(UTC)TimeInMs,ElapsedRealtimeNanos
# 
# Nav,Svid,Type,Status,MessageId,Sub-messageId,Data(Bytes)
# 
Fix,gps,51.524610,-0.134249,75.015930,0.180000,3.790092,1582195751000,233008899377588
Raw,233008913057902,649813208000000,,,-1265581155240431549,-0.7577190399169922,29.303522751433775,-9.972872995143083,11.513107692352563,148,13,0.0,16399,384568380108635,9,35.9,258.8114013671875,0.020100001245737076,17,13244.17325780854,0.0013320557236479321,1.57542003E9,,,,0,,1,1.06,1.57542003E9,364.0,NaN,NaN
Raw,233008913057902,649813208000000,,,-1265581155240431549,-0.7577190399169922,29.303522751433775,-9.972872995143083,11.513107692352563,148,15,0.0,16399,384568380880041,5,40.9,-68.39457702636719,0.01860000006854534,25,-3634.091419926398,7.42145288706399E-4,1.57542003E9,,,,0,,1,1.06,1.57542003E9,364.0,NaN,NaN
Raw,233008913057902,649813208000000,,,-1265581155240431549,-0.7577190399169922,29.303522751433775,-9.972872995143083,11.513107692352563,148,17,0.0,16399,384568366769603,7,37.0,-526.5223388671875,0.028400002047419548,17,-15999.2817902537,0.0010085564157135064,1.57542003E9,,,,0,,1,1.06,1.57542003E9,364.0,NaN,NaN
Raw,233008913057902,649813208000000,,,-1265581155240431549,-0.7577190399169922,29.303522751433775,-9.972872995143083,11.513107692352563,148,20,0.0,16399,384568372318329,8,36.2,-311.4761962890625,0.03760000318288803,17,-1072.1762299194609,0.001160791358090767,1.57542003E9,,,,0,,1,1.06,1.57542003E9,364.0,NaN,NaN
Raw,233008913057902,649813208000000,,,-1265581155240431549,-0.7577190399169922,29.303522751433775,-9.972872995143083,11.513107692352563,148,24,0.0,16399,384568373736828,19,27.7,-569.130615234375,0.04530000314116478,17,-26958.185917050127,0.003234992547669888,1.57542003E9,,,,0,,1,1.06,1.57542003E9,364.0,NaN,NaN
Raw,233008913057902,649813208000000,,,-1265581155240431549,-0.7577190399169922,29.303522751433775,-9.972872995143083,11.513107692352563,148,28,0.0,16399,384568376547274,5,40.1,231.2598419189453,0.04260000213980675,17,11812.436667683352,7.42145288706399E-4,1.57542003E9,,,,0,,1,1.06,1.57542003E9,364.0,NaN,NaN
Raw,233008913057902,649813208000000,,,-1265581155240431549,-0.7577190399169922,29.303522751433775,-9.972872995143083,11.513107692352563,148,30,0.0,16399,384568369544558,14,30.5,597.6366577148438,0.036400001496076584,21,15246.168164571005,0.002397700231676362,1.57542003E9,,,,0,,1,1.06,1.57542003E9,364.0,NaN,NaN
Raw,233008913057902,649813208000000,,,-1265581155240431549,-0.7577190399169922,29.303522751433775,-9.972872995143083,11.513107692352563,148,14,0.0,49359,49750384580461,6,39.7,23.718950271606445,0.2248000055551529,25,1073.6933802358258,8.254288163121457E-4,1.59806246E9,,,,0,,3,-0.85,1.59806246E9,364.0,NaN,NaN
Raw,233008913057902,649813208000000,,,-1265581155240431549,-0.7577190399169922,29.303522751433775,-9.972872995143083,11.513107692352563,148,22,0.0,49359,49750371110071,24,25.9,-96.06192016601562,0.24979999661445618,29,-5160.548584214511,0.18733370372433672,1.60031245E9,,,,0,,3,-0.85,1.60031245E9,364.0,NaN,NaN
Raw,233008913057902,649813208000000,,,-1265581155240431549,-0.7577190399169922,29.303522751433775,-9.972872995143083,11.513107692352563,148,13,0.0,49359,49750376477065,11,33.0,661.1784057617188,0.2452000081539154,29,30109.52659355379,0.0016292305196830812,1.60087501E9,,,,0,,3,-0.85,1.60087501E9,364.0,NaN,NaN
Raw,233008913057902,649813208000000,,,-1265581155240431549,-0.7577190399169922,29.303522751433775,-9.972872995143083,11.513107692352563,148,15,0.0,49359,49750377418757,17,28.6,-629.861083984375,0.2506999969482422,29,-31278.58902299006,0.0029567544367518762,1.602E9,,,,0,,3,-0.85,1.602E9,364.0,NaN,NaN
Raw,233008913057902,649813208000000,,,-1265581155240431549,-0.7577190399169922,29.303522751433775,-9.972872995143083,11.513107692352563,148,5,0.0,49359,49750380169607,4,42.9,-516.30615234375,0.21810001134872437,25,-26499.711649854817,5.799191056178505E-4,1.60256256E9,,,,0,,3,-0.85,1.60256256E9,364.0,NaN,NaN
Raw,233008913057902,649813208000000,,,-1265581155240431549,-0.7577190399169922,29.303522751433775,-9.972872995143083,11.513107692352563,148,3,0.0,49359,49750373028865,27,24.8,792.2630004882812,0.26080000400543213,29,40470.23245900665,0.1868083964827234,1.60481254E9,,,,0,,3,-0.85,1.60481254E9,364.0,NaN,NaN
Raw,233008913057902,649813208000000,,,-1265581155240431549,-0.7577190399169922,29.303522751433775,-9.972872995143083,11.513107692352563,148,4,0.0,49359,49750383654509,6,39.2,267.77154541015625,0.2233000099658966,25,13521.776459126315,8.216689731510993E-4,1.60537498E9,,,,0,,3,-0.85,1.60537498E9,364.0,NaN,NaN
Raw,233008913057902,649813208000000,,,-1265581155240431549,-0.7577190399169922,29.303522751433775,-9.972872995143083,11.513107692352563,148,37,0.0,16399,384554368156725,7,37.6,491.88037109375,0.03140000253915787,25,25294.146762655353,0.0010178092579723537,1.56109798E9,,,,0,,5,1.2,1.56109798E9,364.0,NaN,NaN
Raw,233008913057902,649813208000000,,,-1265581155240431549,-0.7577190399169922,29.303522751433775,-9.972872995143083,11.513107692352563,148,22,0.0,16399,384554369105620,5,41.5,-372.22998046875,0.03180000185966492,25,-18588.001428773314,6.913421459270097E-4,1.56109798E9,,,,0,,5,1.2,1.56109798E9,364.0,NaN,NaN
Raw,233008913057902,649813208000000,,,-1265581155240431549,-0.7577190399169922,29.303522751433775,-9.972872995143083,11.513107692352563,148,20,0.0,16399,384554364537445,40,21.3,646.8658447265625,0.8524999618530273,16,0.0,0.0,1.56109798E9,,,,0,,5,1.2,1.56109798E9,364.0,NaN,NaN
Raw,233008913057902,649813208000000,,,-1265581155240431549,-0.7577190399169922,29.303522751433775,-9.972872995143083,11.513107692352563,148,19,0.0,16399,384554374591750,35,22.8,240.87269592285156,0.4027999937534332,19,9656.062501330664,0.1920394882785269,1.56109798E9,,,,0,,5,1.2,1.56109798E9,364.0,NaN,NaN
Raw,233008913057902,649813208000000,,,-1265581155240431549,-0.7577190399169922,29.303522751433775,-9.972872995143083,11.513107692352563,148,10,0.0,16399,384554315798810,7,37.8,170.6102294921875,0.04190000146627426,17,8504.544775484972,0.0010178092579723537,1.56109798E9,,,,0,,5,1.2,1.56109798E9,364.0,NaN,NaN
Raw,233008913057902,649813208000000,,,-1265581155240431549,-0.7577190399169922,29.303522751433775,-9.972872995143083,11.513107692352563,148,1,0.0,23567,384568363439523,6,39.1,406.43035888671875,0.04130000248551369,25,20864.474911252702,0.0018458486430946374,1.57542003E9,,,,0,,6,0.99,1.57542003E9,364.0,NaN,NaN
Raw,233008913057902,649813208000000,,,-1265581155240431549,-0.7577190399169922,29.303522751433775,-9.972872995143083,11.513107692352563,148,4,0.0,23567,384568361290729,13,31.9,513.4951782226562,0.047600001096725464,25,16229.318789154515,0.004528989424958011,1.57542003E9,,,,0,,6,0.99,1.57542003E9,364.0,NaN,NaN
Raw,233008913057902,649813208000000,,,-1265581155240431549,-0.7577190399169922,29.303522751433775,-9.972872995143083,11.513107692352563,148,5,0.0,23567,384568363923747,9,35.9,-408.4788818359375,0.04260000213980675,25,-9591.959149689448,0.0028924638165555576,1.57542003E9,,,,0,,6,0.99,1.57542003E9,364.0,NaN,NaN
Raw,233008913057902,649813208000000,,,-1265581155240431549,-0.7577190399169922,29.303522751433775,-9.972872995143083,11.513107692352563,148,9,0.0,23567,384568376604942,7,37.6,87.642333984375,0.04340000078082085,25,4438.099395394117,0.0021883771969841777,1.57542003E9,,,,0,,6,0.99,1.57542003E9,364.0,NaN,NaN
Raw,233008913057902,649813208000000,,,-1265581155240431549,-0.7577190399169922,29.303522751433775,-9.972872995143083,11.513107692352563,148,24,0.0,23567,384568367433865,27,24.1,-540.7575073242188,0.6949999928474426,16,0.0,0.0,1.57542003E9,,,,0,,6,0.99,1.57542003E9,364.0,NaN,NaN
Raw,233008913057902,649813208000000,,,-1265581155240431549,-0.7577190399169922,29.303522751433775,-9.972872995143083,11.513107692352563,148,31,0.0,23567,384568369852007,11,33.5,-113.59491729736328,0.04670000076293945,25,-1191.7559467125998,0.003596550258902148,1.57542003E9,,,,0,,6,0.99,1.57542003E9,364.0,NaN,NaN
Raw,233008913057902,649813208000000,,,-1265581155240431549,-0.7577190399169922,29.303522751433775,-9.972872995143083,11.513107692352563,148,30,0.0,81935,384568369552451,11,19.2,597.3092041015625,0.16339999437332153,29,26899.787193487526,0.25482803839368795,1.17645005E9,,,,0,,1,-12.54,1.17645005E9,364.0,NaN,NaN
Raw,233008913057902,649813208000000,,,-1265581155240431549,-0.7577190399169922,29.303522751433775,-9.972872995143083,11.513107692352563,148,1,0.0,81935,384568363446603,5,28.2,406.33331298828125,0.03759999945759773,29,18405.415075130004,0.0040262828122019055,1.17645005E9,,,,0,,6,-12.54,1.17645005E9,364.0,NaN,NaN
Raw,233008913057902,649813208000000,,,-1265581155240431549,-0.7577190399169922,29.303522751433775,-9.972872995143083,11.513107692352563,148,4,0.0,81935,384568361297848,5,28.3,513.298095703125,0.03460000082850456,25,23331.382115449633,0.0040262828122019055,1.17645005E9,,,,0,,6,-12.54,1.17645005E9,364.0,NaN,NaN
Raw,233008913057902,649813208000000,,,-1265581155240431549,-0.7577190399169922,29.303522751433775,-9.972872995143083,11.513107692352563,148,5,0.0,81935,384568363930829,4,29.3,-408.707275390625,0.03550000116229057,25,-18475.824263463237,0.0037714549693657518,1.17645005E9,,,,0,,6,-12.54,1.17645005E9,364.0,NaN,NaN
Raw,233008913057902,649813208000000,,,-1265581155240431549,-0.7577190399169922,29.303522751433775,-9.972872995143083,11.513107692352563,148,9,0.0,81935,384568376612031,5,27.3,87.57076263427734,0.06000000238418579,25,3935.6831084995138,0.004332076888121183,1.17645005E9,,,,0,,6,-12.54,1.17645005E9,364.0,NaN,NaN
Raw,233008913057902,649813208000000,,,-1265581155240431549,-0.7577190399169922,29.303522751433775,-9.972872995143083,11.513107692352563,148,24,0.0,81935,384568367440952,11,19.0,-541.42431640625,0.16039998829364777,27,-24497.534764014337,0.25482803839368795,1.17645005E9,,,,0,,6,-12.54,1.17645005E9,364.0,NaN,NaN
Raw,233008913057902,649813208000000,,,-1265581155240431549,-0.7577190399169922,29.303522751433775,-9.972872995143083,11.513107692352563,148,31,0.0,81935,384568369859069,3,33.0,-113.56554412841797,0.039000000804662704,29,-5200.210172470058,0.0022170039651624013,1.17645005E9,,,,0,,6,-12.54,1.17645005E9,364.0,NaN,NaN
Fix,gps,51.524609,-0.134258,74.931824,0.000000,3.790092,1582195752000,233009901115656
Raw,233009922979461,649814208000000,,,-1265581155240431565,-0.9999847412109375,29.418812118819915,-11.827301659566944,11.768071682154545,148,13,0.0,16399,384569380107751,6,39.2,259.3931579589844,0.018800001591444016,17,13502.755991509264,8.372921387687362E-4,1.57542003E9,,,,0,,1,1.01,1.57542003E9,364.0,NaN,NaN
Raw,233009922979461,649814208000000,,,-1265581155240431565,-0.9999847412109375,29.418812118819915,-11.827301659566944,11.768071682154545,148,15,0.0,16399,384569380880270,6,39.4,-67.84951782226562,0.018800001591444016,25,-3702.7383288095975,8.372921387687362E-4,1.57542003E9,,,,0,,1,1.01,1.57542003E9,364.0,NaN,NaN
Raw,233009922979461,649814208000000,,,-1265581155240431565,-0.9999847412109375,29.418812118819915,-11.827301659566944,11.768071682154545,148,17,0.0,16399,384569366771343,8,36.9,-526.0011596679688,0.028600001707673073,17,-16526.087320831164,0.001160791358090767,1.57542003E9,,,,0,,1,1.01,1.57542003E9,364.0,NaN,NaN
Raw,233009922979461,649814208000000,,,-1265581155240431565,-0.9999847412109375,29.418812118819915,-11.827301659566944,11.768071682154545,148,20,0.0,16399,384569372319326,7,37.8,-311.15264892578125,0.03739999979734421,17,-1384.051593513885,0.0010085564157135064,1.57542003E9,,,,0,,1,1.01,1.57542003E9,364.0,NaN,NaN
Raw,233009922979461,649814208000000,,,-1265581155240431565,-0.9999847412109375,29.418812118819915,-11.827301659566944,11.768071682154545,148,24,0.0,16399,384569373738835,17,28.4,-568.7263793945312,0.04470000043511391,17,-27527.69943089706,0.0030066398239606148,1.57542003E9,,,,0,,1,1.01,1.57542003E9,364.0,NaN,NaN
Raw,233009922979461,649814208000000,,,-1265581155240431565,-0.9999847412109375,29.418812118819915,-11.827301659566944,11.768071682154545,148,28,0.0,16399,384569376546480,4,42.0,231.89337158203125,0.042100001126527786,17,12043.461050088188,5.899103906353357E-4,1.57542003E9,,,,0,,1,1.01,1.57542003E9,364.0,NaN,NaN
Raw,233009922979461,649814208000000,,,-1265581155240431565,-0.9999847412109375,29.418812118819915,-11.827301659566944,11.768071682154545,148,30,0.0,16399,384569369542556,9,35.6,597.9111938476562,0.03360000252723694,17,15843.415785944542,0.0013320557236479321,1.57542003E9,,,,0,,1,1.01,1.57542003E9,364.0,NaN,NaN
Raw,233009922979461,649814208000000,,,-1265581155240431565,-0.9999847412109375,29.418812118819915,-11.827301659566944,11.768071682154545,148,14,0.0,49359,49751384580450,10,34.6,24.295040130615234,0.22660000622272491,25,1097.1428810158343,0.0015007797454374234,1.59806246E9,,,,0,,3,-0.67,1.59806246E9,364.0,NaN,NaN
Raw,233009922979461,649814208000000,,,-1265581155240431565,-0.9999847412109375,29.418812118819915,-11.827301659566944,11.768071682154545,148,22,0.0,49359,49751371110490,14,30.9,-96.96392822265625,0.6029999852180481,16,0.0,0.0,1.60031245E9,,,,0,,3,-0.67,1.60031245E9,364.0,NaN,NaN
Raw,233009922979461,649814208000000,,,-1265581155240431565,-0.9999847412109375,29.418812118819915,-11.827301659566944,11.768071682154545,148,13,0.0,49359,49751376474844,11,33.0,661.91015625,0.2452000081539154,21,30770.368179005734,0.0016292305196830812,1.60087501E9,,,,0,,3,-0.67,1.60087501E9,364.0,NaN,NaN
Raw,233009922979461,649814208000000,,,-1265581155240431565,-0.9999847412109375,29.418812118819915,-11.827301659566944,11.768071682154545,148,15,0.0,49359,49751377420806,53,19.4,-628.8062744140625,1.1419999599456787,16,0.0,0.0,1.602E9,,,,0,,3,-0.67,1.602E9,364.0,NaN,NaN
Raw,233009922979461,649814208000000,,,-1265581155240431565,-0.9999847412109375,29.418812118819915,-11.827301659566944,11.768071682154545,148,5,0.0,49359,49751380171357,6,39.8,-515.9322509765625,0.21880000829696655,25,-27016.384085432725,8.23110960518378E-4,1.60256256E9,,,,0,,3,-0.67,1.60256256E9,364.0,NaN,NaN
Raw,233009922979461,649814208000000,,,-1265581155240431565,-0.9999847412109375,29.418812118819915,-11.827301659566944,11.768071682154545,148,3,0.0,49359,49751373026335,31,23.0,792.5281982421875,0.33070001006126404,21,41262.1511185272,0.1868083964827234,1.60481254E9,,,,0,,3,-0.67,1.60481254E9,364.0,NaN,NaN
Raw,233009922979461,649814208000000,,,-1265581155240431565,-0.9999847412109375,29.418812118819915,-11.827301659566944,11.768071682154545,148,4,0.0,49359,49751383653645,7,37.0,268.3450012207031,0.22390000522136688,25,13789.30850345189,9.897376030341073E-4,1.60537498E9,,,,0,,3,-0.67,1.60537498E9,364.0,NaN,NaN
Raw,233009922979461,649814208000000,,,-1265581155240431565,-0.9999847412109375,29.418812118819915,-11.827301659566944,11.768071682154545,148,37,0.0,16399,384555368155131,9,35.1,492.3998107910156,0.032099999487400055,25,25785.710503963004,0.0013442764594430532,1.56109798E9,,,,0,,5,1.37,1.56109798E9,364.0,NaN,NaN
Raw,233009922979461,649814208000000,,,-1265581155240431565,-0.9999847412109375,29.418812118819915,-11.827301659566944,11.768071682154545,148,22,0.0,16399,384555369106874,4,42.5,-371.908935546875,0.03160000219941139,25,-18960.62125700126,5.953224307615613E-4,1.56109798E9,,,,0,,5,1.37,1.56109798E9,364.0,NaN,NaN
Raw,233009922979461,649814208000000,,,-1265581155240431565,-0.9999847412109375,29.418812118819915,-11.827301659566944,11.768071682154545,148,20,0.0,16399,384555364535266,24,25.9,648.1228637695312,0.03930000215768814,19,30741.757651647655,0.1920394882785269,1.56109798E9,,,,0,,5,1.37,1.56109798E9,364.0,NaN,NaN
Raw,233009922979461,649814208000000,,,-1265581155240431565,-0.9999847412109375,29.418812118819915,-11.827301659566944,11.768071682154545,148,19,0.0,16399,384555374590937,24,25.0,241.60569763183594,0.05430000275373459,21,9897.010902376278,0.1920394882785269,1.56109798E9,,,,0,,5,1.37,1.56109798E9,364.0,NaN,NaN
Raw,233009922979461,649814208000000,,,-1265581155240431565,-0.9999847412109375,29.418812118819915,-11.827301659566944,11.768071682154545,148,10,0.0,16399,384555315798255,6,38.1,171.01194763183594,0.041600000113248825,17,8674.80135413065,9.409935037250662E-4,1.56109798E9,,,,0,,5,1.37,1.56109798E9,364.0,NaN,NaN
Raw,233009922979461,649814208000000,,,-1265581155240431565,-0.9999847412109375,29.418812118819915,-11.827301659566944,11.768071682154545,148,1,0.0,23567,384569363438166,4,42.6,406.80029296875,0.0406000018119812,25,21270.513911543072,0.0012749675427206138,1.57542003E9,,,,0,,6,0.97,1.57542003E9,364.0,NaN,NaN
Raw,233009922979461,649814208000000,,,-1265581155240431565,-0.9999847412109375,29.418812118819915,-11.827301659566944,11.768071682154545,148,4,0.0,23567,384569361289003,13,31.5,513.9395141601562,0.047600001096725464,21,16742.433323239988,0.004528989424958011,1.57542003E9,,,,0,,6,0.97,1.57542003E9,364.0,NaN,NaN
Raw,233009922979461,649814208000000,,,-1265581155240431565,-0.9999847412109375,29.418812118819915,-11.827301659566944,11.768071682154545,148,5,0.0,23567,384569363925111,6,38.8,-408.33843994140625,0.041600000113248825,25,-10000.946832513266,0.0020551716777868216,1.57542003E9,,,,0,,6,0.97,1.57542003E9,364.0,NaN,NaN
Raw,233009922979461,649814208000000,,,-1265581155240431565,-0.9999847412109375,29.418812118819915,-11.827301659566944,11.768071682154545,148,9,0.0,23567,384569376604670,10,34.2,88.06260681152344,0.044600002467632294,25,4525.409000472685,0.003311109885939926,1.57542003E9,,,,0,,6,0.97,1.57542003E9,364.0,NaN,NaN
Raw,233009922979461,649814208000000,,,-1265581155240431565,-0.9999847412109375,29.418812118819915,-11.827301659566944,11.768071682154545,148,31,0.0,23567,384569369852349,10,34.4,-113.04911041259766,0.04610000178217888,25,-1305.6020176099996,0.003311109885939926,1.57542003E9,,,,0,,6,0.97,1.57542003E9,364.0,NaN,NaN
Raw,233009922979461,649814208000000,,,-1265581155240431565,-0.9999847412109375,29.418812118819915,-11.827301659566944,11.768071682154545,148,30,0.0,81935,384569369550397,8,22.6,598.2088012695312,0.7400000095367432,16,0.0,0.0,1.17645005E9,,,,0,,1,-2.13,1.17645005E9,364.0,NaN,NaN
Raw,233009922979461,649814208000000,,,-1265581155240431565,-0.9999847412109375,29.418812118819915,-11.827301659566944,11.768071682154545,148,1,0.0,81935,384569363445253,2,37.1,406.8296813964844,0.026600001379847527,25,18811.51021084825,0.0013505885638054542,1.17645005E9,,,,0,,6,-2.13,1.17645005E9,364.0,NaN,NaN
Raw,233009922979461,649814208000000,,,-1265581155240431565,-0.9999847412109375,29.418812118819915,-11.827301659566944,11.768071682154545,148,4,0.0,81935,384569361296142,5,27.9,513.935546875,0.03750000149011612,25,23844.52632044304,0.004332076888121183,1.17645005E9,,,,0,,6,-2.13,1.17645005E9,364.0,NaN,NaN
Raw,233009922979461,649814208000000,,,-1265581155240431565,-0.9999847412109375,29.418812118819915,-11.827301659566944,11.768071682154545,148,5,0.0,81935,384569363932192,2,38.9,-408.1820068359375,0.026000000536441803,25,-18884.80322372795,0.0012486574029382824,1.17645005E9,,,,0,,6,-2.13,1.17645005E9,364.0,NaN,NaN
Raw,233009922979461,649814208000000,,,-1265581155240431565,-0.9999847412109375,29.418812118819915,-11.827301659566944,11.768071682154545,148,9,0.0,81935,384569376611733,3,32.8,88.1670913696289,0.050599999725818634,25,4022.997231536965,0.0024208662868967453,1.17645005E9,,,,0,,6,-2.13,1.17645005E9,364.0,NaN,NaN
Raw,233009922979461,649814208000000,,,-1265581155240431565,-0.9999847412109375,29.418812118819915,-11.827301659566944,11.768071682154545,148,24,0.0,81935,384569367442742,10,20.5,-540.9625244140625,0.08619999885559082,29,-25039.324505735392,0.25482803839368795,1.17645005E9,,,,0,,6,-2.13,1.17645005E9,364.0,NaN,NaN
Raw,233009922979461,649814208000000,,,-1265581155240431565,-0.9999847412109375,29.418812118819915,-11.827301659566944,11.768071682154545,148,31,0.0,81935,384569369859452,2,36.9,-113.12288665771484,0.036400001496076584,29,-5314.090567424208,0.0015544510042033504,1.17645005E9,,,,0,,6,-2.13,1.17645005E9,364.0,NaN,NaN
Fix,gps,51.524608,-0.134261,74.736145,0.000000,3.790092,1582195753000,233010896495391
Raw,233010908108830,649815208000000,,,-1265581155240431581,-0.16936683654785156,30.275381504907273,-11.270103900065315,11.497183030138645,148,5,0.0,16399,384570366339029,92,15.2,725.8466796875,2.865499973297119,16,0.0,0.0,1.57542003E9,,,,0,,1,1.01,1.57542003E9,364.0,NaN,NaN
Raw,233010908108830,649815208000000,,,-1265581155240431581,-0.16936683654785156,30.275381504907273,-11.270103900065315,11.497183030138645,148,13,0.0,16399,384570380106850,7,37.1,259.67999267578125,0.01940000057220459,25,13762.54371824796,0.0010085564157135064,1.57542003E9,,,,0,,1,1.01,1.57542003E9,364.0,NaN,NaN
Raw,233010908108830,649815208000000,,,-1265581155240431581,-0.16936683654785156,30.275381504907273,-11.270103900065315,11.497183030138645,148,15,0.0,16399,384570380880506,5,40.8,-67.58574676513672,0.01860000006854534,25,-3770.233865372105,7.42145288706399E-4,1.57542003E9,,,,0,,1,1.01,1.57542003E9,364.0,NaN,NaN
Raw,233010908108830,649815208000000,,,-1265581155240431581,-0.16936683654785156,30.275381504907273,-11.270103900065315,11.497183030138645,148,17,0.0,16399,384570366773107,8,36.6,-525.6895141601562,0.028600001707673073,25,-17051.568613525797,0.001160791358090767,1.57542003E9,,,,0,,1,1.01,1.57542003E9,364.0,NaN,NaN
Raw,233010908108830,649815208000000,,,-1265581155240431581,-0.16936683654785156,30.275381504907273,-11.270103900065315,11.497183030138645,148,20,0.0,16399,384570372320371,8,36.9,-310.8075866699219,0.03760000318288803,25,-1694.770160765788,0.001160791358090767,1.57542003E9,,,,0,,1,1.01,1.57542003E9,364.0,NaN,NaN
Raw,233010908108830,649815208000000,,,-1265581155240431581,-0.16936683654785156,30.275381504907273,-11.270103900065315,11.497183030138645,148,24,0.0,16399,384570373740654,21,26.2,-568.4212646484375,0.04620000347495079,25,-28095.964583293156,0.005442398901996786,1.57542003E9,,,,0,,1,1.01,1.57542003E9,364.0,NaN,NaN
Raw,233010908108830,649815208000000,,,-1265581155240431581,-0.16936683654785156,30.275381504907273,-11.270103900065315,11.497183030138645,148,28,0.0,16399,384570376545721,4,42.9,232.20303344726562,0.042100001126527786,25,12275.85930234334,5.899103906353357E-4,1.57542003E9,,,,0,,1,1.01,1.57542003E9,364.0,NaN,NaN
Raw,233010908108830,649815208000000,,,-1265581155240431581,-0.16936683654785156,30.275381504907273,-11.270103900065315,11.497183030138645,148,30,0.0,16399,384570369540556,9,35.6,598.1746826171875,0.03360000252723694,25,16441.79081777253,0.0013320557236479321,1.57542003E9,,,,0,,1,1.01,1.57542003E9,364.0,NaN,NaN
Raw,233010908108830,649815208000000,,,-1265581155240431581,-0.16936683654785156,30.275381504907273,-11.270103900065315,11.497183030138645,148,14,0.0,49359,49752384580486,19,27.7,24.61810302734375,0.23180000483989716,25,1121.8468821955237,0.0031891569808937432,1.59806246E9,,,,0,,3,-0.65,1.59806246E9,364.0,NaN,NaN
Raw,233010908108830,649815208000000,,,-1265581155240431581,-0.16936683654785156,30.275381504907273,-11.270103900065315,11.497183030138645,148,22,0.0,49359,49752371110816,16,29.7,-96.62371826171875,0.24040000140666962,27,-5352.731968085614,0.00277253881595763,1.60031245E9,,,,0,,3,-0.65,1.60031245E9,364.0,NaN,NaN
Raw,233010908108830,649815208000000,,,-1265581155240431581,-0.16936683654785156,30.275381504907273,-11.270103900065315,11.497183030138645,148,13,0.0,49359,49752376472632,35,22.9,661.8983154296875,0.950499951839447,16,0.0,0.0,1.60087501E9,,,,0,,3,-0.65,1.60087501E9,364.0,NaN,NaN
Raw,233010908108830,649815208000000,,,-1265581155240431581,-0.16936683654785156,30.275381504907273,-11.270103900065315,11.497183030138645,148,15,0.0,49359,49752377422866,35,22.9,-629.1201782226562,0.6072999835014343,27,-32538.352899973674,0.18713636579275905,1.602E9,,,,0,,3,-0.65,1.602E9,364.0,NaN,NaN
Raw,233010908108830,649815208000000,,,-1265581155240431581,-0.16936683654785156,30.275381504907273,-11.270103900065315,11.497183030138645,148,5,0.0,49359,49752380173053,9,35.8,-515.5701904296875,0.22010000050067902,25,-27531.87823919124,0.0013094947574310036,1.60256256E9,,,,0,,3,-0.65,1.60256256E9,364.0,NaN,NaN
Raw,233010908108830,649815208000000,,,-1265581155240431581,-0.16936683654785156,30.275381504907273,-11.270103900065315,11.497183030138645,148,3,0.0,49359,49752373023782,21,26.5,792.9746704101562,0.24620001018047333,25,42055.21184349595,0.005342720110455805,1.60481254E9,,,,0,,3,-0.65,1.60481254E9,364.0,NaN,NaN
Raw,233010908108830,649815208000000,,,-1265581155240431581,-0.16936683654785156,30.275381504907273,-11.270103900065315,11.497183030138645,148,4,0.0,49359,49752383652718,8,36.5,268.7047119140625,0.2241000086069107,25,14058.078166293559,0.0011391319696942128,1.60537498E9,,,,0,,3,-0.65,1.60537498E9,364.0,NaN,NaN
Raw,233010908108830,649815208000000,,,-1265581155240431581,-0.16936683654785156,30.275381504907273,-11.270103900065315,11.497183030138645,148,37,0.0,16399,384556368153428,6,39.1,492.671875,0.030800001695752144,25,26278.53756333944,8.449737438469402E-4,1.56109798E9,,,,0,,5,1.38,1.56109798E9,364.0,NaN,NaN
Raw,233010908108830,649815208000000,,,-1265581155240431581,-0.16936683654785156,30.275381504907273,-11.270103900065315,11.497183030138645,148,22,0.0,16399,384556369108085,5,40.9,-371.5783386230469,0.032099999487400055,25,-19332.11135094277,7.489539839688142E-4,1.56109798E9,,,,0,,5,1.38,1.56109798E9,364.0,NaN,NaN
Raw,233010908108830,649815208000000,,,-1265581155240431581,-0.16936683654785156,30.275381504907273,-11.270103900065315,11.497183030138645,148,20,0.0,16399,384556364533075,35,22.9,648.338623046875,0.387800008058548,21,31390.429977286938,0.1920394882785269,1.56109798E9,,,,0,,5,1.38,1.56109798E9,364.0,NaN,NaN
Raw,233010908108830,649815208000000,,,-1265581155240431581,-0.16936683654785156,30.275381504907273,-11.270103900065315,11.497183030138645,148,19,0.0,16399,384556374590092,46,20.3,242.3634490966797,0.9375,16,0.0,0.0,1.56109798E9,,,,0,,5,1.38,1.56109798E9,364.0,NaN,NaN
Raw,233010908108830,649815208000000,,,-1265581155240431581,-0.16936683654785156,30.275381504907273,-11.270103900065315,11.497183030138645,148,10,0.0,16399,384556315797664,8,36.4,171.31338500976562,0.042100001126527786,17,8846.255191669612,0.0011714408558922843,1.56109798E9,,,,0,,5,1.38,1.56109798E9,364.0,NaN,NaN
Raw,233010908108830,649815208000000,,,-1265581155240431581,-0.16936683654785156,30.275381504907273,-11.270103900065315,11.497183030138645,148,1,0.0,23567,384570363436795,4,43.4,407.2009582519531,0.04050000011920929,25,21677.814585485616,0.0011227326889557481,1.57542003E9,,,,0,,6,0.91,1.57542003E9,364.0,NaN,NaN
Raw,233010908108830,649815208000000,,,-1265581155240431581,-0.16936683654785156,30.275381504907273,-11.270103900065315,11.497183030138645,148,4,0.0,23567,384570361287329,10,34.5,514.2161865234375,0.04610000178217888,25,17256.805922054755,0.003311109885939926,1.57542003E9,,,,0,,6,0.91,1.57542003E9,364.0,NaN,NaN
Raw,233010908108830,649815208000000,,,-1265581155240431581,-0.16936683654785156,30.275381504907273,-11.270103900065315,11.497183030138645,148,5,0.0,23567,384570363926473,6,39.1,-407.9809875488281,0.04130000248551369,25,-10408.836278849682,0.0018458486430946374,1.57542003E9,,,,0,,6,0.91,1.57542003E9,364.0,NaN,NaN
Raw,233010908108830,649815208000000,,,-1265581155240431581,-0.16936683654785156,30.275381504907273,-11.270103900065315,11.497183030138645,148,9,0.0,23567,384570376604371,8,36.9,88.36354064941406,0.04360000044107437,25,4613.845870512252,0.0025499350854412276,1.57542003E9,,,,0,,6,0.91,1.57542003E9,364.0,NaN,NaN
Raw,233010908108830,649815208000000,,,-1265581155240431581,-0.16936683654785156,30.275381504907273,-11.270103900065315,11.497183030138645,148,31,0.0,23567,384570369852725,7,37.6,-112.75331115722656,0.04490000009536743,25,-1418.2951866902936,0.0021883771969841777,1.57542003E9,,,,0,,6,0.91,1.57542003E9,364.0,NaN,NaN
Raw,233010908108830,649815208000000,,,-1265581155240431581,-0.16936683654785156,30.275381504907273,-11.270103900065315,11.497183030138645,148,30,0.0,81935,384570369548378,8,22.3,598.1632690429688,0.050200000405311584,27,28095.149326413124,0.25482803839368795,1.17645005E9,,,,0,,1,-2.36,1.17645005E9,364.0,NaN,NaN
Raw,233010908108830,649815208000000,,,-1265581155240431581,-0.16936683654785156,30.275381504907273,-11.270103900065315,11.497183030138645,148,1,0.0,81935,384570363443900,2,39.7,406.9693908691406,0.02550000138580799,25,19218.773634994977,0.001121243362856653,1.17645005E9,,,,0,,6,-2.36,1.17645005E9,364.0,NaN,NaN
Raw,233010908108830,649815208000000,,,-1265581155240431581,-0.16936683654785156,30.275381504907273,-11.270103900065315,11.497183030138645,148,4,0.0,81935,384570361294423,5,28.8,514.072021484375,0.03460000082850456,25,24358.834250166532,0.0040262828122019055,1.17645005E9,,,,0,,6,-2.36,1.17645005E9,364.0,NaN,NaN
Raw,233010908108830,649815208000000,,,-1265581155240431581,-0.16936683654785156,30.275381504907273,-11.270103900065315,11.497183030138645,148,5,0.0,81935,384570363933552,2,40.7,-408.19085693359375,0.02500000037252903,25,-19292.695733772085,9.938293227750238E-4,1.17645005E9,,,,0,,6,-2.36,1.17645005E9,364.0,NaN,NaN
Raw,233010908108830,649815208000000,,,-1265581155240431581,-0.16936683654785156,30.275381504907273,-11.270103900065315,11.497183030138645,148,9,0.0,81935,384570376611441,2,34.3,88.13675689697266,0.048500001430511475,25,4111.426369606305,0.0020386244039789624,1.17645005E9,,,,0,,6,-2.36,1.17645005E9,364.0,NaN,NaN
Raw,233010908108830,649815208000000,,,-1265581155240431581,-0.16936683654785156,30.275381504907273,-11.270103900065315,11.497183030138645,148,24,0.0,81935,384570367444572,8,22.6,-540.8430786132812,0.047200001776218414,25,-25579.97364012828,0.25482803839368795,1.17645005E9,,,,0,,6,-2.36,1.17645005E9,364.0,NaN,NaN
Raw,233010908108830,649815208000000,,,-1265581155240431581,-0.16936683654785156,30.275381504907273,-11.270103900065315,11.497183030138645,148,31,0.0,81935,384570369859830,2,38.3,-112.97264099121094,0.03500000014901161,25,-5426.796861253395,0.0012486574029382824,1.17645005E9,,,,0,,6,-2.36,1.17645005E9,364.0,NaN,NaN
Fix,gps,51.524609,-0.134263,74.494080,0.000000,3.790092,1582195754000,233011904136116
Raw,233011926119556,649816208000000,,,-1265581155240431584,-0.6562385559082031,30.47181417059619,-10.302801552943878,11.49862725639616,148,13,0.0,16399,384571380105996,7,37.8,259.4545593261719,0.01940000057220459,25,14022.017934516261,0.0010085564157135064,1.57542003E9,,,,0,,1,0.88,1.57542003E9,364.0,NaN,NaN
Raw,233011926119556,649816208000000,,,-1265581155240431584,-0.6562385559082031,30.47181417059619,-10.302801552943878,11.49862725639616,148,15,0.0,16399,384571380880723,5,40.5,-67.79304504394531,0.01860000006854534,25,-3838.0104756484297,7.42145288706399E-4,1.57542003E9,,,,0,,1,0.88,1.57542003E9,364.0,NaN,NaN
Raw,233011926119556,649816208000000,,,-1265581155240431584,-0.6562385559082031,30.47181417059619,-10.302801552943878,11.49862725639616,148,17,0.0,16399,384571366774836,6,38.5,-525.9954223632812,0.02810000069439411,25,-17577.517509249843,9.324389888310735E-4,1.57542003E9,,,,0,,1,0.88,1.57542003E9,364.0,NaN,NaN
Raw,233011926119556,649816208000000,,,-1265581155240431584,-0.6562385559082031,30.47181417059619,-10.302801552943878,11.49862725639616,148,20,0.0,16399,384571372321411,7,37.0,-310.9998474121094,0.03739999979734421,25,-2005.7558482600934,0.0010085564157135064,1.57542003E9,,,,0,,1,0.88,1.57542003E9,364.0,NaN,NaN
Raw,233011926119556,649816208000000,,,-1265581155240431584,-0.6562385559082031,30.47181417059619,-10.302801552943878,11.49862725639616,148,24,0.0,16399,384571373742650,21,26.3,-568.7050170898438,0.04620000347495079,21,-28664.62991069421,0.005442398901996786,1.57542003E9,,,,0,,1,0.88,1.57542003E9,364.0,NaN,NaN
Raw,233011926119556,649816208000000,,,-1265581155240431584,-0.6562385559082031,30.47181417059619,-10.302801552943878,11.49862725639616,148,28,0.0,16399,384571376544948,4,44.6,231.9652862548828,0.04180000349879265,25,12507.851030367754,4.947635405729984E-4,1.57542003E9,,,,0,,1,0.88,1.57542003E9,364.0,NaN,NaN
Raw,233011926119556,649816208000000,,,-1265581155240431584,-0.6562385559082031,30.47181417059619,-10.302801552943878,11.49862725639616,148,30,0.0,16399,384571369538556,7,37.0,597.8736572265625,0.03290000185370445,25,17039.726639128163,0.0010085564157135064,1.57542003E9,,,,0,,1,0.88,1.57542003E9,364.0,NaN,NaN
Raw,233011926119556,649816208000000,,,-1265581155240431584,-0.6562385559082031,30.47181417059619,-10.302801552943878,11.49862725639616,148,14,0.0,49359,49753384580387,19,27.8,24.425582885742188,0.23180000483989716,25,1146.283448132664,0.0031891569808937432,1.59806246E9,,,,0,,3,-0.71,1.59806246E9,364.0,NaN,NaN
Raw,233011926119556,649816208000000,,,-1265581155240431584,-0.6562385559082031,30.47181417059619,-10.302801552943878,11.49862725639616,148,22,0.0,49359,49753371111110,12,32.5,-96.78101348876953,0.23810000717639923,25,-5449.522073584121,0.0017796701281556596,1.60031245E9,,,,0,,3,-0.71,1.60031245E9,364.0,NaN,NaN
Raw,233011926119556,649816208000000,,,-1265581155240431584,-0.6562385559082031,30.47181417059619,-10.302801552943878,11.49862725639616,148,15,0.0,49359,49753377425066,53,19.8,-629.9384155273438,1.1419999599456787,16,0.0,0.0,1.602E9,,,,0,,3,-0.71,1.602E9,364.0,NaN,NaN
Raw,233011926119556,649816208000000,,,-1265581155240431584,-0.6562385559082031,30.47181417059619,-10.302801552943878,11.49862725639616,148,5,0.0,49359,49753380174795,9,35.3,-515.7794189453125,0.22010000050067902,25,-28047.649739354347,0.0013094947574310036,1.60256256E9,,,,0,,3,-0.71,1.60256256E9,364.0,NaN,NaN
Raw,233011926119556,649816208000000,,,-1265581155240431584,-0.6562385559082031,30.47181417059619,-10.302801552943878,11.49862725639616,148,21,0.0,49359,49753367470597,181,10.7,500.7286071777344,10.29699993133545,16,0.0,0.0,1.60424998E9,,,,0,,3,-0.71,1.60424998E9,364.0,NaN,NaN
Raw,233011926119556,649816208000000,,,-1265581155240431584,-0.6562385559082031,30.47181417059619,-10.302801552943878,11.49862725639616,148,3,0.0,49359,49753373021001,24,25.3,792.6707763671875,0.25279998779296875,25,42847.94346994615,0.1868083964827234,1.60481254E9,,,,0,,3,-0.71,1.60481254E9,364.0,NaN,NaN
Raw,233011926119556,649816208000000,,,-1265581155240431584,-0.6562385559082031,30.47181417059619,-10.302801552943878,11.49862725639616,148,4,0.0,49359,49753383651839,9,35.2,268.5359802246094,0.22460000216960907,25,14326.592315386895,0.0013072006865361828,1.60537498E9,,,,0,,3,-0.71,1.60537498E9,364.0,NaN,NaN
Raw,233011926119556,649816208000000,,,-1265581155240431584,-0.6562385559082031,30.47181417059619,-10.302801552943878,11.49862725639616,148,37,0.0,16399,384557368151833,11,33.3,492.34613037109375,0.03319999948143959,25,26770.95619410476,0.0016707435714883973,1.56109798E9,,,,0,,5,1.37,1.56109798E9,364.0,NaN,NaN
Raw,233011926119556,649816208000000,,,-1265581155240431584,-0.6562385559082031,30.47181417059619,-10.302801552943878,11.49862725639616,148,22,0.0,16399,384557369109337,5,40.1,-371.8061828613281,0.032099999487400055,25,-19703.893552449066,7.489539839688142E-4,1.56109798E9,,,,0,,5,1.37,1.56109798E9,364.0,NaN,NaN
Raw,233011926119556,649816208000000,,,-1265581155240431584,-0.6562385559082031,30.47181417059619,-10.302801552943878,11.49862725639616,148,20,0.0,16399,384557364530979,35,22.9,648.22998046875,0.387800008058548,21,32038.498801541235,0.1920394882785269,1.56109798E9,,,,0,,5,1.37,1.56109798E9,364.0,NaN,NaN
Raw,233011926119556,649816208000000,,,-1265581155240431584,-0.6562385559082031,30.47181417059619,-10.302801552943878,11.49862725639616,148,19,0.0,16399,384557374589381,46,20.6,242.19061279296875,0.9375,16,0.0,0.0,1.56109798E9,,,,0,,5,1.37,1.56109798E9,364.0,NaN,NaN
Raw,233011926119556,649816208000000,,,-1265581155240431584,-0.6562385559082031,30.47181417059619,-10.302801552943878,11.49862725639616,148,10,0.0,16399,384557315797109,10,34.6,170.96157836914062,0.04310000315308571,17,9017.289154736392,0.001536315979199305,1.56109798E9,,,,0,,5,1.37,1.56109798E9,364.0,NaN,NaN
Raw,233011926119556,649816208000000,,,-1265581155240431584,-0.6562385559082031,30.47181417059619,-10.302801552943878,11.49862725639616,148,1,0.0,23567,384571363435450,5,41.0,406.8966369628906,0.040800001472234726,25,22084.742213908554,0.001484290577412798,1.57542003E9,,,,0,,6,0.89,1.57542003E9,364.0,NaN,NaN
Raw,233011926119556,649816208000000,,,-1265581155240431584,-0.6562385559082031,30.47181417059619,-10.302801552943878,11.49862725639616,148,4,0.0,23567,384571361285594,10,34.5,513.9305419921875,0.04610000178217888,25,17770.7526869088,0.003311109885939926,1.57542003E9,,,,0,,6,0.89,1.57542003E9,364.0,NaN,NaN
Raw,233011926119556,649816208000000,,,-1265581155240431584,-0.6562385559082031,30.47181417059619,-10.302801552943878,11.49862725639616,148,5,0.0,23567,384571363927843,6,38.5,-408.24737548828125,0.041600000113248825,25,-10817.06227332028,0.0020551716777868216,1.57542003E9,,,,0,,6,0.89,1.57542003E9,364.0,NaN,NaN
Raw,233011926119556,649816208000000,,,-1265581155240431584,-0.6562385559082031,30.47181417059619,-10.302801552943878,11.49862725639616,148,9,0.0,23567,384571376604079,8,36.4,88.09587860107422,0.04360000044107437,25,4701.962164753133,0.0025499350854412276,1.57542003E9,,,,0,,6,0.89,1.57542003E9,364.0,NaN,NaN
Raw,233011926119556,649816208000000,,,-1265581155240431584,-0.6562385559082031,30.47181417059619,-10.302801552943878,11.49862725639616,148,24,0.0,23567,384571367439094,46,20.2,-541.5948486328125,0.8449999690055847,16,0.0,0.0,1.57542003E9,,,,0,,6,0.89,1.57542003E9,364.0,NaN,NaN
Raw,233011926119556,649816208000000,,,-1265581155240431584,-0.6562385559082031,30.47181417059619,-10.302801552943878,11.49862725639616,148,31,0.0,23567,384571369853095,7,37.9,-113.0233383178711,0.04490000009536743,25,-1531.305587073055,0.0021883771969841777,1.57542003E9,,,,0,,6,0.89,1.57542003E9,364.0,NaN,NaN
Raw,233011926119556,649816208000000,,,-1265581155240431584,-0.6562385559082031,30.47181417059619,-10.302801552943878,11.49862725639616,148,30,0.0,81935,384571369546380,10,20.9,597.3296508789062,0.8600000143051147,16,0.0,0.0,1.17645005E9,,,,0,,1,-3.38,1.17645005E9,364.0,NaN,NaN
Raw,233011926119556,649816208000000,,,-1265581155240431584,-0.6562385559082031,30.47181417059619,-10.302801552943878,11.49862725639616,148,1,0.0,81935,384571363442545,2,39.3,406.3957214355469,0.02550000138580799,25,19625.68918098325,0.001121243362856653,1.17645005E9,,,,0,,6,-3.38,1.17645005E9,364.0,NaN,NaN
Raw,233011926119556,649816208000000,,,-1265581155240431584,-0.6562385559082031,30.47181417059619,-10.302801552943878,11.49862725639616,148,4,0.0,81935,384571361292705,5,28.5,513.4519653320312,0.03460000082850456,25,24872.783762428822,0.0040262828122019055,1.17645005E9,,,,0,,6,-3.38,1.17645005E9,364.0,NaN,NaN
Raw,233011926119556,649816208000000,,,-1265581155240431584,-0.6562385559082031,30.47181417059619,-10.302801552943878,11.49862725639616,148,5,0.0,81935,384571363934916,2,39.9,-408.75494384765625,0.02550000138580799,25,-19700.918773502646,0.001121243362856653,1.17645005E9,,,,0,,6,-3.38,1.17645005E9,364.0,NaN,NaN
Raw,233011926119556,649816208000000,,,-1265581155240431584,-0.6562385559082031,30.47181417059619,-10.302801552943878,11.49862725639616,148,9,0.0,81935,384571376611146,2,34.0,87.62027740478516,0.048500001430511475,25,4199.552341278666,0.0020386244039789624,1.17645005E9,,,,0,,6,-3.38,1.17645005E9,364.0,NaN,NaN
Raw,233011926119556,649816208000000,,,-1265581155240431584,-0.6562385559082031,30.47181417059619,-10.302801552943878,11.49862725639616,148,24,0.0,81935,384571367446358,10,20.9,-540.06982421875,0.796999990940094,16,0.0,0.0,1.17645005E9,,,,0,,6,-3.38,1.17645005E9,364.0,NaN,NaN
Raw,233011926119556,649816208000000,,,-1265581155240431584,-0.6562385559082031,30.47181417059619,-10.302801552943878,11.49862725639616,148,31,0.0,81935,384571369860206,2,37.2,-113.52465057373047,0.035600002855062485,25,-5539.80252469631,0.0013505885638054542,1.17645005E9,,,,0,,6,-3.38,1.17645005E9,364.0,NaN,NaN
Fix,gps,51.524611,-0.134266,74.342285,0.000000,3.790092,1582195755000,233012907276841
Raw,233012944664033,649817208000000,,,-1265581155240431596,-0.4579582214355469,30.351366149261594,-11.341608210109035,11.498252680092587,148,13,0.0,16399,384572380105140,7,37.8,260.0146789550781,0.004399999976158142,25,14282.07823929153,0.0010085564157135064,1.57542003E9,,,,0,,1,0.84,1.57542003E9,364.0,NaN,NaN
Raw,233012944664033,649817208000000,,,-1265581155240431596,-0.4579582214355469,30.351366149261594,-11.341608210109035,11.498252680092587,148,15,0.0,16399,384572380880968,5,40.0,-67.22183227539062,0.003599999938160181,25,-3905.1873599789906,7.42145288706399E-4,1.57542003E9,,,,0,,1,0.84,1.57542003E9,364.0,NaN,NaN
Raw,233012944664033,649817208000000,,,-1265581155240431596,-0.4579582214355469,30.351366149261594,-11.341608210109035,11.498252680092587,148,17,0.0,16399,384572366776591,7,37.6,-525.4178466796875,0.028400002047419548,25,-18102.916284373794,0.0010085564157135064,1.57542003E9,,,,0,,1,0.84,1.57542003E9,364.0,NaN,NaN
Raw,233012944664033,649817208000000,,,-1265581155240431596,-0.4579582214355469,30.351366149261594,-11.341608210109035,11.498252680092587,148,20,0.0,16399,384572372322439,8,36.2,-310.4182434082031,0.03760000318288803,25,-2316.163815335883,0.001160791358090767,1.57542003E9,,,,0,,1,0.84,1.57542003E9,364.0,NaN,NaN
Raw,233012944664033,649817208000000,,,-1265581155240431596,-0.4579582214355469,30.351366149261594,-11.341608210109035,11.498252680092587,148,24,0.0,16399,384572373744494,21,26.2,-568.1633911132812,0.04620000347495079,17,-29232.756287553577,0.005442398901996786,1.57542003E9,,,,0,,1,0.84,1.57542003E9,364.0,NaN,NaN
Raw,233012944664033,649817208000000,,,-1265581155240431596,-0.4579582214355469,30.351366149261594,-11.341608210109035,11.498252680092587,148,28,0.0,16399,384572376544151,4,44.2,232.5847930908203,0.04180000349879265,25,12740.43408651922,4.947635405729984E-4,1.57542003E9,,,,0,,1,0.84,1.57542003E9,364.0,NaN,NaN
Raw,233012944664033,649817208000000,,,-1265581155240431596,-0.4579582214355469,30.351366149261594,-11.341608210109035,11.498252680092587,148,30,0.0,16399,384572369536562,8,36.4,598.3839721679688,0.03310000151395798,25,17638.161936906406,0.001160791358090767,1.57542003E9,,,,0,,1,0.84,1.57542003E9,364.0,NaN,NaN
Raw,233012944664033,649817208000000,,,-1265581155240431596,-0.4579582214355469,30.351366149261594,-11.341608210109035,11.498252680092587,148,14,0.0,49359,49754384580214,16,29.7,25.04815673828125,0.22990000247955322,25,1171.339311483761,0.0027764423980239216,1.59806246E9,,,,0,,3,-0.72,1.59806246E9,364.0,NaN,NaN
Raw,233012944664033,649817208000000,,,-1265581155240431596,-0.4579582214355469,30.351366149261594,-11.341608210109035,11.498252680092587,148,22,0.0,49359,49754371111462,13,31.5,-96.11702728271484,0.2386000007390976,25,-5545.662850384468,0.002041937391252294,1.60031245E9,,,,0,,3,-0.72,1.60031245E9,364.0,NaN,NaN
Raw,233012944664033,649817208000000,,,-1265581155240431596,-0.4579582214355469,30.351366149261594,-11.341608210109035,11.498252680092587,148,13,0.0,49359,49754376468355,80,16.2,661.1492309570312,2.140500068664551,16,0.0,0.0,1.60087501E9,,,,0,,3,-0.72,1.60087501E9,364.0,NaN,NaN
Raw,233012944664033,649817208000000,,,-1265581155240431596,-0.4579582214355469,30.351366149261594,-11.341608210109035,11.498252680092587,148,15,0.0,49359,49754377427201,46,20.1,-628.3291015625,1.0720000267028809,16,0.0,0.0,1.602E9,,,,0,,3,-0.72,1.602E9,364.0,NaN,NaN
Raw,233012944664033,649817208000000,,,-1265581155240431596,-0.4579582214355469,30.351366149261594,-11.341608210109035,11.498252680092587,148,5,0.0,49359,49754380176524,10,34.5,-515.217529296875,0.20560000836849213,25,-28562.821755965706,0.0014965654619530243,1.60256256E9,,,,0,,3,-0.72,1.60256256E9,364.0,NaN,NaN
Raw,233012944664033,649817208000000,,,-1265581155240431596,-0.4579582214355469,30.351366149261594,-11.341608210109035,11.498252680092587,148,3,0.0,49359,49754373018218,16,29.4,793.2664184570312,0.24340000748634338,25,43641.23572476247,0.002764764268779405,1.60481254E9,,,,0,,3,-0.72,1.60481254E9,364.0,NaN,NaN
Raw,233012944664033,649817208000000,,,-1265581155240431596,-0.4579582214355469,30.351366149261594,-11.341608210109035,11.498252680092587,148,4,0.0,49359,49754383650927,10,34.6,269.1441650390625,0.21010001003742218,25,14595.750718511654,0.0014939436666010554,1.60537498E9,,,,0,,3,-0.72,1.60537498E9,364.0,NaN,NaN
Raw,233012944664033,649817208000000,,,-1265581155240431596,-0.4579582214355469,30.351366149261594,-11.341608210109035,11.498252680092587,148,37,0.0,16399,384558368150256,16,29.5,492.9198913574219,0.03590000048279762,29,27263.790285513645,0.0028421844273806814,1.56109798E9,,,,0,,5,1.28,1.56109798E9,364.0,NaN,NaN
Raw,233012944664033,649817208000000,,,-1265581155240431596,-0.4579582214355469,30.351366149261594,-11.341608210109035,11.498252680092587,148,22,0.0,16399,384558369110570,5,40.4,-371.2602233886719,0.032099999487400055,25,-20075.126877851722,7.489539839688142E-4,1.56109798E9,,,,0,,5,1.28,1.56109798E9,364.0,NaN,NaN
Raw,233012944664033,649817208000000,,,-1265581155240431596,-0.4579582214355469,30.351366149261594,-11.341608210109035,11.498252680092587,148,20,0.0,16399,384558364528809,27,24.7,648.686279296875,0.047300003468990326,21,32687.207411799103,0.1920394882785269,1.56109798E9,,,,0,,5,1.28,1.56109798E9,364.0,NaN,NaN
Raw,233012944664033,649817208000000,,,-1265581155240431596,-0.4579582214355469,30.351366149261594,-11.341608210109035,11.498252680092587,148,19,0.0,16399,384558374588542,40,21.2,243.218017578125,0.8675000071525574,16,0.0,0.0,1.56109798E9,,,,0,,5,1.28,1.56109798E9,364.0,NaN,NaN
Raw,233012944664033,649817208000000,,,-1265581155240431596,-0.4579582214355469,30.351366149261594,-11.341608210109035,11.498252680092587,148,10,0.0,16399,384558315796554,11,33.7,171.5238037109375,0.04370000213384628,17,9188.832282633995,0.0016707435714883973,1.56109798E9,,,,0,,5,1.28,1.56109798E9,364.0,NaN,NaN
Raw,233012944664033,649817208000000,,,-1265581155240431596,-0.4579582214355469,30.351366149261594,-11.341608210109035,11.498252680092587,148,1,0.0,23567,384572363434083,6,39.2,407.4554443359375,0.04130000248551369,25,22492.20059384028,0.0018458486430946374,1.57542003E9,,,,0,,6,0.84,1.57542003E9,364.0,NaN,NaN
Raw,233012944664033,649817208000000,,,-1265581155240431596,-0.4579582214355469,30.351366149261594,-11.341608210109035,11.498252680092587,148,4,0.0,23567,384572361283895,10,34.6,514.4599609375,0.04610000178217888,25,18285.22865423472,0.003311109885939926,1.57542003E9,,,,0,,6,0.84,1.57542003E9,364.0,NaN,NaN
Raw,233012944664033,649817208000000,,,-1265581155240431596,-0.4579582214355469,30.351366149261594,-11.341608210109035,11.498252680092587,148,5,0.0,23567,384572363929199,6,38.6,-407.723388671875,0.041600000113248825,25,-11224.77393170935,0.0020551716777868216,1.57542003E9,,,,0,,6,0.84,1.57542003E9,364.0,NaN,NaN
Raw,233012944664033,649817208000000,,,-1265581155240431596,-0.4579582214355469,30.351366149261594,-11.341608210109035,11.498252680092587,148,9,0.0,23567,384572376603776,8,36.2,88.68878936767578,0.04360000044107437,25,4790.650615995137,0.0025499350854412276,1.57542003E9,,,,0,,6,0.84,1.57542003E9,364.0,NaN,NaN
Raw,233012944664033,649817208000000,,,-1265581155240431596,-0.4579582214355469,30.351366149261594,-11.341608210109035,11.498252680092587,148,24,0.0,23567,384572367440976,35,22.8,-540.8812255859375,0.7549999952316284,16,0.0,0.0,1.57542003E9,,,,0,,6,0.84,1.57542003E9,364.0,NaN,NaN
Raw,233012944664033,649817208000000,,,-1265581155240431596,-0.4579582214355469,30.351366149261594,-11.341608210109035,11.498252680092587,148,31,0.0,23567,384572369853468,6,38.3,-112.43486785888672,0.044600002467632294,25,-1643.7431193738187,0.0020551716777868216,1.57542003E9,,,,0,,6,0.84,1.57542003E9,364.0,NaN,NaN
Raw,233012944664033,649817208000000,,,-1265581155240431596,-0.4579582214355469,30.351366149261594,-11.341608210109035,11.498252680092587,148,24,0.0,81935,384572373752397,20,14.2,-570.1904907226562,4.37600040435791,16,0.0,0.0,1.17645005E9,,,,0,,1,-5.52,1.17645005E9,364.0,NaN,NaN
Raw,233012944664033,649817208000000,,,-1265581155240431596,-0.4579582214355469,30.351366149261594,-11.341608210109035,11.498252680092587,148,30,0.0,81935,384572369544383,12,18.6,597.9667358398438,1.0099999904632568,16,0.0,0.0,1.17645005E9,,,,0,,1,-5.52,1.17645005E9,364.0,NaN,NaN
Raw,233012944664033,649817208000000,,,-1265581155240431596,-0.4579582214355469,30.351366149261594,-11.341608210109035,11.498252680092587,148,1,0.0,81935,384572363441186,2,37.3,407.6377258300781,0.026600001379847527,25,20033.154380427288,0.0013505885638054542,1.17645005E9,,,,0,,6,-5.52,1.17645005E9,364.0,NaN,NaN
Raw,233012944664033,649817208000000,,,-1265581155240431596,-0.4579582214355469,30.351366149261594,-11.341608210109035,11.498252680092587,148,4,0.0,81935,384572361290984,6,26.2,514.4382934570312,0.028599999845027924,29,25387.28097800893,0.007288081858568245,1.17645005E9,,,,0,,6,-5.52,1.17645005E9,364.0,NaN,NaN
Raw,233012944664033,649817208000000,,,-1265581155240431596,-0.4579582214355469,30.351366149261594,-11.341608210109035,11.498252680092587,148,5,0.0,81935,384572363936274,2,37.8,-407.5839538574219,0.011599999852478504,25,-20108.633785135702,0.0013505885638054542,1.17645005E9,,,,0,,6,-5.52,1.17645005E9,364.0,NaN,NaN
Raw,233012944664033,649817208000000,,,-1265581155240431596,-0.4579582214355469,30.351366149261594,-11.341608210109035,11.498252680092587,148,9,0.0,81935,384572376610852,3,31.0,88.87718200683594,0.05180000141263008,25,4288.236511454425,0.0027776256465907277,1.17645005E9,,,,0,,6,-5.52,1.17645005E9,364.0,NaN,NaN
Raw,233012944664033,649817208000000,,,-1265581155240431596,-0.4579582214355469,30.351366149261594,-11.341608210109035,11.498252680092587,148,31,0.0,81935,384572369860581,2,34.1,-112.32682037353516,0.03800000250339508,25,-5652.241701590526,0.0020386244039789624,1.17645005E9,,,,0,,6,-5.52,1.17645005E9,364.0,NaN,NaN
Fix,gps,51.524613,-0.134264,74.460083,0.000000,3.790092,1582195756000,233013910425327
Raw,233013929252881,649818208000000,,,-1265581155240431604,-0.3853759765625,30.758230423089117,-9.706453809849227,11.499646008508428,148,5,0.0,16399,384573366332641,53,19.5,726.0940551757812,2.505500078201294,16,0.0,0.0,1.57542003E9,,,,0,,1,1.01,1.57542003E9,364.0,NaN,NaN
Raw,233013929252881,649818208000000,,,-1265581155240431604,-0.3853759765625,30.758230423089117,-9.706453809849227,11.499646008508428,148,13,0.0,16399,384573380104283,7,37.2,260.3089904785156,0.004399999976158142,25,14541.947215487322,0.0010085564157135064,1.57542003E9,,,,0,,1,1.01,1.57542003E9,364.0,NaN,NaN
Raw,233013929252881,649818208000000,,,-1265581155240431604,-0.3853759765625,30.758230423089117,-9.706453809849227,11.499646008508428,148,15,0.0,16399,384573380881210,5,40.7,-66.88937377929688,0.003599999938160181,25,-3972.538904841983,7.42145288706399E-4,1.57542003E9,,,,0,,1,1.01,1.57542003E9,364.0,NaN,NaN
Raw,233013929252881,649818208000000,,,-1265581155240431604,-0.3853759765625,30.758230423089117,-9.706453809849227,11.499646008508428,148,17,0.0,16399,384573366778359,8,36.9,-525.2281494140625,0.028600001707673073,25,-18628.543125975015,0.001160791358090767,1.57542003E9,,,,0,,1,1.01,1.57542003E9,364.0,NaN,NaN
Raw,233013929252881,649818208000000,,,-1265581155240431604,-0.3853759765625,30.758230423089117,-9.706453809849227,11.499646008508428,148,20,0.0,16399,384573372323457,8,36.1,-310.1167297363281,0.03760000318288803,25,-2626.729957611654,0.001160791358090767,1.57542003E9,,,,0,,1,1.01,1.57542003E9,364.0,NaN,NaN
Raw,233013929252881,649818208000000,,,-1265581155240431604,-0.3853759765625,30.758230423089117,-9.706453809849227,11.499646008508428,148,24,0.0,16399,384573373746385,24,25.5,-567.9050903320312,0.052799999713897705,17,-29801.086445985948,0.19029366893311156,1.57542003E9,,,,0,,1,1.01,1.57542003E9,364.0,NaN,NaN
Raw,233013929252881,649818208000000,,,-1265581155240431604,-0.3853759765625,30.758230423089117,-9.706453809849227,11.499646008508428,148,28,0.0,16399,384573376543378,4,44.0,232.8512725830078,0.04180000349879265,25,12972.851428967168,4.947635405729984E-4,1.57542003E9,,,,0,,1,1.01,1.57542003E9,364.0,NaN,NaN
Raw,233013929252881,649818208000000,,,-1265581155240431604,-0.3853759765625,30.758230423089117,-9.706453809849227,11.499646008508428,148,30,0.0,16399,384573369534568,9,35.6,598.5736083984375,0.03360000252723694,25,18236.338128357216,0.0013320557236479321,1.57542003E9,,,,0,,1,1.01,1.57542003E9,364.0,NaN,NaN
Raw,233013929252881,649818208000000,,,-1265581155240431604,-0.3853759765625,30.758230423089117,-9.706453809849227,11.499646008508428,148,14,0.0,49359,49755384580089,12,32.3,25.360435485839844,0.22760000824928284,25,1196.2413379388813,0.0017821758057520194,1.59806246E9,,,,0,,3,-0.55,1.59806246E9,364.0,NaN,NaN
Raw,233013929252881,649818208000000,,,-1265581155240431604,-0.3853759765625,30.758230423089117,-9.706453809849227,11.499646008508428,148,22,0.0,49359,49755371111751,13,31.8,-95.771240234375,0.2386000007390976,25,-5641.923302784043,0.002041937391252294,1.60031245E9,,,,0,,3,-0.55,1.60031245E9,364.0,NaN,NaN
Raw,233013929252881,649818208000000,,,-1265581155240431604,-0.3853759765625,30.758230423089117,-9.706453809849227,11.499646008508428,148,15,0.0,49359,49755377429448,40,21.7,-628.591064453125,1.0119999647140503,16,0.0,0.0,1.602E9,,,,0,,3,-0.55,1.602E9,364.0,NaN,NaN
Raw,233013929252881,649818208000000,,,-1265581155240431604,-0.3853759765625,30.758230423089117,-9.706453809849227,11.499646008508428,148,5,0.0,49359,49755380178242,11,33.8,-514.8739624023438,0.2062000036239624,25,-29078.17624692092,0.0016275148854291823,1.60256256E9,,,,0,,3,-0.55,1.60256256E9,364.0,NaN,NaN
Raw,233013929252881,649818208000000,,,-1265581155240431604,-0.3853759765625,30.758230423089117,-9.706453809849227,11.499646008508428,148,3,0.0,49359,49755373015599,14,30.2,793.4756469726562,0.24240000545978546,25,44434.28279804395,0.002353785798744343,1.60481254E9,,,,0,,3,-0.55,1.60481254E9,364.0,NaN,NaN
Raw,233013929252881,649818208000000,,,-1265581155240431604,-0.3853759765625,30.758230423089117,-9.706453809849227,11.499646008508428,148,4,0.0,49359,49755383650020,9,35.3,269.4922180175781,0.20960000157356262,25,14864.780305446837,0.0013072006865361828,1.60537498E9,,,,0,,3,-0.55,1.60537498E9,364.0,NaN,NaN
Raw,233013929252881,649818208000000,,,-1265581155240431604,-0.3853759765625,30.758230423089117,-9.706453809849227,11.499646008508428,148,37,0.0,16399,384559368148577,13,31.3,493.1235046386719,0.0340999998152256,25,27756.51044640017,0.0020932304434118673,1.56109798E9,,,,0,,5,1.45,1.56109798E9,364.0,NaN,NaN
Raw,233013929252881,649818208000000,,,-1265581155240431604,-0.3853759765625,30.758230423089117,-9.706453809849227,11.499646008508428,148,22,0.0,16399,384559369111804,5,41.6,-370.9837951660156,0.03180000185966492,25,-20446.554022823962,6.913421459270097E-4,1.56109798E9,,,,0,,5,1.45,1.56109798E9,364.0,NaN,NaN
Raw,233013929252881,649818208000000,,,-1265581155240431604,-0.3853759765625,30.758230423089117,-9.706453809849227,11.499646008508428,148,20,0.0,16399,384559364526624,40,21.5,649.064697265625,0.8524999618530273,16,0.0,0.0,1.56109798E9,,,,0,,5,1.45,1.56109798E9,364.0,NaN,NaN
Raw,233013929252881,649818208000000,,,-1265581155240431604,-0.3853759765625,30.758230423089117,-9.706453809849227,11.499646008508428,148,19,0.0,16399,384559374587792,46,20.0,241.72970581054688,0.9375,16,0.0,0.0,1.56109798E9,,,,0,,5,1.45,1.56109798E9,364.0,NaN,NaN
Raw,233013929252881,649818208000000,,,-1265581155240431604,-0.3853759765625,30.758230423089117,-9.706453809849227,11.499646008508428,148,10,0.0,16399,384559315795972,10,34.7,171.68045043945312,0.04310000315308571,25,9360.11897127361,0.001536315979199305,1.56109798E9,,,,0,,5,1.45,1.56109798E9,364.0,NaN,NaN
Raw,233013929252881,649818208000000,,,-1265581155240431604,-0.3853759765625,30.758230423089117,-9.706453809849227,11.499646008508428,148,1,0.0,23567,384573363432734,6,38.5,407.6186218261719,0.041600000113248825,25,22899.45249095766,0.0020551716777868216,1.57542003E9,,,,0,,6,0.99,1.57542003E9,364.0,NaN,NaN
Raw,233013929252881,649818208000000,,,-1265581155240431604,-0.3853759765625,30.758230423089117,-9.706453809849227,11.499646008508428,148,4,0.0,23567,384573361282190,9,35.2,514.6106567382812,0.04560000076889992,25,18799.475717927908,0.0028924638165555576,1.57542003E9,,,,0,,6,0.99,1.57542003E9,364.0,NaN,NaN
Raw,233013929252881,649818208000000,,,-1265581155240431604,-0.3853759765625,30.758230423089117,-9.706453809849227,11.499646008508428,148,5,0.0,23567,384573363930552,6,38.6,-407.5617370605469,0.041600000113248825,25,-11632.720537132072,0.0020551716777868216,1.57542003E9,,,,0,,6,0.99,1.57542003E9,364.0,NaN,NaN
Raw,233013929252881,649818208000000,,,-1265581155240431604,-0.3853759765625,30.758230423089117,-9.706453809849227,11.499646008508428,148,9,0.0,23567,384573376603474,8,36.3,88.85405731201172,0.04360000044107437,25,4879.1272465118445,0.0025499350854412276,1.57542003E9,,,,0,,6,0.99,1.57542003E9,364.0,NaN,NaN
Raw,233013929252881,649818208000000,,,-1265581155240431604,-0.3853759765625,30.758230423089117,-9.706453809849227,11.499646008508428,148,24,0.0,23567,384573367442825,31,23.2,-540.5862426757812,0.6949999928474426,16,0.0,0.0,1.57542003E9,,,,0,,6,0.99,1.57542003E9,364.0,NaN,NaN
Raw,233013929252881,649818208000000,,,-1265581155240431604,-0.3853759765625,30.758230423089117,-9.706453809849227,11.499646008508428,148,31,0.0,23567,384573369853847,6,38.5,-112.23277282714844,0.044600002467632294,25,-1756.3703961471233,0.0020551716777868216,1.57542003E9,,,,0,,6,0.99,1.57542003E9,364.0,NaN,NaN
Raw,233013929252881,649818208000000,,,-1265581155240431604,-0.3853759765625,30.758230423089117,-9.706453809849227,11.499646008508428,148,30,0.0,81935,384573369542380,8,23.6,598.4763793945312,0.6799999475479126,16,0.0,0.0,1.17645005E9,,,,0,,1,-2.41,1.17645005E9,364.0,NaN,NaN
Raw,233013929252881,649818208000000,,,-1265581155240431604,-0.3853759765625,30.758230423089117,-9.706453809849227,11.499646008508428,148,1,0.0,81935,384573363439828,2,39.9,407.6563720703125,0.02550000138580799,25,20440.400487308212,0.001121243362856653,1.17645005E9,,,,0,,6,-2.41,1.17645005E9,364.0,NaN,NaN
Raw,233013929252881,649818208000000,,,-1265581155240431604,-0.3853759765625,30.758230423089117,-9.706453809849227,11.499646008508428,148,4,0.0,81935,384573361289265,4,30.3,514.5933227539062,0.015699999406933784,25,25901.50565390995,0.0032108332879374254,1.17645005E9,,,,0,,6,-2.41,1.17645005E9,364.0,NaN,NaN
Raw,233013929252881,649818208000000,,,-1265581155240431604,-0.3853759765625,30.758230423089117,-9.706453809849227,11.499646008508428,148,5,0.0,81935,384573363937635,2,41.4,-407.5292053222656,0.02460000105202198,25,-20516.575145214396,9.173809224587568E-4,1.17645005E9,,,,0,,6,-2.41,1.17645005E9,364.0,NaN,NaN
Raw,233013929252881,649818208000000,,,-1265581155240431604,-0.3853759765625,30.758230423089117,-9.706453809849227,11.499646008508428,148,9,0.0,81935,384573376610558,2,34.7,88.89682006835938,0.048500001430511475,25,4376.7111056337135,0.0020386244039789624,1.17645005E9,,,,0,,6,-2.41,1.17645005E9,364.0,NaN,NaN
Raw,233013929252881,649818208000000,,,-1265581155240431604,-0.3853759765625,30.758230423089117,-9.706453809849227,11.499646008508428,148,24,0.0,81935,384573367449939,12,18.8,-539.7894897460938,1.6770000457763672,16,0.0,0.0,1.17645005E9,,,,0,,6,-2.41,1.17645005E9,364.0,NaN,NaN
Raw,233013929252881,649818208000000,,,-1265581155240431604,-0.3853759765625,30.758230423089117,-9.706453809849227,11.499646008508428,148,31,0.0,81935,384573369860958,2,37.4,-112.22282409667969,0.035600002855062485,25,-5764.867697108528,0.0013505885638054542,1.17645005E9,,,,0,,6,-2.41,1.17645005E9,364.0,NaN,NaN
Fix,gps,51.524612,-0.134265,74.430298,0.000000,3.790092,1582195757000,233014911385010
