# 
# Header Description:
# 
# Version: v2.0.0.1 Platform: 10 Manufacturer: Google Model: Pixel 4
# 
# Raw,ElapsedRealtimeNanos,TimeNanos,LeapSecond,TimeUncertaintyNanos,FullBiasNanos,BiasNanos,BiasUncertaintyNanos,DriftNanosPerSecond,DriftUncertaintyNanosPerSecond,HardwareClockDiscontinuityCount,Svid,TimeOffsetNanos,State,ReceivedSvTimeNanos,ReceivedSvTimeUncertaintyNanos,Cn0DbHz,PseudorangeRateMetersPerSecond,PseudorangeRateUncertaintyMetersPerSecond,AccumulatedDeltaRangeState,AccumulatedDeltaRangeMeters,AccumulatedDeltaRangeUncertaintyMeters,CarrierFrequencyHz,CarrierCycles,CarrierPhase,CarrierPhaseUncertainty,MultipathIndicator,SnrInDb,ConstellationType,AgcDb,CarrierFrequencyHz,UserLatitude,UserLongitude,UserAltitude
# 
# Fix,Provider,Latitude,Longitude,Altitude,Speed,Accuracy,(UTC)TimeInMs,ElapsedRealtimeNanos
# 
# Nav,Svid,Type,Status,MessageId,Sub-messageId,Data(Bytes)
# 
Raw,241098922682558,657903213000000,,,-1265581155230294712,-0.15605735778808594,39.1560752177611,18.52715792995757,11.521334851291984,203,12,0.0,16399,392658373939585,7,37.2,-416.4250793457031,0.03890000283718109,25,-2718.711718012267,0.0010085564157135064,1.57542003E9,,,,0,,1,0.38,1.57542003E9,408.0,NaN,NaN
Raw,241098922682558,657903213000000,,,-1265581155230294712,-0.15605735778808594,39.1560752177611,18.52715792995757,11.521334851291984,203,15,0.0,16399,392658366117121,10,34.8,685.9681396484375,0.029600001871585846,25,4480.130942993182,0.0015223494237726067,1.57542003E9,,,,0,,1,0.38,1.57542003E9,408.0,NaN,NaN
Raw,241098922682558,657903213000000,,,-1265581155230294712,-0.15605735778808594,39.1560752177611,18.52715792995757,11.521334851291984,203,17,0.0,16399,392658366224985,6,38.8,281.9656066894531,0.02810000069439411,25,1842.185720672505,9.324389888310735E-4,1.57542003E9,,,,0,,1,0.38,1.57542003E9,408.0,NaN,NaN
Raw,241098922682558,657903213000000,,,-1265581155230294712,-0.15605735778808594,39.1560752177611,18.52715792995757,11.521334851291984,203,19,0.0,16399,392658370060475,8,36.1,-44.04524230957031,0.03460000082850456,25,-286.29049567019484,0.001160791358090767,1.57542003E9,,,,0,,1,0.38,1.57542003E9,408.0,NaN,NaN
Raw,241098922682558,657903213000000,,,-1265581155230294712,-0.15605735778808594,39.1560752177611,18.52715792995757,11.521334851291984,203,24,0.0,16399,392658376281202,5,41.9,58.830894470214844,0.04230000078678131,25,386.95729106558866,6.850571963914755E-4,1.57542003E9,,,,0,,1,0.38,1.57542003E9,408.0,NaN,NaN
Raw,241098922682558,657903213000000,,,-1265581155230294712,-0.15605735778808594,39.1560752177611,18.52715792995757,11.521334851291984,203,25,0.0,16399,392658364828618,31,23.8,-687.8870239257812,0.11720000207424164,29,-4332.842951951409,0.19029366893311156,1.57542003E9,,,,0,,1,0.38,1.57542003E9,408.0,NaN,NaN
Raw,241098922682558,657903213000000,,,-1265581155230294712,-0.15605735778808594,39.1560752177611,18.52715792995757,11.521334851291984,203,14,0.0,49359,57840368287557,35,22.4,645.12890625,0.9384999871253967,16,0.0,0.0,1.59806246E9,,,,0,,3,-0.88,1.59806246E9,408.0,NaN,NaN
Raw,241098922682558,657903213000000,,,-1265581155230294712,-0.15605735778808594,39.1560752177611,18.52715792995757,11.521334851291984,203,6,0.0,49359,57840375122305,19,27.3,-122.20044708251953,0.2483000010251999,25,-748.3825182211888,0.003185792787621298,1.59975002E9,,,,0,,3,-0.88,1.59975002E9,408.0,NaN,NaN
Raw,241098922682558,657903213000000,,,-1265581155230294712,-0.15605735778808594,39.1560752177611,18.52715792995757,11.521334851291984,203,16,0.0,49359,57840373863849,35,22.0,-477.4308776855469,0.9459999799728394,16,0.0,0.0,1.60143744E9,,,,0,,3,-0.88,1.60143744E9,408.0,NaN,NaN
Raw,241098922682558,657903213000000,,,-1265581155230294712,-0.15605735778808594,39.1560752177611,18.52715792995757,11.521334851291984,203,15,0.0,49359,57840378449234,6,39.0,182.870361328125,0.24580000340938568,25,1125.4466974829215,8.234000050264612E-4,1.602E9,,,,0,,3,-0.88,1.602E9,408.0,NaN,NaN
Raw,241098922682558,657903213000000,,,-1265581155230294712,-0.15605735778808594,39.1560752177611,18.52715792995757,11.521334851291984,203,5,0.0,49359,57840372504397,17,28.1,691.070068359375,0.24320000410079956,29,3149.762883487552,0.002955716504244618,1.60256256E9,,,,0,,3,-0.88,1.60256256E9,408.0,NaN,NaN
Raw,241098922682558,657903213000000,,,-1265581155230294712,-0.15605735778808594,39.1560752177611,18.52715792995757,11.521334851291984,203,23,0.0,49359,57840366351673,24,25.4,472.6149597167969,0.24230000376701355,25,2152.0243030030915,0.1869394431765222,1.60368755E9,,,,0,,3,-0.88,1.60368755E9,408.0,NaN,NaN
Raw,241098922682558,657903213000000,,,-1265581155230294712,-0.15605735778808594,39.1560752177611,18.52715792995757,11.521334851291984,203,17,0.0,49359,57840368613205,11,33.1,-658.7293090820312,0.23319999873638153,25,-4034.131423803714,0.0016258029903346391,1.60424998E9,,,,0,,3,-0.88,1.60424998E9,408.0,NaN,NaN
Raw,241098922682558,657903213000000,,,-1265581155230294712,-0.15605735778808594,39.1560752177611,18.52715792995757,11.521334851291984,203,7,0.0,49359,57840364956612,61,18.2,-709.4515991210938,1.2625000476837158,16,0.0,0.0,1.60481254E9,,,,0,,3,-0.88,1.60481254E9,408.0,NaN,NaN
Raw,241098922682558,657903213000000,,,-1265581155230294712,-0.15605735778808594,39.1560752177611,18.52715792995757,11.521334851291984,203,36,0.0,16399,392644370479063,5,40.2,-33.367488861083984,0.03360000252723694,25,-213.4037930746001,7.489539839688142E-4,1.56109798E9,,,,0,,5,0.36,1.56109798E9,408.0,NaN,NaN
Raw,241098922682558,657903213000000,,,-1265581155230294712,-0.15605735778808594,39.1560752177611,18.52715792995757,11.521334851291984,203,30,0.0,16399,392644361131568,9,35.1,-543.4259643554688,0.02160000056028366,25,-3486.0355783105215,0.0013442764594430532,1.56109798E9,,,,0,,5,0.36,1.56109798E9,408.0,NaN,NaN
Raw,241098922682558,657903213000000,,,-1265581155230294712,-0.15605735778808594,39.1560752177611,18.52715792995757,11.521334851291984,203,28,0.0,16399,392644355693610,70,17.0,408.3719787597656,3.0789999961853027,16,0.0,0.0,1.56109798E9,,,,0,,5,0.36,1.56109798E9,408.0,NaN,NaN
Raw,241098922682558,657903213000000,,,-1265581155230294712,-0.15605735778808594,39.1560752177611,18.52715792995757,11.521334851291984,203,27,0.0,16399,392644362725421,19,27.2,-85.36808013916016,0.028800001367926598,17,-389.6279930337844,0.0032646714781548623,1.56109798E9,,,,0,,5,0.36,1.56109798E9,408.0,NaN,NaN
Raw,241098922682558,657903213000000,,,-1265581155230294712,-0.15605735778808594,39.1560752177611,18.52715792995757,11.521334851291984,203,22,0.0,16399,392644362776246,13,31.5,452.9633483886719,0.025100000202655792,17,1742.918396182533,0.0020932304434118673,1.56109798E9,,,,0,,5,0.36,1.56109798E9,408.0,NaN,NaN
Raw,241098922682558,657903213000000,,,-1265581155230294712,-0.15605735778808594,39.1560752177611,18.52715792995757,11.521334851291984,203,21,0.0,16399,392644362782389,14,30.9,-98.33261108398438,0.02590000070631504,25,-449.42136018120385,0.0024196975554572116,1.56109798E9,,,,0,,5,0.36,1.56109798E9,408.0,NaN,NaN
Raw,241098922682558,657903213000000,,,-1265581155230294712,-0.15605735778808594,39.1560752177611,18.52715792995757,11.521334851291984,203,3,0.0,23567,392658357068860,10,34.0,-330.56689453125,0.04610000178217888,25,-2125.177604358534,0.003311109885939926,1.57542003E9,,,,0,,6,0.39,1.57542003E9,408.0,NaN,NaN
Raw,241098922682558,657903213000000,,,-1265581155230294712,-0.15605735778808594,39.1560752177611,18.52715792995757,11.521334851291984,203,5,0.0,23567,392658362382140,10,34.9,206.29901123046875,0.047600001096725464,25,1330.4721535564656,0.003311109885939926,1.57542003E9,,,,0,,6,0.39,1.57542003E9,408.0,NaN,NaN
Raw,241098922682558,657903213000000,,,-1265581155230294712,-0.15605735778808594,39.1560752177611,18.52715792995757,11.521334851291984,203,9,0.0,23567,392658361430609,8,36.6,592.2437744140625,0.045100003480911255,25,3816.043376231362,0.0025499350854412276,1.57542003E9,,,,0,,6,0.39,1.57542003E9,408.0,NaN,NaN
Raw,241098922682558,657903213000000,,,-1265581155230294712,-0.15605735778808594,39.1560752177611,18.52715792995757,11.521334851291984,203,24,0.0,23567,392658371159335,13,31.1,-87.31946563720703,0.05060000345110893,25,-559.4753236733308,0.004528989424958011,1.57542003E9,,,,0,,6,0.39,1.57542003E9,408.0,NaN,NaN
Raw,241098922682558,657903213000000,,,-1265581155230294712,-0.15605735778808594,39.1560752177611,18.52715792995757,11.521334851291984,203,25,0.0,23567,392658354957108,21,26.8,-467.2068786621094,0.053700003772974014,21,-3004.4942765623427,0.011874324619302384,1.57542003E9,,,,0,,6,0.39,1.57542003E9,408.0,NaN,NaN
Raw,241098922682558,657903213000000,,,-1265581155230294712,-0.15605735778808594,39.1560752177611,18.52715792995757,11.521334851291984,203,31,0.0,23567,392658360225690,10,34.7,378.7555847167969,0.044600002467632294,25,2441.3385178204626,0.003311109885939926,1.57542003E9,,,,0,,6,0.39,1.57542003E9,408.0,NaN,NaN
Raw,241098922682558,657903213000000,,,-1265581155230294712,-0.15605735778808594,39.1560752177611,18.52715792995757,11.521334851291984,203,24,0.0,81935,392658376289026,2,35.9,58.69068908691406,0.07160000503063202,27,21.10702111095774,0.0017837963238157039,1.17645005E9,,,,0,,1,4.32,1.17645005E9,408.0,NaN,NaN
Raw,241098922682558,657903213000000,,,-1265581155230294712,-0.15605735778808594,39.1560752177611,18.52715792995757,11.521334851291984,203,25,0.0,81935,392658364836482,12,18.0,-687.47509765625,1.1424999237060547,16,0.0,0.0,1.17645005E9,,,,0,,1,4.32,1.17645005E9,408.0,NaN,NaN
Raw,241098922682558,657903213000000,,,-1265581155230294712,-0.15605735778808594,39.1560752177611,18.52715792995757,11.521334851291984,203,3,0.0,81935,392658357075968,4,30.3,-330.8395080566406,0.07569999992847443,27,-117.76030492315705,0.0032108332879374254,1.17645005E9,,,,0,,6,4.32,1.17645005E9,408.0,NaN,NaN
Raw,241098922682558,657903213000000,,,-1265581155230294712,-0.15605735778808594,39.1560752177611,18.52715792995757,11.521334851291984,203,5,0.0,81935,392658362389248,5,27.3,205.9591522216797,0.10500000417232513,27,70.7073325738536,0.004332076888121183,1.17645005E9,,,,0,,6,4.32,1.17645005E9,408.0,NaN,NaN
Raw,241098922682558,657903213000000,,,-1265581155230294712,-0.15605735778808594,39.1560752177611,18.52715792995757,11.521334851291984,203,9,0.0,81935,392658361437680,9,21.8,591.9910278320312,0.796999990940094,16,0.0,0.0,1.17645005E9,,,,0,,6,4.32,1.17645005E9,408.0,NaN,NaN
Raw,241098922682558,657903213000000,,,-1265581155230294712,-0.15605735778808594,39.1560752177611,18.52715792995757,11.521334851291984,203,24,0.0,81935,392658371166351,6,26.5,-88.04308319091797,0.5820000171661377,16,0.0,0.0,1.17645005E9,,,,0,,6,4.32,1.17645005E9,408.0,NaN,NaN
Raw,241098922682558,657903213000000,,,-1265581155230294712,-0.15605735778808594,39.1560752177611,18.52715792995757,11.521334851291984,203,25,0.0,81935,392658354964170,14,17.9,-466.46270751953125,1.0475000143051147,16,0.0,0.0,1.17645005E9,,,,0,,6,4.32,1.17645005E9,408.0,NaN,NaN
Raw,241098922682558,657903213000000,,,-1265581155230294712,-0.15605735778808594,39.1560752177611,18.52715792995757,11.521334851291984,203,31,0.0,81935,392658360232766,3,33.4,378.3654479980469,0.09750000387430191,27,129.04148771658112,0.0022170039651624013,1.17645005E9,,,,0,,6,4.32,1.17645005E9,408.0,NaN,NaN
Fix,gps,51.524644,-0.133991,73.963745,0.000000,3.790092,1582203841000,241098913536567
Fix,gps,51.524645,-0.134000,73.887451,0.000000,3.790092,1582203842000,241099914996979
Raw,241099927991616,657904213000000,,,-1265581155230294690,-0.9368038177490234,36.18224582169205,18.38103181706757,11.504820092226153,203,12,0.0,16399,392659373941004,8,36.1,-416.3343811035156,0.039100002497434616,25,-3135.505200821983,0.001160791358090767,1.57542003E9,,,,0,,1,0.74,1.57542003E9,408.0,NaN,NaN
Raw,241099927991616,657904213000000,,,-1265581155230294690,-0.9368038177490234,36.18224582169205,18.38103181706757,11.504820092226153,203,15,0.0,16399,392659366114850,9,35.8,686.0303955078125,0.029100000858306885,25,5165.7139639582765,0.0013320557236479321,1.57542003E9,,,,0,,1,0.74,1.57542003E9,408.0,NaN,NaN
Raw,241099927991616,657904213000000,,,-1265581155230294690,-0.9368038177490234,36.18224582169205,18.38103181706757,11.504820092226153,203,17,0.0,16399,392659366224051,11,33.5,282.1172790527344,0.03020000085234642,25,2123.838440506601,0.001655554942969963,1.57542003E9,,,,0,,1,0.74,1.57542003E9,408.0,NaN,NaN
Raw,241099927991616,657904213000000,,,-1265581155230294690,-0.9368038177490234,36.18224582169205,18.38103181706757,11.504820092226153,203,19,0.0,16399,392659370060606,10,34.8,-43.87458801269531,0.035600002855062485,25,-330.6615715841976,0.0015223494237726067,1.57542003E9,,,,0,,1,0.74,1.57542003E9,408.0,NaN,NaN
Raw,241099927991616,657904213000000,,,-1265581155230294690,-0.9368038177490234,36.18224582169205,18.38103181706757,11.504820092226153,203,20,0.0,16399,392659362583098,53,19.9,550.7860107421875,1.5644999742507935,16,0.0,0.0,1.57542003E9,,,,0,,1,0.74,1.57542003E9,408.0,NaN,NaN
Raw,241099927991616,657904213000000,,,-1265581155230294690,-0.9368038177490234,36.18224582169205,18.38103181706757,11.504820092226153,203,24,0.0,16399,392659376281007,5,41.0,58.93994903564453,0.04230000078678131,25,445.45381876079233,6.850571963914755E-4,1.57542003E9,,,,0,,1,0.74,1.57542003E9,408.0,NaN,NaN
Raw,241099927991616,657904213000000,,,-1265581155230294690,-0.9368038177490234,36.18224582169205,18.38103181706757,11.504820092226153,203,25,0.0,16399,392659364830986,21,26.2,-687.7594604492188,0.03270000219345093,21,-5021.08682065711,0.005442398901996786,1.57542003E9,,,,0,,1,0.74,1.57542003E9,408.0,NaN,NaN
Raw,241099927991616,657904213000000,,,-1265581155230294690,-0.9368038177490234,36.18224582169205,18.38103181706757,11.504820092226153,203,14,0.0,49359,57841368285361,40,21.1,644.5192260742188,0.9984999895095825,16,0.0,0.0,1.59806246E9,,,,0,,3,-0.82,1.59806246E9,408.0,NaN,NaN
Raw,241099927991616,657904213000000,,,-1265581155230294690,-0.9368038177490234,36.18224582169205,18.38103181706757,11.504820092226153,203,6,0.0,49359,57841375122702,21,26.7,-121.97908782958984,0.2492000013589859,21,-870.8751400138113,0.005359627545920612,1.59975002E9,,,,0,,3,-0.82,1.59975002E9,408.0,NaN,NaN
Raw,241099927991616,657904213000000,,,-1265581155230294690,-0.9368038177490234,36.18224582169205,18.38103181706757,11.504820092226153,203,15,0.0,49359,57841378448667,6,39.6,182.98570251464844,0.24580000340938568,25,1307.9793711900345,8.234000050264612E-4,1.602E9,,,,0,,3,-0.82,1.602E9,408.0,NaN,NaN
Raw,241099927991616,657904213000000,,,-1265581155230294690,-0.9368038177490234,36.18224582169205,18.38103181706757,11.504820092226153,203,5,0.0,49359,57841372502043,14,30.6,691.227294921875,0.24090000987052917,25,3840.4564606903737,0.0023570904936865496,1.60256256E9,,,,0,,3,-0.82,1.60256256E9,408.0,NaN,NaN
Raw,241099927991616,657904213000000,,,-1265581155230294690,-0.9368038177490234,36.18224582169205,18.38103181706757,11.504820092226153,203,23,0.0,49359,57841366350115,24,25.1,472.5912780761719,0.24230000376701355,21,2624.0557712498376,0.1869394431765222,1.60368755E9,,,,0,,3,-0.82,1.60368755E9,408.0,NaN,NaN
Raw,241099927991616,657904213000000,,,-1265581155230294690,-0.9368038177490234,36.18224582169205,18.38103181706757,11.504820092226153,203,17,0.0,49359,57841368615370,8,36.1,-658.6045532226562,0.23160000145435333,25,-4693.22186591922,0.001139930794294887,1.60424998E9,,,,0,,3,-0.82,1.60424998E9,408.0,NaN,NaN
Raw,241099927991616,657904213000000,,,-1265581155230294690,-0.9368038177490234,36.18224582169205,18.38103181706757,11.504820092226153,203,36,0.0,16399,392645370479167,7,37.3,-33.276065826416016,0.03440000116825104,25,-247.1208602280774,0.0010178092579723537,1.56109798E9,,,,0,,5,0.62,1.56109798E9,408.0,NaN,NaN
Raw,241099927991616,657904213000000,,,-1265581155230294690,-0.9368038177490234,36.18224582169205,18.38103181706757,11.504820092226153,203,30,0.0,16399,392645361133371,7,37.5,-543.3455200195312,0.020899999886751175,25,-4029.8331433266194,0.0010178092579723537,1.56109798E9,,,,0,,5,0.62,1.56109798E9,408.0,NaN,NaN
Raw,241099927991616,657904213000000,,,-1265581155230294690,-0.9368038177490234,36.18224582169205,18.38103181706757,11.504820092226153,203,28,0.0,16399,392645355692367,35,22.2,408.7848815917969,0.8089999556541443,16,0.0,0.0,1.56109798E9,,,,0,,5,0.62,1.56109798E9,408.0,NaN,NaN
Raw,241099927991616,657904213000000,,,-1265581155230294690,-0.9368038177490234,36.18224582169205,18.38103181706757,11.504820092226153,203,27,0.0,16399,392645362725665,14,30.5,-85.18132781982422,0.02590000070631504,17,-475.32175494684094,0.0024196975554572116,1.56109798E9,,,,0,,5,0.62,1.56109798E9,408.0,NaN,NaN
Raw,241099927991616,657904213000000,,,-1265581155230294690,-0.9368038177490234,36.18224582169205,18.38103181706757,11.504820092226153,203,22,0.0,16399,392645362774731,13,31.9,453.1115417480469,0.025100000202655792,17,2195.552447453798,0.0020932304434118673,1.56109798E9,,,,0,,5,0.62,1.56109798E9,408.0,NaN,NaN
Raw,241099927991616,657904213000000,,,-1265581155230294690,-0.9368038177490234,36.18224582169205,18.38103181706757,11.504820092226153,203,21,0.0,16399,392645362782743,17,28.2,-98.12759399414062,0.028200000524520874,21,-548.1229545059069,0.003034223768286223,1.56109798E9,,,,0,,5,0.62,1.56109798E9,408.0,NaN,NaN
Raw,241099927991616,657904213000000,,,-1265581155230294690,-0.9368038177490234,36.18224582169205,18.38103181706757,11.504820092226153,203,3,0.0,23567,392659357069990,13,31.1,-330.5633239746094,0.047600001096725464,25,-2456.1545774678743,0.004528989424958011,1.57542003E9,,,,0,,6,0.69,1.57542003E9,408.0,NaN,NaN
Raw,241099927991616,657904213000000,,,-1265581155230294690,-0.9368038177490234,36.18224582169205,18.38103181706757,11.504820092226153,203,5,0.0,23567,392659362381444,9,35.4,206.3231658935547,0.0471000038087368,25,1536.3654767118883,0.0028924638165555576,1.57542003E9,,,,0,,6,0.69,1.57542003E9,408.0,NaN,NaN
Raw,241099927991616,657904213000000,,,-1265581155230294690,-0.9368038177490234,36.18224582169205,18.38103181706757,11.504820092226153,203,9,0.0,23567,392659361428626,8,36.8,592.2254638671875,0.045100003480911255,25,4407.832843630726,0.0025499350854412276,1.57542003E9,,,,0,,6,0.69,1.57542003E9,408.0,NaN,NaN
Raw,241099927991616,657904213000000,,,-1265581155230294690,-0.9368038177490234,36.18224582169205,18.38103181706757,11.504820092226153,203,24,0.0,23567,392659371159579,12,32.2,-87.36038970947266,0.05010000243782997,25,-647.2172832719472,0.003958108324583987,1.57542003E9,,,,0,,6,0.69,1.57542003E9,408.0,NaN,NaN
Raw,241099927991616,657904213000000,,,-1265581155230294690,-0.9368038177490234,36.18224582169205,18.38103181706757,11.504820092226153,203,25,0.0,23567,392659354958660,21,26.4,-467.3092041015625,0.053700003772974014,25,-3472.022971085954,0.011874324619302384,1.57542003E9,,,,0,,6,0.69,1.57542003E9,408.0,NaN,NaN
Raw,241099927991616,657904213000000,,,-1265581155230294690,-0.9368038177490234,36.18224582169205,18.38103181706757,11.504820092226153,203,31,0.0,23567,392659360224428,13,31.4,378.7519836425781,0.04610000178217888,25,2819.7135281579317,0.004528989424958011,1.57542003E9,,,,0,,6,0.69,1.57542003E9,408.0,NaN,NaN
Raw,241099927991616,657904213000000,,,-1265581155230294690,-0.9368038177490234,36.18224582169205,18.38103181706757,11.504820092226153,203,24,0.0,81935,392659376288832,2,38.5,58.9514274597168,0.045500002801418304,25,79.61232257019418,0.0012486574029382824,1.17645005E9,,,,0,,1,7.01,1.17645005E9,408.0,NaN,NaN
Raw,241099927991616,657904213000000,,,-1265581155230294690,-0.9368038177490234,36.18224582169205,18.38103181706757,11.504820092226153,203,25,0.0,81935,392659364838792,9,21.7,-687.8271484375,0.05140000209212303,27,-925.2682307953892,0.25482803839368795,1.17645005E9,,,,0,,1,7.01,1.17645005E9,408.0,NaN,NaN
Raw,241099927991616,657904213000000,,,-1265581155230294690,-0.9368038177490234,36.18224582169205,18.38103181706757,11.504820092226153,203,3,0.0,81935,392659357077072,3,32.0,-330.5800476074219,0.05210000276565552,25,-448.7262070297906,0.0024208662868967453,1.17645005E9,,,,0,,6,7.01,1.17645005E9,408.0,NaN,NaN
Raw,241099927991616,657904213000000,,,-1265581155230294690,-0.9368038177490234,36.18224582169205,18.38103181706757,11.504820092226153,203,5,0.0,81935,392659362388560,4,30.3,206.24082946777344,0.03220000118017197,25,276.5978611663838,0.0032108332879374254,1.17645005E9,,,,0,,6,7.01,1.17645005E9,408.0,NaN,NaN
Raw,241099927991616,657904213000000,,,-1265581155230294690,-0.9368038177490234,36.18224582169205,18.38103181706757,11.504820092226153,203,9,0.0,81935,392659361435697,7,24.5,592.035888671875,0.07660000026226044,27,794.336859214472,0.0411037634920868,1.17645005E9,,,,0,,6,7.01,1.17645005E9,408.0,NaN,NaN
Raw,241099927991616,657904213000000,,,-1265581155230294690,-0.9368038177490234,36.18224582169205,18.38103181706757,11.504820092226153,203,24,0.0,81935,392659371166637,4,29.2,-87.4068603515625,0.04749999940395355,27,-120.1218984076102,0.0037714549693657518,1.17645005E9,,,,0,,6,7.01,1.17645005E9,408.0,NaN,NaN
Raw,241099927991616,657904213000000,,,-1265581155230294690,-0.9368038177490234,36.18224582169205,18.38103181706757,11.504820092226153,203,31,0.0,81935,392659360231506,2,34.0,378.7102966308594,0.024500001221895218,25,507.352702858624,0.0020386244039789624,1.17645005E9,,,,0,,6,7.01,1.17645005E9,408.0,NaN,NaN
Fix,gps,51.524646,-0.134002,73.762390,0.000000,3.790092,1582203843000,241100912149423
Raw,241100927053226,657905213000000,,,-1265581155230294674,-0.06868934631347656,34.76083293207921,18.441342578336776,10.577029580540891,203,12,0.0,16399,392660373942370,12,32.6,-415.78790283203125,0.04110000282526016,25,-3551.2771098501967,0.001807789796734829,1.57542003E9,,,,0,,1,0.61,1.57542003E9,408.0,NaN,NaN
Raw,241100927053226,657905213000000,,,-1265581155230294674,-0.06868934631347656,34.76083293207921,18.441342578336776,10.577029580540891,203,15,0.0,16399,392660366112553,6,38.4,686.4857788085938,0.02810000069439411,25,5852.26653380473,9.324389888310735E-4,1.57542003E9,,,,0,,1,0.61,1.57542003E9,408.0,NaN,NaN
Raw,241100927053226,657905213000000,,,-1265581155230294674,-0.06868934631347656,34.76083293207921,18.441342578336776,10.577029580540891,203,17,0.0,16399,392660366223125,6,38.9,282.60711669921875,0.02810000069439411,25,2406.42717036336,9.324389888310735E-4,1.57542003E9,,,,0,,1,0.61,1.57542003E9,408.0,NaN,NaN
Raw,241100927053226,657905213000000,,,-1265581155230294674,-0.06868934631347656,34.76083293207921,18.441342578336776,10.577029580540891,203,19,0.0,16399,392660370060767,9,35.2,-43.33232879638672,0.035100001841783524,25,-374.0088937540114,0.0013320557236479321,1.57542003E9,,,,0,,1,0.61,1.57542003E9,408.0,NaN,NaN
Raw,241100927053226,657905213000000,,,-1265581155230294674,-0.06868934631347656,34.76083293207921,18.441342578336776,10.577029580540891,203,20,0.0,16399,392660362581309,27,24.0,551.4359130859375,0.02930000051856041,19,1292.3392427065703,0.19029366893311156,1.57542003E9,,,,0,,1,0.61,1.57542003E9,408.0,NaN,NaN
Raw,241100927053226,657905213000000,,,-1265581155230294674,-0.06868934631347656,34.76083293207921,18.441342578336776,10.577029580540891,203,24,0.0,16399,392660376280816,4,42.6,59.45134735107422,0.042100001126527786,25,504.90717466096186,5.899103906353357E-4,1.57542003E9,,,,0,,1,0.61,1.57542003E9,408.0,NaN,NaN
Raw,241100927053226,657905213000000,,,-1265581155230294674,-0.06868934631347656,34.76083293207921,18.441342578336776,10.577029580540891,203,25,0.0,16399,392660364833250,21,26.8,-687.3440551757812,0.03270000219345093,21,-5708.357197081881,0.005442398901996786,1.57542003E9,,,,0,,1,0.61,1.57542003E9,408.0,NaN,NaN
Raw,241100927053226,657905213000000,,,-1265581155230294674,-0.06868934631347656,34.76083293207921,18.441342578336776,10.577029580540891,203,32,0.0,16399,392660364194821,46,20.2,-610.2432861328125,0.9074999690055847,16,0.0,0.0,1.57542003E9,,,,0,,1,0.61,1.57542003E9,408.0,NaN,NaN
Raw,241100927053226,657905213000000,,,-1265581155230294674,-0.06868934631347656,34.76083293207921,18.441342578336776,10.577029580540891,203,14,0.0,49359,57842368283169,61,18.2,645.1945190429688,1.2085000276565552,16,0.0,0.0,1.59806246E9,,,,0,,3,-0.8,1.59806246E9,408.0,NaN,NaN
Raw,241100927053226,657905213000000,,,-1265581155230294674,-0.06868934631347656,34.76083293207921,18.441342578336776,10.577029580540891,203,6,0.0,49359,57842375123116,17,28.3,-121.39936065673828,0.24770000576972961,25,-992.3439654850449,0.002960912992843818,1.59975002E9,,,,0,,3,-0.8,1.59975002E9,408.0,NaN,NaN
Raw,241100927053226,657905213000000,,,-1265581155230294674,-0.06868934631347656,34.76083293207921,18.441342578336776,10.577029580540891,203,15,0.0,49359,57842378448050,6,38.3,183.47947692871094,0.24610000848770142,25,1491.4513211379833,9.169682032598611E-4,1.602E9,,,,0,,3,-0.8,1.602E9,408.0,NaN,NaN
Raw,241100927053226,657905213000000,,,-1265581155230294674,-0.06868934631347656,34.76083293207921,18.441342578336776,10.577029580540891,203,5,0.0,49359,57842372499784,19,27.3,691.6469116210938,0.24379999935626984,29,4532.26674658869,0.0031802016284280693,1.60256256E9,,,,0,,3,-0.8,1.60256256E9,408.0,NaN,NaN
Raw,241100927053226,657905213000000,,,-1265581155230294674,-0.06868934631347656,34.76083293207921,18.441342578336776,10.577029580540891,203,23,0.0,49359,57842366348550,27,24.7,473.3478088378906,0.25029999017715454,25,3097.4433706720984,0.1869394431765222,1.60368755E9,,,,0,,3,-0.8,1.60368755E9,408.0,NaN,NaN
Raw,241100927053226,657905213000000,,,-1265581155230294674,-0.06868934631347656,34.76083293207921,18.441342578336776,10.577029580540891,203,17,0.0,49359,57842368617645,19,27.2,-658.1287841796875,0.2378000020980835,25,-5351.293882300235,0.0031768565459246133,1.60424998E9,,,,0,,3,-0.8,1.60424998E9,408.0,NaN,NaN
Raw,241100927053226,657905213000000,,,-1265581155230294674,-0.06868934631347656,34.76083293207921,18.441342578336776,10.577029580540891,203,7,0.0,49359,57842364961253,92,15.6,-709.2554931640625,2.2125000953674316,16,0.0,0.0,1.60481254E9,,,,0,,3,-0.8,1.60481254E9,408.0,NaN,NaN
Raw,241100927053226,657905213000000,,,-1265581155230294674,-0.06868934631347656,34.76083293207921,18.441342578336776,10.577029580540891,203,36,0.0,16399,392646370479280,4,43.4,-32.79777908325195,0.032999999821186066,25,-279.9117852413507,5.185066318015961E-4,1.56109798E9,,,,0,,5,0.51,1.56109798E9,408.0,NaN,NaN
Raw,241100927053226,657905213000000,,,-1265581155230294674,-0.06868934631347656,34.76083293207921,18.441342578336776,10.577029580540891,203,30,0.0,16399,392646361135178,7,37.4,-542.9044799804688,0.005900000222027302,25,-4572.668958782974,0.0010178092579723537,1.56109798E9,,,,0,,5,0.51,1.56109798E9,408.0,NaN,NaN
Raw,241100927053226,657905213000000,,,-1265581155230294674,-0.06868934631347656,34.76083293207921,18.441342578336776,10.577029580540891,203,27,0.0,16399,392646362725918,16,29.9,-84.71315002441406,0.011900000274181366,17,-559.9942780617822,0.0028421844273806814,1.56109798E9,,,,0,,5,0.51,1.56109798E9,408.0,NaN,NaN
Raw,241100927053226,657905213000000,,,-1265581155230294674,-0.06868934631347656,34.76083293207921,18.441342578336776,10.577029580540891,203,22,0.0,16399,392646362773229,11,33.7,453.5496826171875,0.02420000173151493,17,2649.130327626259,0.0016707435714883973,1.56109798E9,,,,0,,5,0.51,1.56109798E9,408.0,NaN,NaN
Raw,241100927053226,657905213000000,,,-1265581155230294674,-0.06868934631347656,34.76083293207921,18.441342578336776,10.577029580540891,203,21,0.0,16399,392646362783032,16,29.8,-97.64568328857422,0.011900000274181366,17,-645.7150646831539,0.0028421844273806814,1.56109798E9,,,,0,,5,0.51,1.56109798E9,408.0,NaN,NaN
Raw,241100927053226,657905213000000,,,-1265581155230294674,-0.06868934631347656,34.76083293207921,18.441342578336776,10.577029580540891,203,5,0.0,17167,392646307452167,40,21.5,0.7969639301300049,7.521299839019775,16,0.0,0.0,1.56109798E9,,,,0,,5,0.51,1.56109798E9,408.0,NaN,NaN
Raw,241100927053226,657905213000000,,,-1265581155230294674,-0.06868934631347656,34.76083293207921,18.441342578336776,10.577029580540891,203,3,0.0,23567,392660357071085,10,34.0,-330.0411682128906,0.04610000178217888,25,-2786.206134855466,0.003311109885939926,1.57542003E9,,,,0,,6,0.57,1.57542003E9,408.0,NaN,NaN
Raw,241100927053226,657905213000000,,,-1265581155230294674,-0.06868934631347656,34.76083293207921,18.441342578336776,10.577029580540891,203,5,0.0,23567,392660362380759,11,33.6,206.89193725585938,0.04820000380277634,25,1743.202285379112,0.003596550258902148,1.57542003E9,,,,0,,6,0.57,1.57542003E9,408.0,NaN,NaN
Raw,241100927053226,657905213000000,,,-1265581155230294674,-0.06868934631347656,34.76083293207921,18.441342578336776,10.577029580540891,203,9,0.0,23567,392660361426665,8,36.0,592.730712890625,0.045100003480911255,25,5000.57405094657,0.0025499350854412276,1.57542003E9,,,,0,,6,0.57,1.57542003E9,408.0,NaN,NaN
Raw,241100927053226,657905213000000,,,-1265581155230294674,-0.06868934631347656,34.76083293207921,18.441342578336776,10.577029580540891,203,24,0.0,23567,392660371159895,9,35.6,-86.8254623413086,0.048600003123283386,25,-734.0934965902079,0.0028924638165555576,1.57542003E9,,,,0,,6,0.57,1.57542003E9,408.0,NaN,NaN
Raw,241100927053226,657905213000000,,,-1265581155230294674,-0.06868934631347656,34.76083293207921,18.441342578336776,10.577029580540891,203,25,0.0,23567,392660354960232,21,26.3,-466.7360534667969,0.053700003772974014,25,-3938.6867921527223,0.011874324619302384,1.57542003E9,,,,0,,6,0.57,1.57542003E9,408.0,NaN,NaN
Raw,241100927053226,657905213000000,,,-1265581155230294674,-0.06868934631347656,34.76083293207921,18.441342578336776,10.577029580540891,203,26,0.0,23567,392660354641728,70,17.7,80.22781372070312,2.498499870300293,16,0.0,0.0,1.57542003E9,,,,0,,6,0.57,1.57542003E9,408.0,NaN,NaN
Raw,241100927053226,657905213000000,,,-1265581155230294674,-0.06868934631347656,34.76083293207921,18.441342578336776,10.577029580540891,203,31,0.0,23567,392660360223159,6,38.4,379.2034606933594,0.04310000315308571,25,3198.898863503275,0.0020551716777868216,1.57542003E9,,,,0,,6,0.57,1.57542003E9,408.0,NaN,NaN
Raw,241100927053226,657905213000000,,,-1265581155230294674,-0.06868934631347656,34.76083293207921,18.441342578336776,10.577029580540891,203,24,0.0,81935,392660376288635,2,34.5,59.46077346801758,0.048500001430511475,25,139.06605726182482,0.0020386244039789624,1.17645005E9,,,,0,,1,6.86,1.17645005E9,408.0,NaN,NaN
Raw,241100927053226,657905213000000,,,-1265581155230294674,-0.06868934631347656,34.76083293207921,18.441342578336776,10.577029580540891,203,25,0.0,81935,392660364841086,8,22.1,-687.1820678710938,0.7324999570846558,16,0.0,0.0,1.17645005E9,,,,0,,1,6.86,1.17645005E9,408.0,NaN,NaN
Raw,241100927053226,657905213000000,,,-1265581155230294674,-0.06868934631347656,34.76083293207921,18.441342578336776,10.577029580540891,203,3,0.0,81935,392660357078173,3,33.3,-330.287109375,0.05100000277161598,25,-778.7809032641877,0.0022170039651624013,1.17645005E9,,,,0,,6,6.86,1.17645005E9,408.0,NaN,NaN
Raw,241100927053226,657905213000000,,,-1265581155230294674,-0.06868934631347656,34.76083293207921,18.441342578336776,10.577029580540891,203,5,0.0,81935,392660362387869,4,29.6,206.61598205566406,0.01899999938905239,25,483.42120503289055,0.0037714549693657518,1.17645005E9,,,,0,,6,6.86,1.17645005E9,408.0,NaN,NaN
Raw,241100927053226,657905213000000,,,-1265581155230294674,-0.06868934631347656,34.76083293207921,18.441342578336776,10.577029580540891,203,9,0.0,81935,392660361433728,8,22.5,592.70458984375,0.7129999995231628,16,0.0,0.0,1.17645005E9,,,,0,,6,6.86,1.17645005E9,408.0,NaN,NaN
Raw,241100927053226,657905213000000,,,-1265581155230294674,-0.06868934631347656,34.76083293207921,18.441342578336776,10.577029580540891,203,24,0.0,81935,392660371166919,6,25.0,-86.99341583251953,0.07100000232458115,25,-206.9411244641724,0.010753742989341824,1.17645005E9,,,,0,,6,6.86,1.17645005E9,408.0,NaN,NaN
Raw,241100927053226,657905213000000,,,-1265581155230294674,-0.06868934631347656,34.76083293207921,18.441342578336776,10.577029580540891,203,25,0.0,81935,392660354967321,12,18.5,-466.1314697265625,1.7675000429153442,16,0.0,0.0,1.17645005E9,,,,0,,6,6.86,1.17645005E9,408.0,NaN,NaN
Raw,241100927053226,657905213000000,,,-1265581155230294674,-0.06868934631347656,34.76083293207921,18.441342578336776,10.577029580540891,203,31,0.0,81935,392660360230244,3,31.8,378.9523010253906,0.012800000607967377,25,886.5917440328827,0.0027776256465907277,1.17645005E9,,,,0,,6,6.86,1.17645005E9,408.0,NaN,NaN
Raw,241101920738898,657906213000000,,,-1265581155230294656,-0.276702880859375,31.205014238366857,19.843024602441666,9.595093308659251,203,12,0.0,16399,392661373943738,10,34.3,-415.4588928222656,0.04010000079870224,25,-3967.088498716775,0.0015223494237726067,1.57542003E9,,,,0,,1,0.64,1.57542003E9,408.0,NaN,NaN
Raw,241101920738898,657906213000000,,,-1265581155230294656,-0.276702880859375,31.205014238366857,19.843024602441666,9.595093308659251,203,13,0.0,16399,392661359910744,106,14.3,744.3336791992188,3.620000123977661,16,0.0,0.0,1.57542003E9,,,,0,,1,0.64,1.57542003E9,408.0,NaN,NaN
Raw,241101920738898,657906213000000,,,-1265581155230294656,-0.276702880859375,31.205014238366857,19.843024602441666,9.595093308659251,203,15,0.0,16399,392661366110264,6,39.2,686.8176879882812,0.027800001204013824,25,6538.717691157943,8.372921387687362E-4,1.57542003E9,,,,0,,1,0.64,1.57542003E9,408.0,NaN,NaN
Raw,241101920738898,657906213000000,,,-1265581155230294656,-0.276702880859375,31.205014238366857,19.843024602441666,9.595093308659251,203,17,0.0,16399,392661366222190,6,39.4,283.01025390625,0.027800001204013824,25,2689.0252897930804,8.372921387687362E-4,1.57542003E9,,,,0,,1,0.64,1.57542003E9,408.0,NaN,NaN
Raw,241101920738898,657906213000000,,,-1265581155230294656,-0.276702880859375,31.205014238366857,19.843024602441666,9.595093308659251,203,19,0.0,16399,392661370060896,9,35.9,-42.906402587890625,0.035100001841783524,25,-417.33918215477536,0.0013320557236479321,1.57542003E9,,,,0,,1,0.64,1.57542003E9,408.0,NaN,NaN
Raw,241101920738898,657906213000000,,,-1265581155230294656,-0.276702880859375,31.205014238366857,19.843024602441666,9.595093308659251,203,20,0.0,16399,392661362579418,27,24.1,551.80419921875,0.04430000111460686,17,1843.7695731621393,0.19029366893311156,1.57542003E9,,,,0,,1,0.64,1.57542003E9,408.0,NaN,NaN
Raw,241101920738898,657906213000000,,,-1265581155230294656,-0.276702880859375,31.205014238366857,19.843024602441666,9.595093308659251,203,24,0.0,16399,392661376280626,4,42.3,59.80672073364258,0.042100001126527786,25,564.3405625737308,5.899103906353357E-4,1.57542003E9,,,,0,,1,0.64,1.57542003E9,408.0,NaN,NaN
Raw,241101920738898,657906213000000,,,-1265581155230294656,-0.276702880859375,31.205014238366857,19.843024602441666,9.595093308659251,203,25,0.0,16399,392661364835590,19,27.9,-687.0084838867188,0.03180000185966492,17,-6395.751661377095,0.003234992547669888,1.57542003E9,,,,0,,1,0.64,1.57542003E9,408.0,NaN,NaN
Raw,241101920738898,657906213000000,,,-1265581155230294656,-0.276702880859375,31.205014238366857,19.843024602441666,9.595093308659251,203,14,0.0,49359,57843368281042,53,19.4,645.1851806640625,1.128499984741211,16,0.0,0.0,1.59806246E9,,,,0,,3,-0.76,1.59806246E9,408.0,NaN,NaN
Raw,241101920738898,657906213000000,,,-1265581155230294656,-0.276702880859375,31.205014238366857,19.843024602441666,9.595093308659251,203,6,0.0,49359,57843375123545,17,28.6,-120.99930572509766,0.24770000576972961,25,-1113.7520908817255,0.002960912992843818,1.59975002E9,,,,0,,3,-0.76,1.59975002E9,408.0,NaN,NaN
Raw,241101920738898,657906213000000,,,-1265581155230294656,-0.276702880859375,31.205014238366857,19.843024602441666,9.595093308659251,203,16,0.0,49359,57843373868530,92,15.1,-475.970703125,2.9760000705718994,16,0.0,0.0,1.60143744E9,,,,0,,3,-0.76,1.60143744E9,408.0,NaN,NaN
Raw,241101920738898,657906213000000,,,-1265581155230294656,-0.276702880859375,31.205014238366857,19.843024602441666,9.595093308659251,203,15,0.0,49359,57843378447423,7,37.0,183.82411193847656,0.24639999866485596,25,1674.9005491612124,9.918227095612844E-4,1.602E9,,,,0,,3,-0.76,1.602E9,408.0,NaN,NaN
Raw,241101920738898,657906213000000,,,-1265581155230294656,-0.276702880859375,31.205014238366857,19.843024602441666,9.595093308659251,203,5,0.0,49359,57843372497445,35,22.5,691.9365234375,0.5997999906539917,21,5223.764508879633,0.18707067385874782,1.60256256E9,,,,0,,3,-0.76,1.60256256E9,408.0,NaN,NaN
Raw,241101920738898,657906213000000,,,-1265581155230294656,-0.276702880859375,31.205014238366857,19.843024602441666,9.595093308659251,203,23,0.0,49359,57843366346918,24,25.8,473.748291015625,0.24230000376701355,21,3570.682770849063,0.1869394431765222,1.60368755E9,,,,0,,3,-0.76,1.60368755E9,408.0,NaN,NaN
Raw,241101920738898,657906213000000,,,-1265581155230294656,-0.276702880859375,31.205014238366857,19.843024602441666,9.595093308659251,203,17,0.0,49359,57843368619857,19,27.8,-657.7303466796875,0.2378000020980835,25,-6009.413379085935,0.0031768565459246133,1.60424998E9,,,,0,,3,-0.76,1.60424998E9,408.0,NaN,NaN
Raw,241101920738898,657906213000000,,,-1265581155230294656,-0.276702880859375,31.205014238366857,19.843024602441666,9.595093308659251,203,36,0.0,16399,392647370479395,4,42.7,-32.475704193115234,0.03310000151395798,25,-312.7478063959504,5.953224307615613E-4,1.56109798E9,,,,0,,5,0.53,1.56109798E9,408.0,NaN,NaN
Raw,241101920738898,657906213000000,,,-1265581155230294656,-0.276702880859375,31.205014238366857,19.843024602441666,9.595093308659251,203,30,0.0,16399,392647361136984,6,38.9,-542.530517578125,0.020600000396370888,25,-5115.584780012645,9.409935037250662E-4,1.56109798E9,,,,0,,5,0.53,1.56109798E9,408.0,NaN,NaN
Raw,241101920738898,657906213000000,,,-1265581155230294656,-0.276702880859375,31.205014238366857,19.843024602441666,9.595093308659251,203,27,0.0,16399,392647362726207,14,30.4,-84.33312225341797,0.02590000070631504,25,-644.6067556053719,0.0024196975554572116,1.56109798E9,,,,0,,5,0.53,1.56109798E9,408.0,NaN,NaN
Raw,241101920738898,657906213000000,,,-1265581155230294656,-0.276702880859375,31.205014238366857,19.843024602441666,9.595093308659251,203,22,0.0,16399,392647362771726,11,33.6,453.93701171875,0.02420000173151493,25,3102.6482534530883,0.0016707435714883973,1.56109798E9,,,,0,,5,0.53,1.56109798E9,408.0,NaN,NaN
Raw,241101920738898,657906213000000,,,-1265581155230294656,-0.276702880859375,31.205014238366857,19.843024602441666,9.595093308659251,203,21,0.0,16399,392647362783380,16,29.3,-97.29730987548828,0.026900000870227814,25,-743.3759873558598,0.0028421844273806814,1.56109798E9,,,,0,,5,0.53,1.56109798E9,408.0,NaN,NaN
Raw,241101920738898,657906213000000,,,-1265581155230294656,-0.276702880859375,31.205014238366857,19.843024602441666,9.595093308659251,203,3,0.0,23567,392661357072174,11,33.5,-329.7925720214844,0.04670000076293945,25,-3116.2987557309307,0.003596550258902148,1.57542003E9,,,,0,,6,0.57,1.57542003E9,408.0,NaN,NaN
Raw,241101920738898,657906213000000,,,-1265581155230294656,-0.276702880859375,31.205014238366857,19.843024602441666,9.595093308659251,203,5,0.0,23567,392661362380075,10,34.3,207.1393585205078,0.047600001096725464,25,1950.015172845356,0.003311109885939926,1.57542003E9,,,,0,,6,0.57,1.57542003E9,408.0,NaN,NaN
Raw,241101920738898,657906213000000,,,-1265581155230294656,-0.276702880859375,31.205014238366857,19.843024602441666,9.595093308659251,203,9,0.0,23567,392661361424689,8,36.5,592.9561157226562,0.045100003480911255,25,5593.202407352306,0.0025499350854412276,1.57542003E9,,,,0,,6,0.57,1.57542003E9,408.0,NaN,NaN
Raw,241101920738898,657906213000000,,,-1265581155230294656,-0.276702880859375,31.205014238366857,19.843024602441666,9.595093308659251,203,24,0.0,23567,392661371160160,7,37.7,-86.5726318359375,0.0479000024497509,25,-820.9920582507423,0.0021883771969841777,1.57542003E9,,,,0,,6,0.57,1.57542003E9,408.0,NaN,NaN
Raw,241101920738898,657906213000000,,,-1265581155230294656,-0.276702880859375,31.205014238366857,19.843024602441666,9.595093308659251,203,25,0.0,23567,392661354961759,19,27.1,-466.4761657714844,0.052800003439188004,25,-4405.488477559424,0.007212130206821385,1.57542003E9,,,,0,,6,0.57,1.57542003E9,408.0,NaN,NaN
Raw,241101920738898,657906213000000,,,-1265581155230294656,-0.276702880859375,31.205014238366857,19.843024602441666,9.595093308659251,203,26,0.0,23567,392661354641509,40,21.2,80.0660629272461,0.8134999871253967,16,0.0,0.0,1.57542003E9,,,,0,,6,0.57,1.57542003E9,408.0,NaN,NaN
Raw,241101920738898,657906213000000,,,-1265581155230294656,-0.276702880859375,31.205014238366857,19.843024602441666,9.595093308659251,203,31,0.0,23567,392661360221895,6,39.2,379.48040771484375,0.04280000180006027,25,3578.043659704889,0.0018458486430946374,1.57542003E9,,,,0,,6,0.57,1.57542003E9,408.0,NaN,NaN
Raw,241101920738898,657906213000000,,,-1265581155230294656,-0.276702880859375,31.205014238366857,19.843024602441666,9.595093308659251,203,33,0.0,23567,392661352208896,92,15.4,-358.2563781738281,3.4255001544952393,16,0.0,0.0,1.57542003E9,,,,0,,6,0.57,1.57542003E9,408.0,NaN,NaN
Raw,241101920738898,657906213000000,,,-1265581155230294656,-0.276702880859375,31.205014238366857,19.843024602441666,9.595093308659251,203,24,0.0,81935,392661376288434,2,37.4,59.80375671386719,0.04610000178217888,25,198.49282717004013,0.0013505885638054542,1.17645005E9,,,,0,,1,7.19,1.17645005E9,408.0,NaN,NaN
Raw,241101920738898,657906213000000,,,-1265581155230294656,-0.276702880859375,31.205014238366857,19.843024602441666,9.595093308659251,203,25,0.0,81935,392661364843381,8,23.2,-687.0237426757812,0.04020000249147415,27,-2299.9274382618146,0.25482803839368795,1.17645005E9,,,,0,,1,7.19,1.17645005E9,408.0,NaN,NaN
Raw,241101920738898,657906213000000,,,-1265581155230294656,-0.276702880859375,31.205014238366857,19.843024602441666,9.595093308659251,203,32,0.0,81935,392661364205019,9,21.9,-609.6447143554688,0.09640000015497208,27,-222.057943151737,0.25482803839368795,1.17645005E9,,,,0,,1,7.19,1.17645005E9,408.0,NaN,NaN
Raw,241101920738898,657906213000000,,,-1265581155230294656,-0.276702880859375,31.205014238366857,19.843024602441666,9.595093308659251,203,3,0.0,81935,392661357079273,3,33.1,-329.92401123046875,0.05100000277161598,25,-1108.880593428267,0.0022170039651624013,1.17645005E9,,,,0,,6,7.19,1.17645005E9,408.0,NaN,NaN
Raw,241101920738898,657906213000000,,,-1265581155230294656,-0.276702880859375,31.205014238366857,19.843024602441666,9.595093308659251,203,5,0.0,81935,392661362387180,3,31.6,207.07228088378906,0.030800001695752144,25,690.2562521321795,0.0027776256465907277,1.17645005E9,,,,0,,6,7.19,1.17645005E9,408.0,NaN,NaN
Raw,241101920738898,657906213000000,,,-1265581155230294656,-0.276702880859375,31.205014238366857,19.843024602441666,9.595093308659251,203,9,0.0,81935,392661361431746,6,25.0,592.900390625,0.03189999982714653,27,1981.418279201098,0.02346966281299121,1.17645005E9,,,,0,,6,7.19,1.17645005E9,408.0,NaN,NaN
Raw,241101920738898,657906213000000,,,-1265581155230294656,-0.276702880859375,31.205014238366857,19.843024602441666,9.595093308659251,203,24,0.0,81935,392661371167206,6,26.5,-86.70643615722656,0.05860000103712082,25,-293.8729094272122,0.007288081858568245,1.17645005E9,,,,0,,6,7.19,1.17645005E9,408.0,NaN,NaN
Raw,241101920738898,657906213000000,,,-1265581155230294656,-0.276702880859375,31.205014238366857,19.843024602441666,9.595093308659251,203,25,0.0,81935,392661354968853,8,22.9,-466.47705078125,0.05770000070333481,27,-1567.3201717753886,0.34557229348499413,1.17645005E9,,,,0,,6,7.19,1.17645005E9,408.0,NaN,NaN
Raw,241101920738898,657906213000000,,,-1265581155230294656,-0.276702880859375,31.205014238366857,19.843024602441666,9.595093308659251,203,31,0.0,81935,392661360228974,3,32.6,379.3670654296875,0.026599999517202377,29,1265.7460049593374,0.0024208662868967453,1.17645005E9,,,,0,,6,7.19,1.17645005E9,408.0,NaN,NaN
Fix,gps,51.524648,-0.134003,73.552063,0.000000,3.790092,1582203844000,241101909233011
Fix,gps,51.524649,-0.134005,73.419861,0.000000,3.790092,1582203845000,241102916662851
Raw,241102934712593,657907213000000,,,-1265581155230294633,-0.8057518005371094,30.664137739222497,20.582832683968615,9.59763342907032,203,10,0.0,16399,392662365357411,46,20.5,257.5244445800781,0.9059999585151672,16,0.0,0.0,1.57542003E9,,,,0,,1,0.69,1.57542003E9,408.0,NaN,NaN
Raw,241102934712593,657907213000000,,,-1265581155230294633,-0.8057518005371094,30.664137739222497,20.582832683968615,9.59763342907032,203,12,0.0,16399,392662373945133,7,37.3,-415.3596496582031,0.03890000283718109,25,-4382.142512737077,0.0010085564157135064,1.57542003E9,,,,0,,1,0.69,1.57542003E9,408.0,NaN,NaN
Raw,241102934712593,657907213000000,,,-1265581155230294633,-0.8057518005371094,30.664137739222497,20.582832683968615,9.59763342907032,203,13,0.0,16399,392662359908268,53,19.6,744.7428588867188,0.9800000190734863,16,0.0,0.0,1.57542003E9,,,,0,,1,0.69,1.57542003E9,408.0,NaN,NaN
Raw,241102934712593,657907213000000,,,-1265581155230294633,-0.8057518005371094,30.664137739222497,20.582832683968615,9.59763342907032,203,15,0.0,16399,392662366107965,6,39.0,686.8192138671875,0.027800001204013824,25,7225.882210544872,8.372921387687362E-4,1.57542003E9,,,,0,,1,0.69,1.57542003E9,408.0,NaN,NaN
Raw,241102934712593,657907213000000,,,-1265581155230294633,-0.8057518005371094,30.664137739222497,20.582832683968615,9.59763342907032,203,17,0.0,16399,392662366221279,14,30.9,283.0920715332031,0.03189999982714653,25,2972.4365030048375,0.002397700231676362,1.57542003E9,,,,0,,1,0.69,1.57542003E9,408.0,NaN,NaN
Raw,241102934712593,657907213000000,,,-1265581155230294633,-0.8057518005371094,30.664137739222497,20.582832683968615,9.59763342907032,203,19,0.0,16399,392662370061027,8,36.7,-42.79995346069336,0.03460000082850456,25,-459.8251980723318,0.001160791358090767,1.57542003E9,,,,0,,1,0.69,1.57542003E9,408.0,NaN,NaN
Raw,241102934712593,657907213000000,,,-1265581155230294633,-0.8057518005371094,30.664137739222497,20.582832683968615,9.59763342907032,203,20,0.0,16399,392662362577563,27,24.3,552.0067749023438,0.04430000111460686,21,2396.0218177174656,0.19029366893311156,1.57542003E9,,,,0,,1,0.69,1.57542003E9,408.0,NaN,NaN
Raw,241102934712593,657907213000000,,,-1265581155230294633,-0.8057518005371094,30.664137739222497,20.582832683968615,9.59763342907032,203,24,0.0,16399,392662376280430,6,39.2,59.90421676635742,0.04280000180006027,25,624.5646424236055,8.372921387687362E-4,1.57542003E9,,,,0,,1,0.69,1.57542003E9,408.0,NaN,NaN
Raw,241102934712593,657907213000000,,,-1265581155230294633,-0.8057518005371094,30.664137739222497,20.582832683968615,9.59763342907032,203,25,0.0,16399,392662364837853,17,28.6,-687.0145874023438,0.031200001016259193,17,-7082.396872719804,0.0030066398239606148,1.57542003E9,,,,0,,1,0.69,1.57542003E9,408.0,NaN,NaN
Raw,241102934712593,657907213000000,,,-1265581155230294633,-0.8057518005371094,30.664137739222497,20.582832683968615,9.59763342907032,203,6,0.0,49359,57844375123921,21,26.7,-120.72980499267578,0.2492000013589859,29,-1234.2652355406983,0.005359627545920612,1.59975002E9,,,,0,,3,-0.79,1.59975002E9,408.0,NaN,NaN
Raw,241102934712593,657907213000000,,,-1265581155230294633,-0.8057518005371094,30.664137739222497,20.582832683968615,9.59763342907032,203,16,0.0,49359,57844373870305,40,21.0,-476.2140808105469,1.00600004196167,16,0.0,0.0,1.60143744E9,,,,0,,3,-0.79,1.60143744E9,408.0,NaN,NaN
Raw,241102934712593,657907213000000,,,-1265581155230294633,-0.8057518005371094,30.664137739222497,20.582832683968615,9.59763342907032,203,15,0.0,49359,57844378446828,9,35.0,183.92831420898438,0.24710001051425934,25,1859.16188740493,0.001309954600983276,1.602E9,,,,0,,3,-0.79,1.602E9,408.0,NaN,NaN
Raw,241102934712593,657907213000000,,,-1265581155230294633,-0.8057518005371094,30.664137739222497,20.582832683968615,9.59763342907032,203,5,0.0,49359,57844372495145,16,29.7,692.1810913085938,0.2418999969959259,29,5916.178913111145,0.002768645973945739,1.60256256E9,,,,0,,3,-0.79,1.60256256E9,408.0,NaN,NaN
Raw,241102934712593,657907213000000,,,-1265581155230294633,-0.8057518005371094,30.664137739222497,20.582832683968615,9.59763342907032,203,23,0.0,49359,57844366345452,27,24.6,473.8525695800781,0.25029999017715454,29,4044.943345986622,0.1869394431765222,1.60368755E9,,,,0,,3,-0.79,1.60368755E9,408.0,NaN,NaN
Raw,241102934712593,657907213000000,,,-1265581155230294633,-0.8057518005371094,30.664137739222497,20.582832683968615,9.59763342907032,203,17,0.0,49359,57844368621949,16,29.7,-657.7105102539062,0.23589999973773956,25,-6666.75015580326,0.002765733784629526,1.60424998E9,,,,0,,3,-0.79,1.60424998E9,408.0,NaN,NaN
Raw,241102934712593,657907213000000,,,-1265581155230294633,-0.8057518005371094,30.664137739222497,20.582832683968615,9.59763342907032,203,7,0.0,49359,57844364966182,70,17.7,-708.3588256835938,2.0325000286102295,16,0.0,0.0,1.60481254E9,,,,0,,3,-0.79,1.60481254E9,408.0,NaN,NaN
Raw,241102934712593,657907213000000,,,-1265581155230294633,-0.8057518005371094,30.664137739222497,20.582832683968615,9.59763342907032,203,36,0.0,16399,392648370479502,8,36.3,-32.3770637512207,0.03460000082850456,25,-344.8166295348409,0.0011714408558922843,1.56109798E9,,,,0,,5,0.56,1.56109798E9,408.0,NaN,NaN
Raw,241102934712593,657907213000000,,,-1265581155230294633,-0.8057518005371094,30.664137739222497,20.582832683968615,9.59763342907032,203,30,0.0,16399,392648361138775,6,38.4,-542.5411987304688,0.005600000265985727,25,-5657.756116283803,9.409935037250662E-4,1.56109798E9,,,,0,,5,0.56,1.56109798E9,408.0,NaN,NaN
Raw,241102934712593,657907213000000,,,-1265581155230294633,-0.8057518005371094,30.664137739222497,20.582832683968615,9.59763342907032,203,27,0.0,16399,392648362726510,14,30.5,-84.21908569335938,0.010900000110268593,25,-728.5126933952085,0.0024196975554572116,1.56109798E9,,,,0,,5,0.56,1.56109798E9,408.0,NaN,NaN
Raw,241102934712593,657907213000000,,,-1265581155230294633,-0.8057518005371094,30.664137739222497,20.582832683968615,9.59763342907032,203,22,0.0,16399,392648362770192,12,32.1,453.9383544921875,0.02460000105202198,25,3556.9328027729507,0.0018243750799829725,1.56109798E9,,,,0,,5,0.56,1.56109798E9,408.0,NaN,NaN
Raw,241102934712593,657907213000000,,,-1265581155230294633,-0.8057518005371094,30.664137739222497,20.582832683968615,9.59763342907032,203,21,0.0,16399,392648362783739,19,27.7,-97.16732025146484,0.028800001367926598,21,-840.2545468836655,0.0032646714781548623,1.56109798E9,,,,0,,5,0.56,1.56109798E9,408.0,NaN,NaN
Raw,241102934712593,657907213000000,,,-1265581155230294633,-0.8057518005371094,30.664137739222497,20.582832683968615,9.59763342907032,203,3,0.0,23567,392662357073276,14,30.6,-329.5982666015625,0.04840000346302986,25,-3445.6404574048597,0.005233075867304602,1.57542003E9,,,,0,,6,0.69,1.57542003E9,408.0,NaN,NaN
Raw,241102934712593,657907213000000,,,-1265581155230294633,-0.8057518005371094,30.664137739222497,20.582832683968615,9.59763342907032,203,5,0.0,23567,392662362379382,11,33.0,207.34274291992188,0.04820000380277634,25,2157.6152916381548,0.003596550258902148,1.57542003E9,,,,0,,6,0.69,1.57542003E9,408.0,NaN,NaN
Raw,241102934712593,657907213000000,,,-1265581155230294633,-0.8057518005371094,30.664137739222497,20.582832683968615,9.59763342907032,203,9,0.0,23567,392662361422719,8,36.3,593.0153198242188,0.045100003480911255,25,6186.527799557458,0.0025499350854412276,1.57542003E9,,,,0,,6,0.69,1.57542003E9,408.0,NaN,NaN
Raw,241102934712593,657907213000000,,,-1265581155230294633,-0.8057518005371094,30.664137739222497,20.582832683968615,9.59763342907032,203,24,0.0,23567,392662371160435,8,36.4,-86.42213439941406,0.048100002110004425,25,-907.135994732719,0.0025499350854412276,1.57542003E9,,,,0,,6,0.69,1.57542003E9,408.0,NaN,NaN
Raw,241102934712593,657907213000000,,,-1265581155230294633,-0.8057518005371094,30.664137739222497,20.582832683968615,9.59763342907032,203,25,0.0,23567,392662354963325,21,26.1,-466.3693542480469,0.053700003772974014,21,-4871.655784843168,0.011874324619302384,1.57542003E9,,,,0,,6,0.69,1.57542003E9,408.0,NaN,NaN
Raw,241102934712593,657907213000000,,,-1265581155230294633,-0.8057518005371094,30.664137739222497,20.582832683968615,9.59763342907032,203,26,0.0,23567,392662354641259,61,18.7,80.15169525146484,1.0234999656677246,16,0.0,0.0,1.57542003E9,,,,0,,6,0.69,1.57542003E9,408.0,NaN,NaN
Raw,241102934712593,657907213000000,,,-1265581155230294633,-0.8057518005371094,30.664137739222497,20.582832683968615,9.59763342907032,203,31,0.0,23567,392662360220644,12,32.8,379.5754699707031,0.04560000076889992,25,3957.924831535163,0.003958108324583987,1.57542003E9,,,,0,,6,0.69,1.57542003E9,408.0,NaN,NaN
Raw,241102934712593,657907213000000,,,-1265581155230294633,-0.8057518005371094,30.664137739222497,20.582832683968615,9.59763342907032,203,33,0.0,23567,392662352210121,46,20.5,-359.1792907714844,0.8704999685287476,16,0.0,0.0,1.57542003E9,,,,0,,6,0.69,1.57542003E9,408.0,NaN,NaN
Raw,241102934712593,657907213000000,,,-1265581155230294633,-0.8057518005371094,30.664137739222497,20.582832683968615,9.59763342907032,203,24,0.0,81935,392662376288231,2,35.6,59.92135238647461,0.047600001096725464,25,258.6991149745326,0.0017837963238157039,1.17645005E9,,,,0,,1,7.79,1.17645005E9,408.0,NaN,NaN
Raw,241102934712593,657907213000000,,,-1265581155230294633,-0.8057518005371094,30.664137739222497,20.582832683968615,9.59763342907032,203,25,0.0,81935,392662364845662,8,22.3,-686.9017333984375,0.7324999570846558,16,0.0,0.0,1.17645005E9,,,,0,,1,7.79,1.17645005E9,408.0,NaN,NaN
Raw,241102934712593,657907213000000,,,-1265581155230294633,-0.8057518005371094,30.664137739222497,20.582832683968615,9.59763342907032,203,32,0.0,81935,392662364207053,10,20.1,-609.1409912109375,0.8524999618530273,16,0.0,0.0,1.17645005E9,,,,0,,1,7.79,1.17645005E9,408.0,NaN,NaN
Raw,241102934712593,657907213000000,,,-1265581155230294633,-0.8057518005371094,30.664137739222497,20.582832683968615,9.59763342907032,203,3,0.0,81935,392662357080374,5,28.6,-330.22705078125,0.05860000103712082,25,-1438.231749993095,0.0040262828122019055,1.17645005E9,,,,0,,6,7.79,1.17645005E9,408.0,NaN,NaN
Raw,241102934712593,657907213000000,,,-1265581155230294633,-0.8057518005371094,30.664137739222497,20.582832683968615,9.59763342907032,203,5,0.0,81935,392662362386487,3,31.4,206.82130432128906,0.015800001099705696,25,897.8450847833989,0.0027776256465907277,1.17645005E9,,,,0,,6,7.79,1.17645005E9,408.0,NaN,NaN
Raw,241102934712593,657907213000000,,,-1265581155230294633,-0.8057518005371094,30.664137739222497,20.582832683968615,9.59763342907032,203,9,0.0,81935,392662361429757,10,20.9,592.918701171875,0.062199998646974564,29,2574.8018362045973,0.34557229348499413,1.17645005E9,,,,0,,6,7.79,1.17645005E9,408.0,NaN,NaN
Raw,241102934712593,657907213000000,,,-1265581155230294633,-0.8057518005371094,30.664137739222497,20.582832683968615,9.59763342907032,203,24,0.0,81935,392662371167507,7,24.2,-86.9115982055664,0.09160000085830688,29,-380.2577193398828,0.0411037634920868,1.17645005E9,,,,0,,6,7.79,1.17645005E9,408.0,NaN,NaN
Raw,241102934712593,657907213000000,,,-1265581155230294633,-0.8057518005371094,30.664137739222497,20.582832683968615,9.59763342907032,203,25,0.0,81935,392662354970386,9,21.7,-466.5425720214844,0.06639999896287918,29,-2033.373291749925,0.34557229348499413,1.17645005E9,,,,0,,6,7.79,1.17645005E9,408.0,NaN,NaN
Raw,241102934712593,657907213000000,,,-1265581155230294633,-0.8057518005371094,30.664137739222497,20.582832683968615,9.59763342907032,203,31,0.0,81935,392662360227709,3,31.8,379.020751953125,0.012800000607967377,25,1645.5974497121233,0.0027776256465907277,1.17645005E9,,,,0,,6,7.79,1.17645005E9,408.0,NaN,NaN
Fix,gps,51.524648,-0.134005,73.423462,0.000000,3.790092,1582203846000,241103915379878
Raw,241103931496755,657908213000000,,,-1265581155230294614,-0.8216724395751953,31.398143619298935,20.72167881494161,9.598727732666324,203,10,0.0,16399,392663365356507,24,25.4,257.06170654296875,0.040800001472234726,19,371.97735816599584,0.19029366893311156,1.57542003E9,,,,0,,1,0.61,1.57542003E9,408.0,NaN,NaN
Raw,241103931496755,657908213000000,,,-1265581155230294614,-0.8216724395751953,31.398143619298935,20.72167881494161,9.598727732666324,203,12,0.0,16399,392663373946511,7,37.1,-415.2419128417969,0.03890000283718109,25,-4797.445022223754,0.0010085564157135064,1.57542003E9,,,,0,,1,0.61,1.57542003E9,408.0,NaN,NaN
Raw,241103931496755,657908213000000,,,-1265581155230294614,-0.8216724395751953,31.398143619298935,20.72167881494161,9.598727732666324,203,13,0.0,16399,392663359905698,61,18.6,745.6181640625,1.059999942779541,16,0.0,0.0,1.57542003E9,,,,0,,1,0.61,1.57542003E9,408.0,NaN,NaN
Raw,241103931496755,657908213000000,,,-1265581155230294614,-0.8216724395751953,31.398143619298935,20.72167881494161,9.598727732666324,203,15,0.0,16399,392663366105666,8,36.3,686.882080078125,0.028600001707673073,25,7912.736881616581,0.001160791358090767,1.57542003E9,,,,0,,1,0.61,1.57542003E9,408.0,NaN,NaN
Raw,241103931496755,657908213000000,,,-1265581155230294614,-0.8216724395751953,31.398143619298935,20.72167881494161,9.598727732666324,203,17,0.0,16399,392663366220274,14,30.7,283.20111083984375,0.03189999982714653,25,3255.548994540543,0.002397700231676362,1.57542003E9,,,,0,,1,0.61,1.57542003E9,408.0,NaN,NaN
Raw,241103931496755,657908213000000,,,-1265581155230294614,-0.8216724395751953,31.398143619298935,20.72167881494161,9.598727732666324,203,19,0.0,16399,392663370061208,12,32.6,-42.6187744140625,0.03660000115633011,25,-502.553912649268,0.001807789796734829,1.57542003E9,,,,0,,1,0.61,1.57542003E9,408.0,NaN,NaN
Raw,241103931496755,657908213000000,,,-1265581155230294614,-0.8216724395751953,31.398143619298935,20.72167881494161,9.598727732666324,203,20,0.0,16399,392663362575741,27,24.4,551.8751220703125,0.04430000111460686,21,2947.8790354615508,0.19029366893311156,1.57542003E9,,,,0,,1,0.61,1.57542003E9,408.0,NaN,NaN
Raw,241103931496755,657908213000000,,,-1265581155230294614,-0.8216724395751953,31.398143619298935,20.72167881494161,9.598727732666324,203,24,0.0,16399,392663376280270,9,35.5,60.01213455200195,0.04410000145435333,25,684.5108580064965,0.0013320557236479321,1.57542003E9,,,,0,,1,0.61,1.57542003E9,408.0,NaN,NaN
Raw,241103931496755,657908213000000,,,-1265581155230294614,-0.8216724395751953,31.398143619298935,20.72167881494161,9.598727732666324,203,25,0.0,16399,392663364840119,14,30.5,-686.939697265625,0.02890000119805336,17,-7769.365347545501,0.002397700231676362,1.57542003E9,,,,0,,1,0.61,1.57542003E9,408.0,NaN,NaN
Raw,241103931496755,657908213000000,,,-1265581155230294614,-0.8216724395751953,31.398143619298935,20.72167881494161,9.598727732666324,203,14,0.0,49359,57845368276747,61,18.2,644.5192260742188,1.9585001468658447,16,0.0,0.0,1.59806246E9,,,,0,,3,-0.88,1.59806246E9,408.0,NaN,NaN
Raw,241103931496755,657908213000000,,,-1265581155230294614,-0.8216724395751953,31.398143619298935,20.72167881494161,9.598727732666324,203,6,0.0,49359,57845375124301,31,23.5,-120.72288513183594,0.3337000012397766,21,-1355.0775489205616,0.1873995655581228,1.59975002E9,,,,0,,3,-0.88,1.59975002E9,408.0,NaN,NaN
Raw,241103931496755,657908213000000,,,-1265581155230294614,-0.8216724395751953,31.398143619298935,20.72167881494161,9.598727732666324,203,16,0.0,49359,57845373871751,35,22.1,-476.0174865722656,0.9459999799728394,16,0.0,0.0,1.60143744E9,,,,0,,3,-0.88,1.60143744E9,408.0,NaN,NaN
Raw,241103931496755,657908213000000,,,-1265581155230294614,-0.8216724395751953,31.398143619298935,20.72167881494161,9.598727732666324,203,15,0.0,49359,57845378446196,13,31.3,184.01492309570312,0.249099999666214,25,2043.0900408276364,0.0020397864077763375,1.602E9,,,,0,,3,-0.88,1.602E9,408.0,NaN,NaN
Raw,241103931496755,657908213000000,,,-1265581155230294614,-0.8216724395751953,31.398143619298935,20.72167881494161,9.598727732666324,203,5,0.0,49359,57845372492904,12,32.9,692.3084106445312,0.23960000276565552,25,6608.383974863392,0.0017771713445129138,1.60256256E9,,,,0,,3,-0.88,1.60256256E9,408.0,NaN,NaN
Raw,241103931496755,657908213000000,,,-1265581155230294614,-0.8216724395751953,31.398143619298935,20.72167881494161,9.598727732666324,203,23,0.0,49359,57845366343893,31,23.2,474.01263427734375,0.32019999623298645,21,4518.811782649051,0.1869394431765222,1.60368755E9,,,,0,,3,-0.88,1.60368755E9,408.0,NaN,NaN
Raw,241103931496755,657908213000000,,,-1265581155230294614,-0.8216724395751953,31.398143619298935,20.72167881494161,9.598727732666324,203,17,0.0,49359,57845368624041,19,27.8,-657.5838623046875,0.2378000020980835,25,-7324.42739541545,0.0031768565459246133,1.60424998E9,,,,0,,3,-0.88,1.60424998E9,408.0,NaN,NaN
