# 
# Header Description:
# 
# Version: v2.0.0.1 Platform: 10 Manufacturer: Google Model: Pixel 4
# 
# Raw,ElapsedRealtimeNanos,TimeNanos,LeapSecond,TimeUncertaintyNanos,FullBiasNanos,BiasNanos,BiasUncertaintyNanos,DriftNanosPerSecond,DriftUncertaintyNanosPerSecond,HardwareClockDiscontinuityCount,Svid,TimeOffsetNanos,State,ReceivedSvTimeNanos,ReceivedSvTimeUncertaintyNanos,Cn0DbHz,PseudorangeRateMetersPerSecond,PseudorangeRateUncertaintyMetersPerSecond,AccumulatedDeltaRangeState,AccumulatedDeltaRangeMeters,AccumulatedDeltaRangeUncertaintyMeters,CarrierFrequencyHz,CarrierCycles,CarrierPhase,CarrierPhaseUncertainty,MultipathIndicator,SnrInDb,ConstellationType,AgcDb,CarrierFrequencyHz,UserLatitude,UserLongitude,UserAltitude
# 
# Fix,Provider,Latitude,Longitude,Altitude,Speed,Accuracy,(UTC)TimeInMs,ElapsedRealtimeNanos
# 
# Nav,Svid,Type,Status,MessageId,Sub-messageId,Data(Bytes)
# 
Fix,gps,51.524547,-0.134175,69.256104,0.000000,3.790092,1582194682000,231939899681356
Raw,231939917593858,648744162000000,,,-1265581155277363206,-0.5355777740478516,37.49165989574976,-56.86551181517716,16.86057808885763,69,5,0.0,16399,383499359852711,21,26.6,694.90087890625,0.025200001895427704,21,39927.34559635172,0.005442398901996786,1.57542003E9,,,,0,,1,0.39,1.57542003E9,303.0,NaN,NaN
Raw,231939917593858,648744162000000,,,-1265581155277363206,-0.5355777740478516,37.49165989574976,-56.86551181517716,16.86057808885763,69,13,0.0,16399,383499371799045,6,38.7,145.0696563720703,0.035600002855062485,25,11993.003012351155,9.324389888310735E-4,1.57542003E9,,,,0,,1,0.39,1.57542003E9,303.0,NaN,NaN
Raw,231939917593858,648744162000000,,,-1265581155277363206,-0.5355777740478516,37.49165989574976,-56.86551181517716,16.86057808885763,69,15,0.0,16399,383499371374358,16,29.1,-196.73524475097656,0.040400002151727676,17,-17130.75457160411,0.00281634630106073,1.57542003E9,,,,0,,1,0.39,1.57542003E9,303.0,NaN,NaN
Raw,231939917593858,648744162000000,,,-1265581155277363206,-0.5355777740478516,37.49165989574976,-56.86551181517716,16.86057808885763,69,17,0.0,16399,383499355768744,27,24.4,-574.9854736328125,0.06379999965429306,21,-2558.1039149586722,0.19029366893311156,1.57542003E9,,,,0,,1,0.39,1.57542003E9,303.0,NaN,NaN
Raw,231939917593858,648744162000000,,,-1265581155277363206,-0.5355777740478516,37.49165989574976,-56.86551181517716,16.86057808885763,69,20,0.0,16399,383499361940395,14,30.5,-441.298828125,0.024400001391768456,21,-38113.73571064455,0.002397700231676362,1.57542003E9,,,,0,,1,0.39,1.57542003E9,303.0,NaN,NaN
Raw,231939917593858,648744162000000,,,-1265581155277363206,-0.5355777740478516,37.49165989574976,-56.86551181517716,16.86057808885763,69,28,0.0,16399,383499368110030,6,39.1,99.66712188720703,0.030800001695752144,17,8059.171677187525,8.372921387687362E-4,1.57542003E9,,,,0,,1,0.39,1.57542003E9,303.0,NaN,NaN
Raw,231939917593858,648744162000000,,,-1265581155277363206,-0.5355777740478516,37.49165989574976,-56.86551181517716,16.86057808885763,69,30,0.0,16399,383499362568491,6,38.7,552.8422241210938,0.022100001573562622,25,47146.79337103783,9.324389888310735E-4,1.57542003E9,,,,0,,1,0.39,1.57542003E9,303.0,NaN,NaN
Raw,231939917593858,648744162000000,,,-1265581155277363206,-0.5355777740478516,37.49165989574976,-56.86551181517716,16.86057808885763,69,14,0.0,49359,48681375352926,17,28.8,-135.5016326904297,0.6790000200271606,16,0.0,0.0,1.59806246E9,,,,0,,3,-1.05,1.59806246E9,303.0,NaN,NaN
Raw,231939917593858,648744162000000,,,-1265581155277363206,-0.5355777740478516,37.49165989574976,-56.86551181517716,16.86057808885763,69,22,0.0,49359,48681361400357,14,30.1,-281.0943908691406,0.22439999878406525,25,-24374.345211306387,0.002360404669997281,1.60031245E9,,,,0,,3,-1.05,1.60031245E9,303.0,NaN,NaN
Raw,231939917593858,648744162000000,,,-1265581155277363206,-0.5355777740478516,37.49165989574976,-56.86551181517716,16.86057808885763,69,13,0.0,49359,48681369669487,14,30.0,581.4224853515625,0.23640000820159912,25,49211.78266024764,0.0023595752053329456,1.60087501E9,,,,0,,3,-1.05,1.60087501E9,303.0,NaN,NaN
Raw,231939917593858,648744162000000,,,-1265581155277363206,-0.5355777740478516,37.49165989574976,-56.86551181517716,16.86057808885763,69,15,0.0,49359,48681365974738,10,34.8,-721.329345703125,0.2281000018119812,21,-61741.99127976377,0.0014970909974500758,1.602E9,,,,0,,3,-1.05,1.602E9,303.0,NaN,NaN
Raw,231939917593858,648744162000000,,,-1265581155277363206,-0.5355777740478516,37.49165989574976,-56.86551181517716,16.86057808885763,69,5,0.0,49359,48681369076998,6,38.0,-635.2731323242188,0.23260000348091125,21,-54490.23155705603,9.166463127793883E-4,1.60256256E9,,,,0,,3,-1.05,1.60256256E9,303.0,NaN,NaN
Raw,231939917593858,648744162000000,,,-1265581155277363206,-0.5355777740478516,37.49165989574976,-56.86551181517716,16.86057808885763,69,3,0.0,49359,48681366688300,10,34.5,712.5241088867188,0.22960001230239868,25,60392.40363957492,0.0014944672428451689,1.60481254E9,,,,0,,3,-1.05,1.60481254E9,303.0,NaN,NaN
Raw,231939917593858,648744162000000,,,-1265581155277363206,-0.5355777740478516,37.49165989574976,-56.86551181517716,16.86057808885763,69,4,0.0,49359,48681375263469,9,35.4,90.38047790527344,0.24260000884532928,21,7105.1044339567725,0.0013072006865361828,1.60537498E9,,,,0,,3,-1.05,1.60537498E9,303.0,NaN,NaN
Raw,231939917593858,648744162000000,,,-1265581155277363206,-0.5355777740478516,37.49165989574976,-56.86551181517716,16.86057808885763,69,37,0.0,16399,383485360778251,10,34.9,432.5182800292969,0.020600000396370888,25,35857.67595385304,0.001536315979199305,1.56109798E9,,,,0,,5,0.24,1.56109798E9,303.0,NaN,NaN
Raw,231939917593858,648744162000000,,,-1265581155277363206,-0.5355777740478516,37.49165989574976,-56.86551181517716,16.86057808885763,69,22,0.0,16399,383485358571605,16,29.6,-468.4777526855469,0.05090000107884407,29,-40393.57778388003,0.0028421844273806814,1.56109798E9,,,,0,,5,0.24,1.56109798E9,303.0,NaN,NaN
Raw,231939917593858,648744162000000,,,-1265581155277363206,-0.5355777740478516,37.49165989574976,-56.86551181517716,16.86057808885763,69,20,0.0,16399,383485357725261,17,28.8,593.7288818359375,0.050700001418590546,21,48654.46362766975,0.003034223768286223,1.56109798E9,,,,0,,5,0.24,1.56109798E9,303.0,NaN,NaN
Raw,231939917593858,648744162000000,,,-1265581155277363206,-0.5355777740478516,37.49165989574976,-56.86551181517716,16.86057808885763,69,10,0.0,16399,383485307328678,10,34.1,143.06631469726562,0.03110000118613243,25,12116.335828091796,0.001536315979199305,1.56109798E9,,,,0,,5,0.24,1.56109798E9,303.0,NaN,NaN
Raw,231939917593858,648744162000000,,,-1265581155277363206,-0.5355777740478516,37.49165989574976,-56.86551181517716,16.86057808885763,69,1,0.0,23567,383499355733357,13,31.5,334.2818298339844,0.044600002467632294,21,9520.304355519595,0.004528989424958011,1.57542003E9,,,,0,,6,0.33,1.57542003E9,303.0,NaN,NaN
Raw,231939917593858,648744162000000,,,-1265581155277363206,-0.5355777740478516,37.49165989574976,-56.86551181517716,16.86057808885763,69,4,0.0,23567,383499353993351,11,33.0,457.3927307128906,0.04670000076293945,25,17610.7968306688,0.003596550258902148,1.57542003E9,,,,0,,6,0.33,1.57542003E9,303.0,NaN,NaN
Raw,231939917593858,648744162000000,,,-1265581155277363206,-0.5355777740478516,37.49165989574976,-56.86551181517716,16.86057808885763,69,5,0.0,23567,383499353333103,17,28.7,-464.53375244140625,0.050700001418590546,21,-18857.971126208708,0.006565131413727744,1.57542003E9,,,,0,,6,0.33,1.57542003E9,303.0,NaN,NaN
Raw,231939917593858,648744162000000,,,-1265581155277363206,-0.5355777740478516,37.49165989574976,-56.86551181517716,16.86057808885763,69,9,0.0,23567,383499367719504,27,24.1,-6.289205551147461,0.6889999508857727,16,0.0,0.0,1.57542003E9,,,,0,,6,0.33,1.57542003E9,303.0,NaN,NaN
Raw,231939917593858,648744162000000,,,-1265581155277363206,-0.5355777740478516,37.49165989574976,-56.86551181517716,16.86057808885763,69,24,0.0,23567,383499356380021,8,36.1,-591.7514038085938,0.04360000044107437,25,-7410.501598760785,0.0025499350854412276,1.57542003E9,,,,0,,6,0.33,1.57542003E9,303.0,NaN,NaN
Raw,231939917593858,648744162000000,,,-1265581155277363206,-0.5355777740478516,37.49165989574976,-56.86551181517716,16.86057808885763,69,31,0.0,23567,383499360238467,8,36.6,-213.42633056640625,0.04360000044107437,25,-1385.0158511592722,0.0025499350854412276,1.57542003E9,,,,0,,6,0.33,1.57542003E9,303.0,NaN,NaN
Raw,231939917593858,648744162000000,,,-1265581155277363206,-0.5355777740478516,37.49165989574976,-56.86551181517716,16.86057808885763,69,30,0.0,81935,383499362576315,8,23.3,552.635009765625,0.03720000013709068,29,43175.99532273485,0.25482803839368795,1.17645005E9,,,,0,,1,2.54,1.17645005E9,303.0,NaN,NaN
Raw,231939917593858,648744162000000,,,-1265581155277363206,-0.5355777740478516,37.49165989574976,-56.86551181517716,16.86057808885763,69,1,0.0,81935,383499355740469,4,29.4,333.7261047363281,0.05350000038743019,25,26295.325039718235,0.0037714549693657518,1.17645005E9,,,,0,,6,2.54,1.17645005E9,303.0,NaN,NaN
Raw,231939917593858,648744162000000,,,-1265581155277363206,-0.5355777740478516,37.49165989574976,-56.86551181517716,16.86057808885763,69,4,0.0,81935,383499354000442,6,25.7,456.74273681640625,0.0755000039935112,29,36117.60547302364,0.010753742989341824,1.17645005E9,,,,0,,6,2.54,1.17645005E9,303.0,NaN,NaN
Raw,231939917593858,648744162000000,,,-1265581155277363206,-0.5355777740478516,37.49165989574976,-56.86551181517716,16.86057808885763,69,5,0.0,81935,383499353340212,6,25.4,-464.9386291503906,0.07400000095367432,25,-36922.269169510095,0.010753742989341824,1.17645005E9,,,,0,,6,2.54,1.17645005E9,303.0,NaN,NaN
Raw,231939917593858,648744162000000,,,-1265581155277363206,-0.5355777740478516,37.49165989574976,-56.86551181517716,16.86057808885763,69,9,0.0,81935,383499367726537,14,17.3,-5.9247517585754395,1.8369998931884766,16,0.0,0.0,1.17645005E9,,,,0,,6,2.54,1.17645005E9,303.0,NaN,NaN
Raw,231939917593858,648744162000000,,,-1265581155277363206,-0.5355777740478516,37.49165989574976,-56.86551181517716,16.86057808885763,69,24,0.0,81935,383499356387109,7,24.1,-592.046875,0.05609999969601631,29,-46473.23761391809,0.08959753608771179,1.17645005E9,,,,0,,6,2.54,1.17645005E9,303.0,NaN,NaN
Raw,231939917593858,648744162000000,,,-1265581155277363206,-0.5355777740478516,37.49165989574976,-56.86551181517716,16.86057808885763,69,31,0.0,81935,383499360245531,3,32.2,-214.188720703125,0.026599999517202377,25,-17209.02730828222,0.0024208662868967453,1.17645005E9,,,,0,,6,2.54,1.17645005E9,303.0,NaN,NaN
Fix,gps,51.524541,-0.134174,69.343445,0.000000,3.790092,1582194683000,231940900345414
Raw,231940912576717,648745162000000,,,-1265581155277363269,-0.6568965911865234,35.06496432237327,-58.1847266113089,10.540274976621676,69,5,0.0,16399,383500359850165,31,23.6,696.5394287109375,0.10970000177621841,21,40622.893331828054,0.19029366893311156,1.57542003E9,,,,0,,1,0.39,1.57542003E9,303.0,NaN,NaN
Raw,231940912576717,648745162000000,,,-1265581155277363269,-0.6568965911865234,35.06496432237327,-58.1847266113089,10.540274976621676,69,13,0.0,16399,383500371798567,8,36.5,146.7100830078125,0.03610000014305115,25,12138.678911746005,0.001160791358090767,1.57542003E9,,,,0,,1,0.39,1.57542003E9,303.0,NaN,NaN
Raw,231940912576717,648745162000000,,,-1265581155277363269,-0.6568965911865234,35.06496432237327,-58.1847266113089,10.540274976621676,69,15,0.0,16399,383500371375031,40,21.9,-194.6228485107422,0.8029999732971191,16,0.0,0.0,1.57542003E9,,,,0,,1,0.39,1.57542003E9,303.0,NaN,NaN
Raw,231940912576717,648745162000000,,,-1265581155277363269,-0.6568965911865234,35.06496432237327,-58.1847266113089,10.540274976621676,69,17,0.0,16399,383500355770796,31,23.1,-574.092529296875,0.13369999825954437,21,-3133.1301759779153,0.19029366893311156,1.57542003E9,,,,0,,1,0.39,1.57542003E9,303.0,NaN,NaN
Raw,231940912576717,648745162000000,,,-1265581155277363269,-0.6568965911865234,35.06496432237327,-58.1847266113089,10.540274976621676,69,20,0.0,16399,383500361941646,24,25.5,-439.8111877441406,0.03480000048875809,21,-38554.5892795568,0.19029366893311156,1.57542003E9,,,,0,,1,0.39,1.57542003E9,303.0,NaN,NaN
Raw,231940912576717,648745162000000,,,-1265581155277363269,-0.6568965911865234,35.06496432237327,-58.1847266113089,10.540274976621676,69,24,0.0,16399,383500362562823,70,17.6,-631.8130493164062,1.9194999933242798,16,0.0,0.0,1.57542003E9,,,,0,,1,0.39,1.57542003E9,303.0,NaN,NaN
Raw,231940912576717,648745162000000,,,-1265581155277363269,-0.6568965911865234,35.06496432237327,-58.1847266113089,10.540274976621676,69,28,0.0,16399,383500368109699,4,42.8,101.32520294189453,0.030100001022219658,17,8159.440485308004,5.899103906353357E-4,1.57542003E9,,,,0,,1,0.39,1.57542003E9,303.0,NaN,NaN
Raw,231940912576717,648745162000000,,,-1265581155277363269,-0.6568965911865234,35.06496432237327,-58.1847266113089,10.540274976621676,69,30,0.0,16399,383500362566673,9,35.6,554.4793701171875,0.023100001737475395,25,47700.2486263885,0.0013320557236479321,1.57542003E9,,,,0,,1,0.39,1.57542003E9,303.0,NaN,NaN
Raw,231940912576717,648745162000000,,,-1265581155277363269,-0.6568965911865234,35.06496432237327,-58.1847266113089,10.540274976621676,69,14,0.0,49359,48682375353249,24,25.8,-133.7396240234375,0.2558000087738037,27,-12241.8583069066,0.18759745926927673,1.59806246E9,,,,0,,3,-1.01,1.59806246E9,303.0,NaN,NaN
Raw,231940912576717,648745162000000,,,-1265581155277363269,-0.6568965911865234,35.06496432237327,-58.1847266113089,10.540274976621676,69,22,0.0,49359,48682361401408,27,24.1,-279.3650817871094,0.24279999732971191,29,-24654.81136226952,0.18733370372433672,1.60031245E9,,,,0,,3,-1.01,1.60031245E9,303.0,NaN,NaN
Raw,231940912576717,648745162000000,,,-1265581155277363269,-0.6568965911865234,35.06496432237327,-58.1847266113089,10.540274976621676,69,13,0.0,49359,48682369667614,16,29.7,583.0521850585938,0.23739999532699585,25,49793.78540943143,0.0027715645241306536,1.60087501E9,,,,0,,3,-1.01,1.60087501E9,303.0,NaN,NaN
Raw,231940912576717,648745162000000,,,-1265581155277363269,-0.6568965911865234,35.06496432237327,-58.1847266113089,10.540274976621676,69,15,0.0,49359,48682365977182,6,38.4,-719.6831665039062,0.22660000622272491,25,-62462.59235568546,9.169682032598611E-4,1.602E9,,,,0,,3,-1.01,1.602E9,303.0,NaN,NaN
Raw,231940912576717,648745162000000,,,-1265581155277363269,-0.6568965911865234,35.06496432237327,-58.1847266113089,10.540274976621676,69,5,0.0,49359,48682369079113,5,40.2,-633.7249145507812,0.2321000099182129,25,-55124.98083324101,7.295756082573676E-4,1.60256256E9,,,,0,,3,-1.01,1.60256256E9,303.0,NaN,NaN
Raw,231940912576717,648745162000000,,,-1265581155277363269,-0.6568965911865234,35.06496432237327,-58.1847266113089,10.540274976621676,69,3,0.0,49359,48682366685858,16,29.9,714.2730102539062,0.232900008559227,25,61105.637536342656,0.002764764268779405,1.60481254E9,,,,0,,3,-1.01,1.60481254E9,303.0,NaN,NaN
Raw,231940912576717,648745162000000,,,-1265581155277363269,-0.6568965911865234,35.06496432237327,-58.1847266113089,10.540274976621676,69,4,0.0,49359,48682375263220,12,32.7,92.0921401977539,0.24410000443458557,25,7196.138149038155,0.0017740579627804397,1.60537498E9,,,,0,,3,-1.01,1.60537498E9,303.0,NaN,NaN
Raw,231940912576717,648745162000000,,,-1265581155277363269,-0.6568965911865234,35.06496432237327,-58.1847266113089,10.540274976621676,69,37,0.0,16399,383486360776803,8,36.0,434.1573486328125,0.019600000232458115,25,36290.80927047716,0.0011714408558922843,1.56109798E9,,,,0,,5,0.21,1.56109798E9,303.0,NaN,NaN
Raw,231940912576717,648745162000000,,,-1265581155277363269,-0.6568965911865234,35.06496432237327,-58.1847266113089,10.540274976621676,69,22,0.0,16399,383486358573268,35,22.2,-466.7903747558594,0.8134999871253967,16,0.0,0.0,1.56109798E9,,,,0,,5,0.21,1.56109798E9,303.0,NaN,NaN
Raw,231940912576717,648745162000000,,,-1265581155277363269,-0.6568965911865234,35.06496432237327,-58.1847266113089,10.540274976621676,69,20,0.0,16399,383486357723308,19,27.9,595.3768310546875,0.05130000039935112,21,49248.64730755561,0.0032646714781548623,1.56109798E9,,,,0,,5,0.21,1.56109798E9,303.0,NaN,NaN
Raw,231940912576717,648745162000000,,,-1265581155277363269,-0.6568965911865234,35.06496432237327,-58.1847266113089,10.540274976621676,69,11,0.0,16399,383486350201650,92,15.6,125.8050765991211,2.8415002822875977,16,0.0,0.0,1.56109798E9,,,,0,,5,0.21,1.56109798E9,303.0,NaN,NaN
Raw,231940912576717,648745162000000,,,-1265581155277363269,-0.6568965911865234,35.06496432237327,-58.1847266113089,10.540274976621676,69,10,0.0,16399,383486307328186,8,36.6,144.62620544433594,0.030100001022219658,25,12259.951756759492,0.0011714408558922843,1.56109798E9,,,,0,,5,0.21,1.56109798E9,303.0,NaN,NaN
Raw,231940912576717,648745162000000,,,-1265581155277363269,-0.6568965911865234,35.06496432237327,-58.1847266113089,10.540274976621676,69,5,0.0,17167,383486303300409,31,23.3,-18.44539451599121,5.738100051879883,16,0.0,0.0,1.56109798E9,,,,0,,5,0.21,1.56109798E9,303.0,NaN,NaN
Raw,231940912576717,648745162000000,,,-1265581155277363269,-0.6568965911865234,35.06496432237327,-58.1847266113089,10.540274976621676,69,1,0.0,23567,383500355732243,16,29.9,335.8918151855469,0.046400003135204315,25,9855.293949686033,0.006146485344343376,1.57542003E9,,,,0,,6,0.33,1.57542003E9,303.0,NaN,NaN
Raw,231940912576717,648745162000000,,,-1265581155277363269,-0.6568965911865234,35.06496432237327,-58.1847266113089,10.540274976621676,69,4,0.0,23567,383500353991802,12,32.2,458.9884338378906,0.0471000038087368,25,18068.766360306632,0.003958108324583987,1.57542003E9,,,,0,,6,0.33,1.57542003E9,303.0,NaN,NaN
Raw,231940912576717,648745162000000,,,-1265581155277363269,-0.6568965911865234,35.06496432237327,-58.1847266113089,10.540274976621676,69,5,0.0,23567,383500353334682,27,24.5,-462.9844970703125,0.6420000195503235,16,0.0,0.0,1.57542003E9,,,,0,,6,0.33,1.57542003E9,303.0,NaN,NaN
Raw,231940912576717,648745162000000,,,-1265581155277363269,-0.6568965911865234,35.06496432237327,-58.1847266113089,10.540274976621676,69,9,0.0,23567,383500367719443,17,28.9,-4.154841423034668,0.047700002789497375,27,-712.8777323959005,0.006565131413727744,1.57542003E9,,,,0,,6,0.33,1.57542003E9,303.0,NaN,NaN
Raw,231940912576717,648745162000000,,,-1265581155277363269,-0.6568965911865234,35.06496432237327,-58.1847266113089,10.540274976621676,69,24,0.0,23567,383500356382047,10,34.3,-590.3880615234375,0.044600002467632294,25,-8001.89191804323,0.003311109885939926,1.57542003E9,,,,0,,6,0.33,1.57542003E9,303.0,NaN,NaN
Raw,231940912576717,648745162000000,,,-1265581155277363269,-0.6568965911865234,35.06496432237327,-58.1847266113089,10.540274976621676,69,31,0.0,23567,383500360239161,9,35.9,-211.88145446777344,0.04410000145435333,25,-1597.927174524082,0.0028924638165555576,1.57542003E9,,,,0,,6,0.33,1.57542003E9,303.0,NaN,NaN
Raw,231940912576717,648745162000000,,,-1265581155277363269,-0.6568965911865234,35.06496432237327,-58.1847266113089,10.540274976621676,69,30,0.0,81935,383500362574464,5,28.2,554.5205078125,0.03610000014305115,29,43729.41198585295,0.0040262828122019055,1.17645005E9,,,,0,,1,4.81,1.17645005E9,303.0,NaN,NaN
Raw,231940912576717,648745162000000,,,-1265581155277363269,-0.6568965911865234,35.06496432237327,-58.1847266113089,10.540274976621676,69,1,0.0,81935,383500355739354,3,31.0,336.0096740722656,0.050300002098083496,25,26630.225852405518,0.0027776256465907277,1.17645005E9,,,,0,,6,4.81,1.17645005E9,303.0,NaN,NaN
Raw,231940912576717,648745162000000,,,-1265581155277363269,-0.6568965911865234,35.06496432237327,-58.1847266113089,10.540274976621676,69,4,0.0,81935,383500353998914,7,24.2,459.0776062011719,0.09459999948740005,29,36575.58580207343,0.0411037634920868,1.17645005E9,,,,0,,6,4.81,1.17645005E9,303.0,NaN,NaN
Raw,231940912576717,648745162000000,,,-1265581155277363269,-0.6568965911865234,35.06496432237327,-58.1847266113089,10.540274976621676,69,5,0.0,81935,383500353341769,8,23.1,-462.8778076171875,0.053700000047683716,29,-37386.193719119015,0.25482803839368795,1.17645005E9,,,,0,,6,4.81,1.17645005E9,303.0,NaN,NaN
Raw,231940912576717,648745162000000,,,-1265581155277363269,-0.6568965911865234,35.06496432237327,-58.1847266113089,10.540274976621676,69,9,0.0,81935,383500367726554,8,22.4,-4.548680305480957,0.7369999885559082,16,0.0,0.0,1.17645005E9,,,,0,,6,4.81,1.17645005E9,303.0,NaN,NaN
Raw,231940912576717,648745162000000,,,-1265581155277363269,-0.6568965911865234,35.06496432237327,-58.1847266113089,10.540274976621676,69,24,0.0,81935,383500356389080,7,24.6,-590.500244140625,0.640500009059906,16,0.0,0.0,1.17645005E9,,,,0,,6,4.81,1.17645005E9,303.0,NaN,NaN
Raw,231940912576717,648745162000000,,,-1265581155277363269,-0.6568965911865234,35.06496432237327,-58.1847266113089,10.540274976621676,69,31,0.0,81935,383500360246240,3,32.4,-211.84341430664062,0.026599999517202377,25,-17421.901938803654,0.0024208662868967453,1.17645005E9,,,,0,,6,4.81,1.17645005E9,303.0,NaN,NaN
Fix,gps,51.524539,-0.134173,69.591736,0.000000,3.790092,1582194684000,231941898687753
Raw,231941935981611,648746162000000,,,-1265581155277363324,-0.6719837188720703,38.19918856606819,-53.415516137413405,11.603772653950411,69,5,0.0,16399,383501359847905,31,23.4,695.7327880859375,0.10970000177621841,21,41319.45150977048,0.19029366893311156,1.57542003E9,,,,0,,1,-0.8,1.57542003E9,303.0,NaN,NaN
Raw,231941935981611,648746162000000,,,-1265581155277363324,-0.6719837188720703,38.19918856606819,-53.415516137413405,11.603772653950411,69,13,0.0,16399,383501371798105,9,35.6,145.30511474609375,0.03660000115633011,25,12284.771412982469,0.0013320557236479321,1.57542003E9,,,,0,,1,-0.8,1.57542003E9,303.0,NaN,NaN
Raw,231941935981611,648746162000000,,,-1265581155277363324,-0.6719837188720703,38.19918856606819,-53.415516137413405,11.603772653950411,69,15,0.0,16399,383501371375575,70,17.9,-195.38401794433594,1.0929999351501465,16,0.0,0.0,1.57542003E9,,,,0,,1,-0.8,1.57542003E9,303.0,NaN,NaN
Raw,231941935981611,648746162000000,,,-1265581155277363324,-0.6719837188720703,38.19918856606819,-53.415516137413405,11.603772653950411,69,17,0.0,16399,383501355772693,27,24.0,-574.72314453125,0.06379999965429306,17,-3707.0105391836437,0.19029366893311156,1.57542003E9,,,,0,,1,-0.8,1.57542003E9,303.0,NaN,NaN
Raw,231941935981611,648746162000000,,,-1265581155277363324,-0.6719837188720703,38.19918856606819,-53.415516137413405,11.603772653950411,69,20,0.0,16399,383501361943229,27,24.5,-441.1327819824219,0.04280000180006027,21,-38994.79831077226,0.19029366893311156,1.57542003E9,,,,0,,1,-0.8,1.57542003E9,303.0,NaN,NaN
Raw,231941935981611,648746162000000,,,-1265581155277363324,-0.6719837188720703,38.19918856606819,-53.415516137413405,11.603772653950411,69,28,0.0,16399,383501368109354,5,41.7,99.94883728027344,0.030300000682473183,17,8260.155336438766,6.850571963914755E-4,1.57542003E9,,,,0,,1,-0.8,1.57542003E9,303.0,NaN,NaN
Raw,231941935981611,648746162000000,,,-1265581155277363324,-0.6719837188720703,38.19918856606819,-53.415516137413405,11.603772653950411,69,30,0.0,16399,383501362564823,9,35.3,553.0054321289062,0.023100001737475395,25,48254.07822481506,0.0013320557236479321,1.57542003E9,,,,0,,1,-0.8,1.57542003E9,303.0,NaN,NaN
Raw,231941935981611,648746162000000,,,-1265581155277363324,-0.6719837188720703,38.19918856606819,-53.415516137413405,11.603772653950411,69,14,0.0,49359,48683375353719,27,24.2,-135.15896606445312,0.2637999951839447,21,-12376.269322246582,0.18759745926927673,1.59806246E9,,,,0,,3,-2.26,1.59806246E9,303.0,NaN,NaN
Raw,231941935981611,648746162000000,,,-1265581155277363324,-0.6719837188720703,38.19918856606819,-53.415516137413405,11.603772653950411,69,22,0.0,49359,48683361402420,35,22.4,-280.9724426269531,0.9279999732971191,16,0.0,0.0,1.60031245E9,,,,0,,3,-2.26,1.60031245E9,303.0,NaN,NaN
Raw,231941935981611,648746162000000,,,-1265581155277363324,-0.6719837188720703,38.19918856606819,-53.415516137413405,11.603772653950411,69,13,0.0,49359,48683369665688,17,28.8,581.5983276367188,0.2387000024318695,25,50376.17699779909,0.002958832253614959,1.60087501E9,,,,0,,3,-2.26,1.60087501E9,303.0,NaN,NaN
Raw,231941935981611,648746162000000,,,-1265581155277363324,-0.6719837188720703,38.19918856606819,-53.415516137413405,11.603772653950411,69,15,0.0,49359,48683365979608,6,38.1,-721.1083984375,0.22660000622272491,25,-63182.89937205603,9.169682032598611E-4,1.602E9,,,,0,,3,-2.26,1.602E9,303.0,NaN,NaN
Raw,231941935981611,648746162000000,,,-1265581155277363324,-0.6719837188720703,38.19918856606819,-53.415516137413405,11.603772653950411,69,5,0.0,49359,48683369081236,6,39.1,-635.127197265625,0.2323000133037567,25,-55759.3288447446,8.23110960518378E-4,1.60256256E9,,,,0,,3,-2.26,1.60256256E9,303.0,NaN,NaN
Raw,231941935981611,648746162000000,,,-1265581155277363324,-0.6719837188720703,38.19918856606819,-53.415516137413405,11.603772653950411,69,3,0.0,49359,48683366683489,17,28.1,712.831298828125,0.23420000076293945,25,61819.27222374401,0.002951572521903534,1.60481254E9,,,,0,,3,-2.26,1.60481254E9,303.0,NaN,NaN
Raw,231941935981611,648746162000000,,,-1265581155277363324,-0.6719837188720703,38.19918856606819,-53.415516137413405,11.603772653950411,69,4,0.0,49359,48683375262902,12,32.5,90.74890899658203,0.24410000443458557,25,7287.6439762700475,0.0017740579627804397,1.60537498E9,,,,0,,3,-2.26,1.60537498E9,303.0,NaN,NaN
Raw,231941935981611,648746162000000,,,-1265581155277363324,-0.6719837188720703,38.19918856606819,-53.415516137413405,11.603772653950411,69,37,0.0,16399,383487360775362,9,35.0,432.6916809082031,0.020100001245737076,25,36724.32413539459,0.0013442764594430532,1.56109798E9,,,,0,,5,-0.75,1.56109798E9,303.0,NaN,NaN
Raw,231941935981611,648746162000000,,,-1265581155277363324,-0.6719837188720703,38.19918856606819,-53.415516137413405,11.603772653950411,69,22,0.0,16399,383487358574767,53,19.2,-467.45294189453125,1.0234999656677246,16,0.0,0.0,1.56109798E9,,,,0,,5,-0.75,1.56109798E9,303.0,NaN,NaN
Raw,231941935981611,648746162000000,,,-1265581155277363324,-0.6719837188720703,38.19918856606819,-53.415516137413405,11.603772653950411,69,20,0.0,16399,383487357721345,21,26.8,594.0570068359375,0.05220000073313713,17,49843.492812012395,0.005492329335005111,1.56109798E9,,,,0,,5,-0.75,1.56109798E9,303.0,NaN,NaN
Raw,231941935981611,648746162000000,,,-1265581155277363324,-0.6719837188720703,38.19918856606819,-53.415516137413405,11.603772653950411,69,10,0.0,16399,383487307327699,8,36.1,143.1620635986328,0.030100001022219658,25,12403.921065893801,0.0011714408558922843,1.56109798E9,,,,0,,5,-0.75,1.56109798E9,303.0,NaN,NaN
Raw,231941935981611,648746162000000,,,-1265581155277363324,-0.6719837188720703,38.19918856606819,-53.415516137413405,11.603772653950411,69,1,0.0,23567,383501355731132,14,30.8,334.6237487792969,0.04540000110864639,25,10190.580089861847,0.005233075867304602,1.57542003E9,,,,0,,6,-0.84,1.57542003E9,303.0,NaN,NaN
Raw,231941935981611,648746162000000,,,-1265581155277363324,-0.6719837188720703,38.19918856606819,-53.415516137413405,11.603772653950411,69,4,0.0,23567,383501353990298,13,31.4,457.6986999511719,0.047600001096725464,25,18527.13206896376,0.004528989424958011,1.57542003E9,,,,0,,6,-0.84,1.57542003E9,303.0,NaN,NaN
Raw,231941935981611,648746162000000,,,-1265581155277363324,-0.6719837188720703,38.19918856606819,-53.415516137413405,11.603772653950411,69,5,0.0,23567,383501353336180,27,24.5,-464.2404479980469,0.6420000195503235,16,0.0,0.0,1.57542003E9,,,,0,,6,-0.84,1.57542003E9,303.0,NaN,NaN
Raw,231941935981611,648746162000000,,,-1265581155277363324,-0.6719837188720703,38.19918856606819,-53.415516137413405,11.603772653950411,69,9,0.0,23567,383501367719453,17,28.8,-5.466808319091797,0.047700002789497375,25,-717.6563656164554,0.006565131413727744,1.57542003E9,,,,0,,6,-0.84,1.57542003E9,303.0,NaN,NaN
Raw,231941935981611,648746162000000,,,-1265581155277363324,-0.6719837188720703,38.19918856606819,-53.415516137413405,11.603772653950411,69,24,0.0,23567,383501356384013,11,33.6,-591.706787109375,0.04520000144839287,25,-8592.9172892915,0.003596550258902148,1.57542003E9,,,,0,,6,-0.84,1.57542003E9,303.0,NaN,NaN
Raw,231941935981611,648746162000000,,,-1265581155277363324,-0.6719837188720703,38.19918856606819,-53.415516137413405,11.603772653950411,69,31,0.0,23567,383501360239868,9,35.6,-213.17111206054688,0.04410000145435333,25,-1810.4143724417156,0.0028924638165555576,1.57542003E9,,,,0,,6,-0.84,1.57542003E9,303.0,NaN,NaN
Raw,231941935981611,648746162000000,,,-1265581155277363324,-0.6719837188720703,38.19918856606819,-53.415516137413405,11.603772653950411,69,30,0.0,81935,383501362572620,8,23.8,553.0194091796875,0.03720000013709068,29,44283.234517593766,0.25482803839368795,1.17645005E9,,,,0,,1,-0.88,1.17645005E9,303.0,NaN,NaN
Raw,231941935981611,648746162000000,,,-1265581155277363324,-0.6719837188720703,38.19918856606819,-53.415516137413405,11.603772653950411,69,1,0.0,81935,383501355738235,6,26.3,334.1412048339844,0.06459999829530716,29,26965.50889869913,0.007288081858568245,1.17645005E9,,,,0,,6,-0.88,1.17645005E9,303.0,NaN,NaN
Raw,231941935981611,648746162000000,,,-1265581155277363324,-0.6719837188720703,38.19918856606819,-53.415516137413405,11.603772653950411,69,4,0.0,81935,383501353997382,11,19.1,458.7923889160156,0.9359999895095825,16,0.0,0.0,1.17645005E9,,,,0,,6,-0.88,1.17645005E9,303.0,NaN,NaN
Raw,231941935981611,648746162000000,,,-1265581155277363324,-0.6719837188720703,38.19918856606819,-53.415516137413405,11.603772653950411,69,5,0.0,81935,383501353343311,11,19.4,-464.61279296875,0.16939999163150787,29,-37849.88555803921,0.25482803839368795,1.17645005E9,,,,0,,6,-0.88,1.17645005E9,303.0,NaN,NaN
Raw,231941935981611,648746162000000,,,-1265581155277363324,-0.6719837188720703,38.19918856606819,-53.415516137413405,11.603772653950411,69,9,0.0,81935,383501367726561,10,20.0,-6.013941764831543,0.8569999933242798,16,0.0,0.0,1.17645005E9,,,,0,,6,-0.88,1.17645005E9,303.0,NaN,NaN
Raw,231941935981611,648746162000000,,,-1265581155277363324,-0.6719837188720703,38.19918856606819,-53.415516137413405,11.603772653950411,69,24,0.0,81935,383501356391044,11,19.5,-592.0029296875,0.17389999330043793,27,-47657.64535937584,0.34557229348499413,1.17645005E9,,,,0,,6,-0.88,1.17645005E9,303.0,NaN,NaN
Raw,231941935981611,648746162000000,,,-1265581155277363324,-0.6719837188720703,38.19918856606819,-53.415516137413405,11.603772653950411,69,31,0.0,81935,383501360246950,5,28.0,-213.6471710205078,0.03310000151395798,25,-17634.392875420537,0.0040262828122019055,1.17645005E9,,,,0,,6,-0.88,1.17645005E9,303.0,NaN,NaN
Fix,gps,51.524539,-0.134171,71.103699,0.000000,3.790092,1582194685000,231942897552592
Raw,231942967427964,648747162000000,,,-1265581155277363387,-0.4058723449707031,50.92577339382842,-58.09447837578976,23.32193820706431,69,5,0.0,16399,383502359845784,31,23.6,690.0143432617188,0.7249999642372131,16,0.0,0.0,1.57542003E9,,,,0,,1,-2.04,1.57542003E9,303.0,NaN,NaN
Raw,231942967427964,648747162000000,,,-1265581155277363387,-0.4058723449707031,50.92577339382842,-58.09447837578976,23.32193820706431,69,13,0.0,16399,383502371797651,11,33.3,139.1952362060547,0.037700001150369644,25,12427.049666459157,0.001655554942969963,1.57542003E9,,,,0,,1,-2.04,1.57542003E9,303.0,NaN,NaN
Raw,231942967427964,648747162000000,,,-1265581155277363387,-0.4058723449707031,50.92577339382842,-58.09447837578976,23.32193820706431,69,15,0.0,16399,383502371376383,24,25.6,-202.29949951171875,0.049800001084804535,19,-17722.051287380185,0.19029366893311156,1.57542003E9,,,,0,,1,-2.04,1.57542003E9,303.0,NaN,NaN
Raw,231942967427964,648747162000000,,,-1265581155277363387,-0.4058723449707031,50.92577339382842,-58.09447837578976,23.32193820706431,69,17,0.0,16399,383502355774533,46,20.9,-581.1188354492188,0.8689999580383301,16,0.0,0.0,1.57542003E9,,,,0,,1,-2.04,1.57542003E9,303.0,NaN,NaN
Raw,231942967427964,648747162000000,,,-1265581155277363387,-0.4058723449707031,50.92577339382842,-58.09447837578976,23.32193820706431,69,20,0.0,16399,383502361944781,21,26.2,-447.5611877441406,0.578000009059906,16,0.0,0.0,1.57542003E9,,,,0,,1,-2.04,1.57542003E9,303.0,NaN,NaN
Raw,231942967427964,648747162000000,,,-1265581155277363387,-0.4058723449707031,50.92577339382842,-58.09447837578976,23.32193820706431,69,28,0.0,16399,383502368109051,6,38.9,93.83060455322266,0.03110000118613243,25,8357.184408248113,9.324389888310735E-4,1.57542003E9,,,,0,,1,-2.04,1.57542003E9,303.0,NaN,NaN
Raw,231942967427964,648747162000000,,,-1265581155277363387,-0.4058723449707031,50.92577339382842,-58.09447837578976,23.32193820706431,69,30,0.0,16399,383502362562958,11,33.7,546.7890014648438,0.02420000173151493,25,48804.03964492409,0.001655554942969963,1.57542003E9,,,,0,,1,-2.04,1.57542003E9,303.0,NaN,NaN
Raw,231942967427964,648747162000000,,,-1265581155277363387,-0.4058723449707031,50.92577339382842,-58.09447837578976,23.32193820706431,69,14,0.0,49359,48684375354201,21,26.8,-140.80126953125,0.7489999532699585,16,0.0,0.0,1.59806246E9,,,,0,,3,-5.12,1.59806246E9,303.0,NaN,NaN
Raw,231942967427964,648747162000000,,,-1265581155277363387,-0.4058723449707031,50.92577339382842,-58.09447837578976,23.32193820706431,69,22,0.0,49359,48684361403187,21,26.4,-286.6112060546875,0.7279999852180481,16,0.0,0.0,1.60031245E9,,,,0,,3,-5.12,1.60031245E9,303.0,NaN,NaN
Raw,231942967427964,648747162000000,,,-1265581155277363387,-0.4058723449707031,50.92577339382842,-58.09447837578976,23.32193820706431,69,13,0.0,49359,48684369663809,24,25.0,573.4267578125,0.2468000054359436,29,50954.73085349541,0.18726787319550683,1.60087501E9,,,,0,,3,-5.12,1.60087501E9,303.0,NaN,NaN
Raw,231942967427964,648747162000000,,,-1265581155277363387,-0.4058723449707031,50.92577339382842,-58.09447837578976,23.32193820706431,69,15,0.0,49359,48684365981999,9,35.6,-727.3134765625,0.22760000824928284,29,-63907.03978374121,0.001309954600983276,1.602E9,,,,0,,3,-5.12,1.602E9,303.0,NaN,NaN
Raw,231942967427964,648747162000000,,,-1265581155277363387,-0.4058723449707031,50.92577339382842,-58.09447837578976,23.32193820706431,69,5,0.0,49359,48684369083390,8,36.4,-641.3184204101562,0.23309999704360962,25,-56397.49633980763,0.0011411310885165566,1.60256256E9,,,,0,,3,-5.12,1.60256256E9,303.0,NaN,NaN
Raw,231942967427964,648747162000000,,,-1265581155277363387,-0.4058723449707031,50.92577339382842,-58.09447837578976,23.32193820706431,69,3,0.0,49359,48684366681130,21,26.7,707.359375,0.7354999780654907,16,0.0,0.0,1.60481254E9,,,,0,,3,-5.12,1.60481254E9,303.0,NaN,NaN
Raw,231942967427964,648747162000000,,,-1265581155277363387,-0.4058723449707031,50.92577339382842,-58.09447837578976,23.32193820706431,69,4,0.0,49359,48684375262590,13,31.9,84.74036407470703,0.24459999799728394,25,7375.402732783261,0.002035498169654846,1.60537498E9,,,,0,,3,-5.12,1.60537498E9,303.0,NaN,NaN
Raw,231942967427964,648747162000000,,,-1265581155277363387,-0.4058723449707031,50.92577339382842,-58.09447837578976,23.32193820706431,69,37,0.0,16399,383488360773936,13,31.3,426.5028381347656,0.022099999710917473,25,37153.99839277583,0.0020932304434118673,1.56109798E9,,,,0,,5,-5.17,1.56109798E9,303.0,NaN,NaN
Raw,231942967427964,648747162000000,,,-1265581155277363387,-0.4058723449707031,50.92577339382842,-58.09447837578976,23.32193820706431,69,22,0.0,16399,383488358576281,31,23.1,-474.760009765625,0.7534999847412109,16,0.0,0.0,1.56109798E9,,,,0,,5,-5.17,1.56109798E9,303.0,NaN,NaN
Raw,231942967427964,648747162000000,,,-1265581155277363387,-0.4058723449707031,50.92577339382842,-58.09447837578976,23.32193820706431,69,20,0.0,16399,383488357719364,24,25.9,587.8232421875,0.6019999980926514,16,0.0,0.0,1.56109798E9,,,,0,,5,-5.17,1.56109798E9,303.0,NaN,NaN
Raw,231942967427964,648747162000000,,,-1265581155277363387,-0.4058723449707031,50.92577339382842,-58.09447837578976,23.32193820706431,69,10,0.0,16399,383488307327236,14,30.2,136.86212158203125,0.033400002866983414,25,12544.000697651865,0.0024196975554572116,1.56109798E9,,,,0,,5,-5.17,1.56109798E9,303.0,NaN,NaN
Raw,231942967427964,648747162000000,,,-1265581155277363387,-0.4058723449707031,50.92577339382842,-58.09447837578976,23.32193820706431,69,1,0.0,23567,383502355730031,19,27.9,328.4693298339844,0.04830000177025795,25,10521.976140138584,0.007212130206821385,1.57542003E9,,,,0,,6,-2.37,1.57542003E9,303.0,NaN,NaN
Raw,231942967427964,648747162000000,,,-1265581155277363387,-0.4058723449707031,50.92577339382842,-58.09447837578976,23.32193820706431,69,4,0.0,23567,383502353988767,14,30.5,451.6614074707031,0.04840000346302986,25,18981.625732036155,0.005233075867304602,1.57542003E9,,,,0,,6,-2.37,1.57542003E9,303.0,NaN,NaN
Raw,231942967427964,648747162000000,,,-1265581155277363387,-0.4058723449707031,50.92577339382842,-58.09447837578976,23.32193820706431,69,5,0.0,23567,383502353337788,24,25.2,-470.52386474609375,0.058800000697374344,19,-20253.17144075345,0.017526047264890512,1.57542003E9,,,,0,,6,-2.37,1.57542003E9,303.0,NaN,NaN
Raw,231942967427964,648747162000000,,,-1265581155277363387,-0.4058723449707031,50.92577339382842,-58.09447837578976,23.32193820706431,69,9,0.0,23567,383502367719495,21,26.2,-11.594325065612793,0.04920000210404396,21,-726.3808000587065,0.011874324619302384,1.57542003E9,,,,0,,6,-2.37,1.57542003E9,303.0,NaN,NaN
Raw,231942967427964,648747162000000,,,-1265581155277363387,-0.4058723449707031,50.92577339382842,-58.09447837578976,23.32193820706431,69,24,0.0,23567,383502356385980,14,30.3,-597.6984252929688,0.04690000042319298,25,-9187.826861198442,0.005233075867304602,1.57542003E9,,,,0,,6,-2.37,1.57542003E9,303.0,NaN,NaN
Raw,231942967427964,648747162000000,,,-1265581155277363387,-0.4058723449707031,50.92577339382842,-58.09447837578976,23.32193820706431,69,31,0.0,23567,383502360240601,10,34.3,-219.19558715820312,0.044600002467632294,25,-2026.7477577337909,0.003311109885939926,1.57542003E9,,,,0,,6,-2.37,1.57542003E9,303.0,NaN,NaN
Raw,231942967427964,648747162000000,,,-1265581155277363387,-0.4058723449707031,50.92577339382842,-58.09447837578976,23.32193820706431,69,30,0.0,81935,383502362570787,11,19.9,545.956298828125,0.9194999933242798,16,0.0,0.0,1.17645005E9,,,,0,,1,-2.4,1.17645005E9,303.0,NaN,NaN
Raw,231942967427964,648747162000000,,,-1265581155277363387,-0.4058723449707031,50.92577339382842,-58.09447837578976,23.32193820706431,69,1,0.0,81935,383502355737136,8,23.0,328.6517333984375,0.6889999508857727,16,0.0,0.0,1.17645005E9,,,,0,,6,-2.4,1.17645005E9,303.0,NaN,NaN
Raw,231942967427964,648747162000000,,,-1265581155277363387,-0.4058723449707031,50.92577339382842,-58.09447837578976,23.32193820706431,69,4,0.0,81935,383502353995875,10,20.1,451.81011962890625,0.8659999966621399,16,0.0,0.0,1.17645005E9,,,,0,,6,-2.4,1.17645005E9,303.0,NaN,NaN
Raw,231942967427964,648747162000000,,,-1265581155277363387,-0.4058723449707031,50.92577339382842,-58.09447837578976,23.32193820706431,69,31,0.0,81935,383502360247665,9,21.3,-218.39273071289062,0.04540000110864639,29,-17849.61500751608,0.34557229348499413,1.17645005E9,,,,0,,6,-2.4,1.17645005E9,303.0,NaN,NaN
Fix,gps,51.524538,-0.134172,71.518921,0.000000,3.790092,1582194686000,231943898149307
Raw,231943948194624,648748162000000,,,-1265581155277363464,-0.6832942962646484,56.02192322839983,-70.38337415206051,28.24762137072771,69,5,0.0,16399,383503359843553,70,17.4,694.6099243164062,1.1649999618530273,16,0.0,0.0,1.57542003E9,,,,0,,1,-2.18,1.57542003E9,303.0,NaN,NaN
Raw,231943948194624,648748162000000,,,-1265581155277363464,-0.6832942962646484,56.02192322839983,-70.38337415206051,28.24762137072771,69,13,0.0,16399,383503371797139,11,33.3,145.85987854003906,0.037700001150369644,25,12568.860629893137,0.001655554942969963,1.57542003E9,,,,0,,1,-2.18,1.57542003E9,303.0,NaN,NaN
Raw,231943948194624,648748162000000,,,-1265581155277363464,-0.6832942962646484,56.02192322839983,-70.38337415206051,28.24762137072771,69,15,0.0,16399,383503371377045,17,28.9,-195.61239624023438,0.4729999899864197,16,0.0,0.0,1.57542003E9,,,,0,,1,-2.18,1.57542003E9,303.0,NaN,NaN
Raw,231943948194624,648748162000000,,,-1265581155277363464,-0.6832942962646484,56.02192322839983,-70.38337415206051,28.24762137072771,69,17,0.0,16399,383503355776358,40,21.9,-573.2406616210938,0.8089999556541443,16,0.0,0.0,1.57542003E9,,,,0,,1,-2.18,1.57542003E9,303.0,NaN,NaN
Raw,231943948194624,648748162000000,,,-1265581155277363464,-0.6832942962646484,56.02192322839983,-70.38337415206051,28.24762137072771,69,20,0.0,16399,383503361946340,9,35.1,-440.6271667480469,0.02160000056028366,19,-39881.834489566565,0.0013320557236479321,1.57542003E9,,,,0,,1,-2.18,1.57542003E9,303.0,NaN,NaN
Raw,231943948194624,648748162000000,,,-1265581155277363464,-0.6832942962646484,56.02192322839983,-70.38337415206051,28.24762137072771,69,28,0.0,16399,383503368108737,6,38.4,100.5125961303711,0.03110000118613243,25,8453.611677202145,9.324389888310735E-4,1.57542003E9,,,,0,,1,-2.18,1.57542003E9,303.0,NaN,NaN
Raw,231943948194624,648748162000000,,,-1265581155277363464,-0.6832942962646484,56.02192322839983,-70.38337415206051,28.24762137072771,69,30,0.0,16399,383503362561103,9,35.7,553.4520874023438,0.023100001737475395,25,49353.38850404297,0.0013320557236479321,1.57542003E9,,,,0,,1,-2.18,1.57542003E9,303.0,NaN,NaN
Raw,231943948194624,648748162000000,,,-1265581155277363464,-0.6832942962646484,56.02192322839983,-70.38337415206051,28.24762137072771,69,14,0.0,49359,48685375354742,17,28.9,-134.52793884277344,0.24770000576972961,19,-12651.157959240187,0.0029640397133290693,1.59806246E9,,,,0,,3,-5.13,1.59806246E9,303.0,NaN,NaN
Raw,231943948194624,648748162000000,,,-1265581155277363464,-0.6832942962646484,56.02192322839983,-70.38337415206051,28.24762137072771,69,22,0.0,49359,48685361404388,53,19.0,-280.4385681152344,1.1180000305175781,16,0.0,0.0,1.60031245E9,,,,0,,3,-5.13,1.60031245E9,303.0,NaN,NaN
Raw,231943948194624,648748162000000,,,-1265581155277363464,-0.6832942962646484,56.02192322839983,-70.38337415206051,28.24762137072771,69,13,0.0,49359,48685369661847,46,20.3,582.1221923828125,1.0600000619888306,16,0.0,0.0,1.60087501E9,,,,0,,3,-5.13,1.60087501E9,303.0,NaN,NaN
Raw,231943948194624,648748162000000,,,-1265581155277363464,-0.6832942962646484,56.02192322839983,-70.38337415206051,28.24762137072771,69,15,0.0,49359,48685365984400,21,26.1,-722.692626953125,0.7339999675750732,16,0.0,0.0,1.602E9,,,,0,,3,-5.13,1.602E9,303.0,NaN,NaN
Raw,231943948194624,648748162000000,,,-1265581155277363464,-0.6832942962646484,56.02192322839983,-70.38337415206051,28.24762137072771,69,5,0.0,49359,48685369085505,9,35.1,-634.6512451171875,0.23360000550746918,25,-57036.24482480109,0.0013094947574310036,1.60256256E9,,,,0,,3,-5.13,1.60256256E9,303.0,NaN,NaN
Raw,231943948194624,648748162000000,,,-1265581155277363464,-0.6832942962646484,56.02192322839983,-70.38337415206051,28.24762137072771,69,3,0.0,49359,48685366678747,12,32.8,713.4447021484375,0.2305999994277954,19,63238.776758812935,0.0017746797095208008,1.60481254E9,,,,0,,3,-5.13,1.60481254E9,303.0,NaN,NaN
Raw,231943948194624,648748162000000,,,-1265581155277363464,-0.6832942962646484,56.02192322839983,-70.38337415206051,28.24762137072771,69,4,0.0,49359,48685375262287,13,31.2,91.37288665771484,0.24459999799728394,25,7462.767953490347,0.002035498169654846,1.60537498E9,,,,0,,3,-5.13,1.60537498E9,303.0,NaN,NaN
Raw,231943948194624,648748162000000,,,-1265581155277363464,-0.6832942962646484,56.02192322839983,-70.38337415206051,28.24762137072771,69,37,0.0,16399,383489360772500,12,32.0,433.1680908203125,0.02160000056028366,25,37583.064296389246,0.0018243750799829725,1.56109798E9,,,,0,,5,-4.97,1.56109798E9,303.0,NaN,NaN
Raw,231943948194624,648748162000000,,,-1265581155277363464,-0.6832942962646484,56.02192322839983,-70.38337415206051,28.24762137072771,69,22,0.0,16399,383489358577875,40,21.7,-468.9796447753906,0.8134999871253967,16,0.0,0.0,1.56109798E9,,,,0,,5,-4.97,1.56109798E9,303.0,NaN,NaN
Raw,231943948194624,648748162000000,,,-1265581155277363464,-0.6832942962646484,56.02192322839983,-70.38337415206051,28.24762137072771,69,20,0.0,16399,383489357717390,35,22.5,594.2608642578125,0.4072999954223633,19,51026.876447270144,0.1920394882785269,1.56109798E9,,,,0,,5,-4.97,1.56109798E9,303.0,NaN,NaN
Raw,231943948194624,648748162000000,,,-1265581155277363464,-0.6832942962646484,56.02192322839983,-70.38337415206051,28.24762137072771,69,10,0.0,16399,383489307326783,16,29.9,143.43310546875,0.03440000116825104,25,12683.37365826408,0.0028421844273806814,1.56109798E9,,,,0,,5,-4.97,1.56109798E9,303.0,NaN,NaN
Raw,231943948194624,648748162000000,,,-1265581155277363464,-0.6832942962646484,56.02192322839983,-70.38337415206051,28.24762137072771,69,1,0.0,23567,383503355728929,10,34.9,334.54095458984375,0.04310000315308571,25,10852.825465607097,0.003311109885939926,1.57542003E9,,,,0,,6,-2.51,1.57542003E9,303.0,NaN,NaN
Raw,231943948194624,648748162000000,,,-1265581155277363464,-0.6832942962646484,56.02192322839983,-70.38337415206051,28.24762137072771,69,4,0.0,23567,383503353987277,16,29.1,457.6895751953125,0.049400001764297485,25,19435.705803357032,0.006146485344343376,1.57542003E9,,,,0,,6,-2.51,1.57542003E9,303.0,NaN,NaN
Raw,231943948194624,648748162000000,,,-1265581155277363464,-0.6832942962646484,56.02192322839983,-70.38337415206051,28.24762137072771,69,5,0.0,23567,383503353339284,24,25.4,-464.3871765136719,0.058800000697374344,21,-20721.310074951696,0.017526047264890512,1.57542003E9,,,,0,,6,-2.51,1.57542003E9,303.0,NaN,NaN
Raw,231943948194624,648748162000000,,,-1265581155277363464,-0.6832942962646484,56.02192322839983,-70.38337415206051,28.24762137072771,69,9,0.0,23567,383503367719507,19,27.0,-5.375931262969971,0.04830000177025795,25,-735.3681813288304,0.007212130206821385,1.57542003E9,,,,0,,6,-2.51,1.57542003E9,303.0,NaN,NaN
Raw,231943948194624,648748162000000,,,-1265581155277363464,-0.6832942962646484,56.02192322839983,-70.38337415206051,28.24762137072771,69,24,0.0,23567,383503356387939,35,22.8,-591.8132934570312,0.750499963760376,16,0.0,0.0,1.57542003E9,,,,0,,6,-2.51,1.57542003E9,303.0,NaN,NaN
Raw,231943948194624,648748162000000,,,-1265581155277363464,-0.6832942962646484,56.02192322839983,-70.38337415206051,28.24762137072771,69,31,0.0,23567,383503360241309,10,34.8,-213.0959014892578,0.044600002467632294,25,-2243.520682947858,0.003311109885939926,1.57542003E9,,,,0,,6,-2.51,1.57542003E9,303.0,NaN,NaN
Raw,231943948194624,648748162000000,,,-1265581155277363464,-0.6832942962646484,56.02192322839983,-70.38337415206051,28.24762137072771,69,1,0.0,81935,383503355736028,5,27.1,335.67889404296875,0.058500003069639206,27,27633.935836192126,0.004332076888121183,1.17645005E9,,,,0,,6,-0.7,1.17645005E9,303.0,NaN,NaN
Raw,231943948194624,648748162000000,,,-1265581155277363464,-0.6832942962646484,56.02192322839983,-70.38337415206051,28.24762137072771,69,4,0.0,81935,383503353994345,11,19.6,457.1360168457031,0.9359999895095825,16,0.0,0.0,1.17645005E9,,,,0,,6,-0.7,1.17645005E9,303.0,NaN,NaN
Raw,231943948194624,648748162000000,,,-1265581155277363464,-0.6832942962646484,56.02192322839983,-70.38337415206051,28.24762137072771,69,5,0.0,81935,383503353346433,10,20.2,-464.6152038574219,1.6160000562667847,16,0.0,0.0,1.17645005E9,,,,0,,6,-0.7,1.17645005E9,303.0,NaN,NaN
Raw,231943948194624,648748162000000,,,-1265581155277363464,-0.6832942962646484,56.02192322839983,-70.38337415206051,28.24762137072771,69,24,0.0,81935,383503356395038,16,16.8,-594.88330078125,1.8504999876022339,16,0.0,0.0,1.17645005E9,,,,0,,6,-0.7,1.17645005E9,303.0,NaN,NaN
Raw,231943948194624,648748162000000,,,-1265581155277363464,-0.6832942962646484,56.02192322839983,-70.38337415206051,28.24762137072771,69,31,0.0,81935,383503360248406,11,19.6,-212.6794891357422,0.9164999723434448,16,0.0,0.0,1.17645005E9,,,,0,,6,-0.7,1.17645005E9,303.0,NaN,NaN
Fix,gps,51.524537,-0.134175,71.921814,0.000000,3.790092,1582194687000,231944908931386
Raw,231944927148003,648749162000000,,,-1265581155277363514,-0.33396339416503906,44.67207327252254,-57.605063816938184,18.5493414361399,69,5,0.0,16399,383504359841241,40,21.0,696.436767578125,0.8449999690055847,16,0.0,0.0,1.57542003E9,,,,0,,1,-2.25,1.57542003E9,303.0,NaN,NaN
Raw,231944927148003,648749162000000,,,-1265581155277363514,-0.33396339416503906,44.67207327252254,-57.605063816938184,18.5493414361399,69,13,0.0,16399,383504371796659,11,33.6,145.96803283691406,0.037700001150369644,25,12716.020565746874,0.001655554942969963,1.57542003E9,,,,0,,1,-2.25,1.57542003E9,303.0,NaN,NaN
Raw,231944927148003,648749162000000,,,-1265581155277363514,-0.33396339416503906,44.67207327252254,-57.605063816938184,18.5493414361399,69,15,0.0,16399,383504371377678,14,30.7,-195.90872192382812,0.039400000125169754,19,-18118.467955704084,0.002397700231676362,1.57542003E9,,,,0,,1,-2.25,1.57542003E9,303.0,NaN,NaN
Raw,231944927148003,648749162000000,,,-1265581155277363514,-0.33396339416503906,44.67207327252254,-57.605063816938184,18.5493414361399,69,17,0.0,16399,383504355778381,40,21.5,-574.6392822265625,0.8689999580383301,16,0.0,0.0,1.57542003E9,,,,0,,1,-2.25,1.57542003E9,303.0,NaN,NaN
Raw,231944927148003,648749162000000,,,-1265581155277363514,-0.33396339416503906,44.67207327252254,-57.605063816938184,18.5493414361399,69,20,0.0,16399,383504361947807,8,36.2,-440.5412292480469,0.02110000140964985,17,-40321.15893296134,0.001160791358090767,1.57542003E9,,,,0,,1,-2.25,1.57542003E9,303.0,NaN,NaN
Raw,231944927148003,648749162000000,,,-1265581155277363514,-0.33396339416503906,44.67207327252254,-57.605063816938184,18.5493414361399,69,24,0.0,16399,383504362571333,46,20.9,-632.1365966796875,0.840499997138977,16,0.0,0.0,1.57542003E9,,,,0,,1,-2.25,1.57542003E9,303.0,NaN,NaN
Raw,231944927148003,648749162000000,,,-1265581155277363514,-0.33396339416503906,44.67207327252254,-57.605063816938184,18.5493414361399,69,28,0.0,16399,383504368108397,6,39.5,100.65370178222656,0.030800001695752144,25,8555.440650111877,8.372921387687362E-4,1.57542003E9,,,,0,,1,-2.25,1.57542003E9,303.0,NaN,NaN
Raw,231944927148003,648749162000000,,,-1265581155277363514,-0.33396339416503906,44.67207327252254,-57.605063816938184,18.5493414361399,69,30,0.0,16399,383504362559256,8,36.6,553.4832763671875,0.022600000724196434,25,49908.09224629797,0.001160791358090767,1.57542003E9,,,,0,,1,-2.25,1.57542003E9,303.0,NaN,NaN
Raw,231944927148003,648749162000000,,,-1265581155277363514,-0.33396339416503906,44.67207327252254,-57.605063816938184,18.5493414361399,69,14,0.0,49359,48686375355201,17,28.0,-134.31520080566406,0.24770000576972961,29,-12784.154177760576,0.0029640397133290693,1.59806246E9,,,,0,,3,-5.16,1.59806246E9,303.0,NaN,NaN
Raw,231944927148003,648749162000000,,,-1265581155277363514,-0.33396339416503906,44.67207327252254,-57.605063816938184,18.5493414361399,69,22,0.0,49359,48686361405279,53,19.1,-279.7922668457031,1.1180000305175781,16,0.0,0.0,1.60031245E9,,,,0,,3,-5.16,1.60031245E9,303.0,NaN,NaN
Raw,231944927148003,648749162000000,,,-1265581155277363514,-0.33396339416503906,44.67207327252254,-57.605063816938184,18.5493414361399,69,13,0.0,49359,48686369660070,46,20.6,581.494873046875,1.0600000619888306,16,0.0,0.0,1.60087501E9,,,,0,,3,-5.16,1.60087501E9,303.0,NaN,NaN
Raw,231944927148003,648749162000000,,,-1265581155277363514,-0.33396339416503906,44.67207327252254,-57.605063816938184,18.5493414361399,69,15,0.0,49359,48686365987217,61,18.7,-721.3358764648438,1.2040001153945923,16,0.0,0.0,1.602E9,,,,0,,3,-5.16,1.602E9,303.0,NaN,NaN
Raw,231944927148003,648749162000000,,,-1265581155277363514,-0.33396339416503906,44.67207327252254,-57.605063816938184,18.5493414361399,69,5,0.0,49359,48686369087628,9,35.7,-634.4788818359375,0.23360000550746918,25,-57669.55338352208,0.0013094947574310036,1.60256256E9,,,,0,,3,-5.16,1.60256256E9,303.0,NaN,NaN
Raw,231944927148003,648749162000000,,,-1265581155277363514,-0.33396339416503906,44.67207327252254,-57.605063816938184,18.5493414361399,69,3,0.0,49359,48686366676335,11,33.3,713.3695678710938,0.23020000755786896,25,63953.40182240917,0.0016252330722257222,1.60481254E9,,,,0,,3,-5.16,1.60481254E9,303.0,NaN,NaN
Raw,231944927148003,648749162000000,,,-1265581155277363514,-0.33396339416503906,44.67207327252254,-57.605063816938184,18.5493414361399,69,4,0.0,49359,48686375262008,12,32.9,91.59500885009766,0.24410000443458557,25,7555.519160243135,0.0017740579627804397,1.60537498E9,,,,0,,3,-5.16,1.60537498E9,303.0,NaN,NaN
Raw,231944927148003,648749162000000,,,-1265581155277363514,-0.33396339416503906,44.67207327252254,-57.605063816938184,18.5493414361399,69,37,0.0,16399,383490360771051,11,33.1,433.2149658203125,0.02120000123977661,25,38017.50570384753,0.0016707435714883973,1.56109798E9,,,,0,,5,-4.87,1.56109798E9,303.0,NaN,NaN
Raw,231944927148003,648749162000000,,,-1265581155277363514,-0.33396339416503906,44.67207327252254,-57.605063816938184,18.5493414361399,69,22,0.0,16399,383490358579465,61,18.9,-468.91241455078125,1.0234999656677246,16,0.0,0.0,1.56109798E9,,,,0,,5,-4.87,1.56109798E9,303.0,NaN,NaN
Raw,231944927148003,648749162000000,,,-1265581155277363514,-0.33396339416503906,44.67207327252254,-57.605063816938184,18.5493414361399,69,10,0.0,16399,383490307326295,14,30.3,143.550048828125,0.033400002866983414,25,12828.153008412593,0.0024196975554572116,1.56109798E9,,,,0,,5,-4.87,1.56109798E9,303.0,NaN,NaN
Raw,231944927148003,648749162000000,,,-1265581155277363514,-0.33396339416503906,44.67207327252254,-57.605063816938184,18.5493414361399,69,1,0.0,23567,383504355727812,8,36.1,335.1556701660156,0.042100001126527786,25,11189.076989408128,0.0025499350854412276,1.57542003E9,,,,0,,6,-2.56,1.57542003E9,303.0,NaN,NaN
Raw,231944927148003,648749162000000,,,-1265581155277363514,-0.33396339416503906,44.67207327252254,-57.605063816938184,18.5493414361399,69,4,0.0,23567,383504353985725,19,27.9,458.10302734375,0.05130000039935112,21,19894.873231747264,0.007212130206821385,1.57542003E9,,,,0,,6,-2.56,1.57542003E9,303.0,NaN,NaN
Raw,231944927148003,648749162000000,,,-1265581155277363514,-0.33396339416503906,44.67207327252254,-57.605063816938184,18.5493414361399,69,5,0.0,23567,383504353340810,27,24.8,-463.2509460449219,0.6420000195503235,16,0.0,0.0,1.57542003E9,,,,0,,6,-2.56,1.57542003E9,303.0,NaN,NaN
Raw,231944927148003,648749162000000,,,-1265581155277363514,-0.33396339416503906,44.67207327252254,-57.605063816938184,18.5493414361399,69,9,0.0,23567,383504367719479,24,25.7,-4.86439847946167,0.055800002068281174,21,-739.24892698412,0.017526047264890512,1.57542003E9,,,,0,,6,-2.56,1.57542003E9,303.0,NaN,NaN
Raw,231944927148003,648749162000000,,,-1265581155277363514,-0.33396339416503906,44.67207327252254,-57.605063816938184,18.5493414361399,69,24,0.0,23567,383504356389907,53,19.0,-592.4127807617188,1.0205000638961792,16,0.0,0.0,1.57542003E9,,,,0,,6,-2.56,1.57542003E9,303.0,NaN,NaN
Raw,231944927148003,648749162000000,,,-1265581155277363514,-0.33396339416503906,44.67207327252254,-57.605063816938184,18.5493414361399,69,31,0.0,23567,383504360242042,10,34.3,-212.55038452148438,0.044600002467632294,25,-2454.9810241453188,0.003311109885939926,1.57542003E9,,,,0,,6,-2.56,1.57542003E9,303.0,NaN,NaN
Raw,231944927148003,648749162000000,,,-1265581155277363514,-0.33396339416503906,44.67207327252254,-57.605063816938184,18.5493414361399,69,30,0.0,81935,383504362567104,14,17.6,555.2830200195312,1.8294999599456787,16,0.0,0.0,1.17645005E9,,,,0,,1,-2.48,1.17645005E9,303.0,NaN,NaN
Raw,231944927148003,648749162000000,,,-1265581155277363514,-0.33396339416503906,44.67207327252254,-57.605063816938184,18.5493414361399,69,1,0.0,81935,383504355734909,6,25.4,335.6452941894531,0.07699999958276749,25,27970.196065333912,0.010753742989341824,1.17645005E9,,,,0,,6,-2.48,1.17645005E9,303.0,NaN,NaN
Raw,231944927148003,648749162000000,,,-1265581155277363514,-0.33396339416503906,44.67207327252254,-57.605063816938184,18.5493414361399,69,4,0.0,81935,383504353992814,11,19.4,458.0926818847656,0.16939999163150787,27,38404.932116535536,0.34557229348499413,1.17645005E9,,,,0,,6,-2.48,1.17645005E9,303.0,NaN,NaN
Raw,231944927148003,648749162000000,,,-1265581155277363514,-0.33396339416503906,44.67207327252254,-57.605063816938184,18.5493414361399,69,5,0.0,81935,383504353347981,9,21.5,-463.9151306152344,0.0649000033736229,27,-39240.41580620341,0.25482803839368795,1.17645005E9,,,,0,,6,-2.48,1.17645005E9,303.0,NaN,NaN
Raw,231944927148003,648749162000000,,,-1265581155277363514,-0.33396339416503906,44.67207327252254,-57.605063816938184,18.5493414361399,69,31,0.0,81935,383504360249109,12,18.4,-211.67291259765625,0.9965000152587891,16,0.0,0.0,1.17645005E9,,,,0,,6,-2.48,1.17645005E9,303.0,NaN,NaN
Fix,gps,51.524538,-0.134170,74.645386,0.520000,3.790092,1582194688000,231945896571589
Raw,231945950637792,648750162000000,,,-1265581155277363572,-0.47829437255859375,48.34705396206118,-57.1950817022499,22.761567285245786,69,5,0.0,16399,383505359839005,31,23.3,691.8411865234375,0.7249999642372131,16,0.0,0.0,1.57542003E9,,,,0,,1,-3.55,1.57542003E9,303.0,NaN,NaN
Raw,231945950637792,648750162000000,,,-1265581155277363572,-0.47829437255859375,48.34705396206118,-57.1950817022499,22.761567285245786,69,13,0.0,16399,383505371796145,7,37.9,142.41404724121094,0.03590000048279762,25,12859.292939588544,0.0010085564157135064,1.57542003E9,,,,0,,1,-3.55,1.57542003E9,303.0,NaN,NaN
Raw,231945950637792,648750162000000,,,-1265581155277363572,-0.47829437255859375,48.34705396206118,-57.1950817022499,22.761567285245786,69,15,0.0,16399,383505371378374,13,31.4,-199.6303253173828,0.038600001484155655,21,-18317.12260735388,0.002074201012354331,1.57542003E9,,,,0,,1,-3.55,1.57542003E9,303.0,NaN,NaN
Raw,231945950637792,648750162000000,,,-1265581155277363572,-0.47829437255859375,48.34705396206118,-57.1950817022499,22.761567285245786,69,20,0.0,16399,383505361949280,13,31.3,-444.1878967285156,0.023600000888109207,21,-40764.296488925625,0.002074201012354331,1.57542003E9,,,,0,,1,-3.55,1.57542003E9,303.0,NaN,NaN
Raw,231945950637792,648750162000000,,,-1265581155277363572,-0.47829437255859375,48.34705396206118,-57.1950817022499,22.761567285245786,69,28,0.0,16399,383505368108056,8,36.0,97.31695556640625,0.03160000219941139,25,8653.528255219317,0.001160791358090767,1.57542003E9,,,,0,,1,-3.55,1.57542003E9,303.0,NaN,NaN
Raw,231945950637792,648750162000000,,,-1265581155277363572,-0.47829437255859375,48.34705396206118,-57.1950817022499,22.761567285245786,69,30,0.0,16399,383505362557409,12,32.8,550.2918090820312,0.02460000105202198,25,50459.09468140379,0.001807789796734829,1.57542003E9,,,,0,,1,-3.55,1.57542003E9,303.0,NaN,NaN
Raw,231945950637792,648750162000000,,,-1265581155277363572,-0.47829437255859375,48.34705396206118,-57.1950817022499,22.761567285245786,69,14,0.0,49359,48687375355526,17,28.1,-137.72467041015625,0.6790000200271606,16,0.0,0.0,1.59806246E9,,,,0,,3,-6.66,1.59806246E9,303.0,NaN,NaN
Raw,231945950637792,648750162000000,,,-1265581155277363572,-0.47829437255859375,48.34705396206118,-57.1950817022499,22.761567285245786,69,22,0.0,49359,48687361406053,16,29.4,-283.9136047363281,0.6180000305175781,16,0.0,0.0,1.60031245E9,,,,0,,3,-6.66,1.60031245E9,303.0,NaN,NaN
Raw,231945950637792,648750162000000,,,-1265581155277363572,-0.47829437255859375,48.34705396206118,-57.1950817022499,22.761567285245786,69,15,0.0,49359,48687365989191,14,30.9,-724.396484375,0.2303999960422516,19,-66083.06298172954,0.0023579182120561683,1.602E9,,,,0,,3,-6.66,1.602E9,303.0,NaN,NaN
Raw,231945950637792,648750162000000,,,-1265581155277363572,-0.47829437255859375,48.34705396206118,-57.1950817022499,22.761567285245786,69,5,0.0,49359,48687369089742,12,32.8,-638.1566162109375,0.23510000109672546,25,-58306.66198641462,0.0017771713445129138,1.60256256E9,,,,0,,3,-6.66,1.60256256E9,303.0,NaN,NaN
Raw,231945950637792,648750162000000,,,-1265581155277363572,-0.47829437255859375,48.34705396206118,-57.1950817022499,22.761567285245786,69,3,0.0,49359,48687366673979,11,33.8,709.9194946289062,0.23020000755786896,21,64663.918176099876,0.0016252330722257222,1.60481254E9,,,,0,,3,-6.66,1.60481254E9,303.0,NaN,NaN
Raw,231945950637792,648750162000000,,,-1265581155277363572,-0.47829437255859375,48.34705396206118,-57.1950817022499,22.761567285245786,69,4,0.0,49359,48687375261630,14,30.4,87.92926025390625,0.24540001153945923,21,7644.389232665315,0.0023529611661979592,1.60537498E9,,,,0,,3,-6.66,1.60537498E9,303.0,NaN,NaN
Raw,231945950637792,648750162000000,,,-1265581155277363572,-0.47829437255859375,48.34705396206118,-57.1950817022499,22.761567285245786,69,37,0.0,16399,383491360769612,14,30.7,429.931884765625,0.02290000021457672,25,38448.22339134119,0.0024196975554572116,1.56109798E9,,,,0,,5,-6.36,1.56109798E9,303.0,NaN,NaN
