# 
# Header Description:
# 
# Version: v2.0.0.1 Platform: 10 Manufacturer: Google Model: Pixel 4
# 
# Raw,ElapsedRealtimeNanos,TimeNanos,LeapSecond,TimeUncertaintyNanos,FullBiasNanos,BiasNanos,BiasUncertaintyNanos,DriftNanosPerSecond,DriftUncertaintyNanosPerSecond,HardwareClockDiscontinuityCount,Svid,TimeOffsetNanos,State,ReceivedSvTimeNanos,ReceivedSvTimeUncertaintyNanos,Cn0DbHz,PseudorangeRateMetersPerSecond,PseudorangeRateUncertaintyMetersPerSecond,AccumulatedDeltaRangeState,AccumulatedDeltaRangeMeters,AccumulatedDeltaRangeUncertaintyMeters,CarrierFrequencyHz,CarrierCycles,CarrierPhase,CarrierPhaseUncertainty,MultipathIndicator,SnrInDb,ConstellationType,AgcDb,CarrierFrequencyHz,UserLatitude,UserLongitude,UserAltitude
# 
# Fix,Provider,Latitude,Longitude,Altitude,Speed,Accuracy,(UTC)TimeInMs,ElapsedRealtimeNanos
# 
# Nav,Svid,Type,Status,MessageId,Sub-messageId,Data(Bytes)
# 
Fix,gps,51.524643,-0.134349,74.516235,0.000000,3.790092,1582195650000,232907912665913
Raw,232907931369196,649712205000000,,,-1265581155241041897,-0.062212228775024414,33.59370384714566,12.476336621582487,11.901385853960539,147,5,0.0,16399,384467364200430,24,25.7,730.9607543945312,0.03930000215768814,19,102664.73092374002,0.19029366893311156,1.57542003E9,,,,0,,1,1.18,1.57542003E9,362.0,NaN,NaN
Raw,232907931369196,649712205000000,,,-1265581155241041897,-0.062212228775024414,33.59370384714566,12.476336621582487,11.901385853960539,147,13,0.0,16399,384467377805826,10,34.8,255.7261962890625,0.04610000178217888,25,35093.52815257624,0.0015223494237726067,1.57542003E9,,,,0,,1,1.18,1.57542003E9,362.0,NaN,NaN
Raw,232907931369196,649712205000000,,,-1265581155241041897,-0.062212228775024414,33.59370384714566,12.476336621582487,11.901385853960539,147,15,0.0,16399,384467378466722,5,41.0,-73.29694366455078,0.04530000314116478,17,-11392.70334183505,6.850571963914755E-4,1.57542003E9,,,,0,,1,1.18,1.57542003E9,362.0,NaN,NaN
Raw,232907931369196,649712205000000,,,-1265581155241041897,-0.062212228775024414,33.59370384714566,12.476336621582487,11.901385853960539,147,17,0.0,16399,384467364203121,9,35.5,-524.5311889648438,0.026100000366568565,17,-74184.77907815046,0.0013320557236479321,1.57542003E9,,,,0,,1,1.18,1.57542003E9,362.0,NaN,NaN
Raw,232907931369196,649712205000000,,,-1265581155241041897,-0.062212228775024414,33.59370384714566,12.476336621582487,11.901385853960539,147,20,0.0,16399,384467369822891,46,20.3,-316.39178466796875,0.8999999761581421,16,0.0,0.0,1.57542003E9,,,,0,,1,1.18,1.57542003E9,362.0,NaN,NaN
Raw,232907931369196,649712205000000,,,-1265581155241041897,-0.062212228775024414,33.59370384714566,12.476336621582487,11.901385853960539,147,24,0.0,16399,384467371155800,31,23.3,-567.75537109375,0.12770000100135803,21,-7619.238405644714,0.19029366893311156,1.57542003E9,,,,0,,1,1.18,1.57542003E9,362.0,NaN,NaN
Raw,232907931369196,649712205000000,,,-1265581155241041897,-0.062212228775024414,33.59370384714566,12.476336621582487,11.901385853960539,147,28,0.0,16399,384467374235010,7,37.8,226.9390411376953,0.040400002151727676,17,30894.36685931501,0.0010085564157135064,1.57542003E9,,,,0,,1,1.18,1.57542003E9,362.0,NaN,NaN
Raw,232907931369196,649712205000000,,,-1265581155241041897,-0.062212228775024414,33.59370384714566,12.476336621582487,11.901385853960539,147,30,0.0,16399,384467367357069,9,35.2,601.270751953125,0.03060000203549862,17,84379.87750734935,0.0013320557236479321,1.57542003E9,,,,0,,1,1.18,1.57542003E9,362.0,NaN,NaN
Raw,232907931369196,649712205000000,,,-1265581155241041897,-0.062212228775024414,33.59370384714566,12.476336621582487,11.901385853960539,147,14,0.0,49359,49649382197794,6,39.3,16.536664962768555,0.22179999947547913,25,1021.7006307393789,8.254288163121457E-4,1.59806246E9,,,,0,,3,0.19,1.59806246E9,362.0,NaN,NaN
Raw,232907931369196,649712205000000,,,-1265581155241041897,-0.062212228775024414,33.59370384714566,12.476336621582487,11.901385853960539,147,22,0.0,49359,49649368685942,46,20.5,-107.1174087524414,1.058500051498413,16,0.0,0.0,1.60031245E9,,,,0,,3,0.19,1.60031245E9,362.0,NaN,NaN
Raw,232907931369196,649712205000000,,,-1265581155241041897,-0.062212228775024414,33.59370384714566,12.476336621582487,11.901385853960539,147,13,0.0,49359,49649374310556,14,30.9,662.3402709960938,0.24390000104904175,25,92430.13134689534,0.0023595752053329456,1.60087501E9,,,,0,,3,0.19,1.60087501E9,362.0,NaN,NaN
Raw,232907931369196,649712205000000,,,-1265581155241041897,-0.062212228775024414,33.59370384714566,12.476336621582487,11.901385853960539,147,15,0.0,49359,49649374816896,27,24.8,-631.3277587890625,0.2623000144958496,21,-88885.05629774056,0.18713636579275905,1.602E9,,,,0,,3,0.19,1.602E9,362.0,NaN,NaN
Raw,232907931369196,649712205000000,,,-1265581155241041897,-0.062212228775024414,33.59370384714566,12.476336621582487,11.901385853960539,147,5,0.0,49359,49649377605329,6,39.8,-521.26953125,0.2443000078201294,25,-74216.99807779469,8.23110960518378E-4,1.60256256E9,,,,0,,3,0.19,1.60256256E9,362.0,NaN,NaN
Raw,232907931369196,649712205000000,,,-1265581155241041897,-0.062212228775024414,33.59370384714566,12.476336621582487,11.901385853960539,147,3,0.0,49359,49649370906252,19,27.4,793.590087890625,0.7114999890327454,16,0.0,0.0,1.60481254E9,,,,0,,3,0.19,1.60481254E9,362.0,NaN,NaN
Raw,232907931369196,649712205000000,,,-1265581155241041897,-0.062212228775024414,33.59370384714566,12.476336621582487,11.901385853960539,147,4,0.0,49359,49649381353757,8,36.2,258.6954345703125,0.22110000252723694,25,34638.389041252856,0.0011391319696942128,1.60537498E9,,,,0,,3,0.19,1.60537498E9,362.0,NaN,NaN
Raw,232907931369196,649712205000000,,,-1265581155241041897,-0.062212228775024414,33.59370384714566,12.476336621582487,11.901385853960539,147,37,0.0,16399,384453365933388,11,33.6,494.41986083984375,0.028700001537799835,17,69175.13999267653,0.0016707435714883973,1.56109798E9,,,,0,,5,1.13,1.56109798E9,362.0,NaN,NaN
Raw,232907931369196,649712205000000,,,-1265581155241041897,-0.062212228775024414,33.59370384714566,12.476336621582487,11.901385853960539,147,22,0.0,16399,384453366590321,21,26.4,-374.5165710449219,0.0357000008225441,21,-53482.01430488802,0.005492329335005111,1.56109798E9,,,,0,,5,1.13,1.56109798E9,362.0,NaN,NaN
Raw,232907931369196,649712205000000,,,-1265581155241041897,-0.062212228775024414,33.59370384714566,12.476336621582487,11.901385853960539,147,20,0.0,16399,384453362366801,31,23.3,650.6265869140625,0.11420000344514847,21,16599.538767887745,0.1920394882785269,1.56109798E9,,,,0,,5,1.13,1.56109798E9,362.0,NaN,NaN
Raw,232907931369196,649712205000000,,,-1265581155241041897,-0.062212228775024414,33.59370384714566,12.476336621582487,11.901385853960539,147,19,0.0,16399,384453372282795,61,18.4,237.18797302246094,1.094499945640564,16,0.0,0.0,1.56109798E9,,,,0,,5,1.13,1.56109798E9,362.0,NaN,NaN
Raw,232907931369196,649712205000000,,,-1265581155241041897,-0.062212228775024414,33.59370384714566,12.476336621582487,11.901385853960539,147,10,0.0,16399,384453313467705,7,37.8,175.7876739501953,0.03890000283718109,17,24302.159161217518,0.0010178092579723537,1.56109798E9,,,,0,,5,1.13,1.56109798E9,362.0,NaN,NaN
Raw,232907931369196,649712205000000,,,-1265581155241041897,-0.062212228775024414,33.59370384714566,12.476336621582487,11.901385853960539,147,1,0.0,23567,384467361187189,5,40.7,407.8306884765625,0.04410000145435333,25,56851.78530864692,0.001617496273834944,1.57542003E9,,,,0,,6,0.16,1.57542003E9,362.0,NaN,NaN
Raw,232907931369196,649712205000000,,,-1265581155241041897,-0.062212228775024414,33.59370384714566,12.476336621582487,11.901385853960539,147,4,0.0,23567,384467359074646,24,25.8,516.2034301757812,0.06180000305175781,21,71668.66195227974,0.017526047264890512,1.57542003E9,,,,0,,6,0.16,1.57542003E9,362.0,NaN,NaN
Raw,232907931369196,649712205000000,,,-1265581155241041897,-0.062212228775024414,33.59370384714566,12.476336621582487,11.901385853960539,147,5,0.0,23567,384467361396797,35,22.9,-407.44732666015625,0.7519999742507935,16,0.0,0.0,1.57542003E9,,,,0,,6,0.16,1.57542003E9,362.0,NaN,NaN
Raw,232907931369196,649712205000000,,,-1265581155241041897,-0.062212228775024414,33.59370384714566,12.476336621582487,11.901385853960539,147,9,0.0,23567,384467374244759,10,34.8,86.23722839355469,0.047600001096725464,25,11385.791653890985,0.003311109885939926,1.57542003E9,,,,0,,6,0.16,1.57542003E9,362.0,NaN,NaN
Raw,232907931369196,649712205000000,,,-1265581155241041897,-0.062212228775024414,33.59370384714566,12.476336621582487,11.901385853960539,147,31,0.0,23567,384467367423947,7,37.2,-115.38046264648438,0.0479000024497509,25,-17019.765850371117,0.0021883771969841777,1.57542003E9,,,,0,,6,0.16,1.57542003E9,362.0,NaN,NaN
Raw,232907931369196,649712205000000,,,-1265581155241041897,-0.062212228775024414,33.59370384714566,12.476336621582487,11.901385853960539,147,24,0.0,81935,384467371163787,11,19.7,-567.1707763671875,0.9329999685287476,16,0.0,0.0,1.17645005E9,,,,0,,1,6.63,1.17645005E9,362.0,NaN,NaN
Raw,232907931369196,649712205000000,,,-1265581155241041897,-0.062212228775024414,33.59370384714566,12.476336621582487,11.901385853960539,147,30,0.0,81935,384467367364905,3,31.2,601.0119018554688,0.37700000405311584,16,0.0,0.0,1.17645005E9,,,,0,,1,6.63,1.17645005E9,362.0,NaN,NaN
Raw,232907931369196,649712205000000,,,-1265581155241041897,-0.062212228775024414,33.59370384714566,12.476336621582487,11.901385853960539,147,1,0.0,81935,384467361194284,3,33.3,407.52886962890625,0.027000000700354576,25,54362.24461950309,0.0022170039651624013,1.17645005E9,,,,0,,6,6.63,1.17645005E9,362.0,NaN,NaN
Raw,232907931369196,649712205000000,,,-1265581155241041897,-0.062212228775024414,33.59370384714566,12.476336621582487,11.901385853960539,147,4,0.0,81935,384467359081641,10,20.4,515.4280395507812,0.10420000553131104,29,69048.6816477623,0.34557229348499413,1.17645005E9,,,,0,,6,6.63,1.17645005E9,362.0,NaN,NaN
Raw,232907931369196,649712205000000,,,-1265581155241041897,-0.062212228775024414,33.59370384714566,12.476336621582487,11.901385853960539,147,5,0.0,81935,384467361403975,8,22.5,-406.9685363769531,0.03819999843835831,29,-55029.23646868001,0.25482803839368795,1.17645005E9,,,,0,,6,6.63,1.17645005E9,362.0,NaN,NaN
Raw,232907931369196,649712205000000,,,-1265581155241041897,-0.062212228775024414,33.59370384714566,12.476336621582487,11.901385853960539,147,9,0.0,81935,384467374251838,3,31.3,86.07095336914062,0.04880000278353691,25,10933.221168408145,0.0027776256465907277,1.17645005E9,,,,0,,6,6.63,1.17645005E9,362.0,NaN,NaN
Raw,232907931369196,649712205000000,,,-1265581155241041897,-0.062212228775024414,33.59370384714566,12.476336621582487,11.901385853960539,147,31,0.0,81935,384467367431029,2,36.4,-115.62535095214844,0.033400002866983414,25,-16216.067095425375,0.0015544510042033504,1.17645005E9,,,,0,,6,6.63,1.17645005E9,362.0,NaN,NaN
Fix,gps,51.524639,-0.134350,74.508728,0.000000,3.790092,1582195651000,232908902274137
Raw,232908923712576,649713205000000,,,-1265581155241041893,-0.9478695392608643,31.44233050988987,8.390245167491383,10.998864530109127,147,5,0.0,16399,384468364198033,27,24.7,731.1807250976562,0.047300003468990326,29,103395.47443559463,0.19029366893311156,1.57542003E9,,,,0,,1,0.8,1.57542003E9,362.0,NaN,NaN
Raw,232908923712576,649713205000000,,,-1265581155241041893,-0.9478695392608643,31.44233050988987,8.390245167491383,10.998864530109127,147,13,0.0,16399,384468377804976,6,38.7,256.0003967285156,0.044600002467632294,25,35349.08392548474,9.324389888310735E-4,1.57542003E9,,,,0,,1,0.8,1.57542003E9,362.0,NaN,NaN
Raw,232908923712576,649713205000000,,,-1265581155241041893,-0.9478695392608643,31.44233050988987,8.390245167491383,10.998864530109127,147,15,0.0,16399,384468378466975,5,41.0,-73.12481689453125,0.04530000314116478,25,-11466.165275439173,6.850571963914755E-4,1.57542003E9,,,,0,,1,0.8,1.57542003E9,362.0,NaN,NaN
Raw,232908923712576,649713205000000,,,-1265581155241041893,-0.9478695392608643,31.44233050988987,8.390245167491383,10.998864530109127,147,17,0.0,16399,384468364204877,8,36.4,-524.2719116210938,0.025600001215934753,25,-74709.41232866536,0.001160791358090767,1.57542003E9,,,,0,,1,0.8,1.57542003E9,362.0,NaN,NaN
Raw,232908923712576,649713205000000,,,-1265581155241041893,-0.9478695392608643,31.44233050988987,8.390245167491383,10.998864530109127,147,28,0.0,16399,384468374234266,5,40.9,227.17018127441406,0.03960000351071358,25,31121.088962236714,7.42145288706399E-4,1.57542003E9,,,,0,,1,0.8,1.57542003E9,362.0,NaN,NaN
Raw,232908923712576,649713205000000,,,-1265581155241041893,-0.9478695392608643,31.44233050988987,8.390245167491383,10.998864530109127,147,30,0.0,16399,384468367355092,13,31.1,601.4782104492188,0.032600000500679016,25,84980.9240878402,0.002074201012354331,1.57542003E9,,,,0,,1,0.8,1.57542003E9,362.0,NaN,NaN
Raw,232908923712576,649713205000000,,,-1265581155241041893,-0.9478695392608643,31.44233050988987,8.390245167491383,10.998864530109127,147,14,0.0,49359,49650382197778,6,38.1,16.858318328857422,0.22210000455379486,25,1038.0572714015343,9.192275613215939E-4,1.59806246E9,,,,0,,3,-0.24,1.59806246E9,362.0,NaN,NaN
Raw,232908923712576,649713205000000,,,-1265581155241041893,-0.9478695392608643,31.44233050988987,8.390245167491383,10.998864530109127,147,22,0.0,49359,49650368686179,46,20.3,-108.55988311767578,1.058500051498413,16,0.0,0.0,1.60031245E9,,,,0,,3,-0.24,1.60031245E9,362.0,NaN,NaN
Raw,232908923712576,649713205000000,,,-1265581155241041893,-0.9478695392608643,31.44233050988987,8.390245167491383,10.998864530109127,147,13,0.0,49359,49650374308340,13,31.3,662.44384765625,0.24310000240802765,25,93092.16035328683,0.0020412198384807895,1.60087501E9,,,,0,,3,-0.24,1.60087501E9,362.0,NaN,NaN
Raw,232908923712576,649713205000000,,,-1265581155241041893,-0.9478695392608643,31.44233050988987,8.390245167491383,10.998864530109127,147,15,0.0,49359,49650374818882,31,23.1,-631.4891357421875,0.33219999074935913,29,-89516.62936559963,0.18713636579275905,1.602E9,,,,0,,3,-0.24,1.602E9,362.0,NaN,NaN
Raw,232908923712576,649713205000000,,,-1265581155241041893,-0.9478695392608643,31.44233050988987,8.390245167491383,10.998864530109127,147,5,0.0,49359,49650377607080,6,38.5,-521.1063842773438,0.24459999799728394,25,-74738.55465870435,9.166463127793883E-4,1.60256256E9,,,,0,,3,-0.24,1.60256256E9,362.0,NaN,NaN
Raw,232908923712576,649713205000000,,,-1265581155241041893,-0.9478695392608643,31.44233050988987,8.390245167491383,10.998864530109127,147,3,0.0,49359,49650370903634,17,28.4,793.4153442382812,0.240200012922287,27,111590.92512501302,0.002951572521903534,1.60481254E9,,,,0,,3,-0.24,1.60481254E9,362.0,NaN,NaN
Raw,232908923712576,649713205000000,,,-1265581155241041893,-0.9478695392608643,31.44233050988987,8.390245167491383,10.998864530109127,147,4,0.0,49359,49650381352903,10,34.3,258.9907531738281,0.22210000455379486,25,34896.88722230841,0.0014939436666010554,1.60537498E9,,,,0,,3,-0.24,1.60537498E9,362.0,NaN,NaN
Raw,232908923712576,649713205000000,,,-1265581155241041893,-0.9478695392608643,31.44233050988987,8.390245167491383,10.998864530109127,147,37,0.0,16399,384454365931742,4,42.7,494.5760803222656,0.025600001215934753,17,69669.28367654383,5.953224307615613E-4,1.56109798E9,,,,0,,5,1.06,1.56109798E9,362.0,NaN,NaN
Raw,232908923712576,649713205000000,,,-1265581155241041893,-0.9478695392608643,31.44233050988987,8.390245167491383,10.998864530109127,147,22,0.0,16399,384454366591683,35,22.8,-374.64556884765625,0.39079999923706055,21,-53857.0199080188,0.1920394882785269,1.56109798E9,,,,0,,5,1.06,1.56109798E9,362.0,NaN,NaN
Raw,232908923712576,649713205000000,,,-1265581155241041893,-0.9478695392608643,31.44233050988987,8.390245167491383,10.998864530109127,147,20,0.0,16399,384454362364596,46,20.1,650.7642211914062,0.9194999933242798,16,0.0,0.0,1.56109798E9,,,,0,,5,1.06,1.56109798E9,362.0,NaN,NaN
Raw,232908923712576,649713205000000,,,-1265581155241041893,-0.9478695392608643,31.44233050988987,8.390245167491383,10.998864530109127,147,19,0.0,16399,384454372281993,46,20.9,237.18797302246094,0.8644999861717224,16,0.0,0.0,1.56109798E9,,,,0,,5,1.06,1.56109798E9,362.0,NaN,NaN
Raw,232908923712576,649713205000000,,,-1265581155241041893,-0.9478695392608643,31.44233050988987,8.390245167491383,10.998864530109127,147,10,0.0,16399,384454313467120,6,38.3,175.88697814941406,0.038600001484155655,17,24477.632575864434,9.409935037250662E-4,1.56109798E9,,,,0,,5,1.06,1.56109798E9,362.0,NaN,NaN
Raw,232908923712576,649713205000000,,,-1265581155241041893,-0.9478695392608643,31.44233050988987,8.390245167491383,10.998864530109127,147,1,0.0,23567,384468361185833,5,41.3,407.7923583984375,0.043800003826618195,25,57259.2083324097,0.001484290577412798,1.57542003E9,,,,0,,6,-0.32,1.57542003E9,362.0,NaN,NaN
Raw,232908923712576,649713205000000,,,-1265581155241041893,-0.9478695392608643,31.44233050988987,8.390245167491383,10.998864530109127,147,4,0.0,23567,384468359072906,24,25.6,516.0770263671875,0.06180000305175781,21,72184.37490972677,0.017526047264890512,1.57542003E9,,,,0,,6,-0.32,1.57542003E9,362.0,NaN,NaN
Raw,232908923712576,649713205000000,,,-1265581155241041893,-0.9478695392608643,31.44233050988987,8.390245167491383,10.998864530109127,147,5,0.0,23567,384468361398223,21,26.2,-406.8660888671875,0.05220000073313713,19,-224.24699650008924,0.011874324619302384,1.57542003E9,,,,0,,6,-0.32,1.57542003E9,362.0,NaN,NaN
Raw,232908923712576,649713205000000,,,-1265581155241041893,-0.9478695392608643,31.44233050988987,8.390245167491383,10.998864530109127,147,9,0.0,23567,384468374244502,10,34.0,86.28841400146484,0.047600001096725464,25,11471.692235427225,0.003311109885939926,1.57542003E9,,,,0,,6,-0.32,1.57542003E9,362.0,NaN,NaN
Raw,232908923712576,649713205000000,,,-1265581155241041893,-0.9478695392608643,31.44233050988987,8.390245167491383,10.998864530109127,147,31,0.0,23567,384468367424332,6,38.1,-115.33245849609375,0.047600001096725464,25,-17135.485435360722,0.0020551716777868216,1.57542003E9,,,,0,,6,-0.32,1.57542003E9,362.0,NaN,NaN
Raw,232908923712576,649713205000000,,,-1265581155241041893,-0.9478695392608643,31.44233050988987,8.390245167491383,10.998864530109127,147,24,0.0,81935,384468371165484,10,20.3,-567.7823486328125,0.09220000356435776,27,-78220.64782360921,0.25482803839368795,1.17645005E9,,,,0,,1,7.94,1.17645005E9,362.0,NaN,NaN
Raw,232908923712576,649713205000000,,,-1265581155241041893,-0.9478695392608643,31.44233050988987,8.390245167491383,10.998864530109127,147,30,0.0,81935,384468367362904,3,31.8,601.4602661132812,0.03830000013113022,27,81222.75444200837,0.0027776256465907277,1.17645005E9,,,,0,,1,7.94,1.17645005E9,362.0,NaN,NaN
Raw,232908923712576,649713205000000,,,-1265581155241041893,-0.9478695392608643,31.44233050988987,8.390245167491383,10.998864530109127,147,1,0.0,81935,384468361192912,4,30.4,408.009765625,0.030700000002980232,25,54769.70293830587,0.0032108332879374254,1.17645005E9,,,,0,,6,7.94,1.17645005E9,362.0,NaN,NaN
Raw,232908923712576,649713205000000,,,-1265581155241041893,-0.9478695392608643,31.44233050988987,8.390245167491383,10.998864530109127,147,4,0.0,81935,384468359080066,9,21.6,514.9564819335938,0.8149999976158142,16,0.0,0.0,1.17645005E9,,,,0,,6,7.94,1.17645005E9,362.0,NaN,NaN
Raw,232908923712576,649713205000000,,,-1265581155241041893,-0.9478695392608643,31.44233050988987,8.390245167491383,10.998864530109127,147,5,0.0,81935,384468361405341,8,23.8,-406.6399230957031,0.0357000008225441,25,-55436.37559870639,0.34557229348499413,1.17645005E9,,,,0,,6,7.94,1.17645005E9,362.0,NaN,NaN
Raw,232908923712576,649713205000000,,,-1265581155241041893,-0.9478695392608643,31.44233050988987,8.390245167491383,10.998864530109127,147,9,0.0,81935,384468374251553,2,34.9,86.52024841308594,0.045500002801418304,25,11019.127468854143,0.0020386244039789624,1.17645005E9,,,,0,,6,7.94,1.17645005E9,362.0,NaN,NaN
Raw,232908923712576,649713205000000,,,-1265581155241041893,-0.9478695392608643,31.44233050988987,8.390245167491383,10.998864530109127,147,24,0.0,81935,384468364871249,23,13.4,-538.782958984375,4.482500076293945,16,0.0,0.0,1.17645005E9,,,,0,,6,7.94,1.17645005E9,362.0,NaN,NaN
Raw,232908923712576,649713205000000,,,-1265581155241041893,-0.9478695392608643,31.44233050988987,8.390245167491383,10.998864530109127,147,31,0.0,81935,384468367431414,2,37.9,-115.05901336669922,0.032600000500679016,25,-16331.777167618062,0.0013505885638054542,1.17645005E9,,,,0,,6,7.94,1.17645005E9,362.0,NaN,NaN
Fix,gps,51.524638,-0.134350,74.510437,0.000000,3.790092,1582195652000,232909910058196
Raw,232909931347885,649714205000000,,,-1265581155241041895,-0.31877636909484863,31.096678867470473,8.741599330800824,11.001449981410437,147,5,0.0,16399,384469364195672,40,21.7,732.0692749023438,0.8524999618530273,16,0.0,0.0,1.57542003E9,,,,0,,1,0.66,1.57542003E9,362.0,NaN,NaN
Raw,232909931347885,649714205000000,,,-1265581155241041895,-0.31877636909484863,31.096678867470473,8.741599330800824,11.001449981410437,147,13,0.0,16399,384469377804112,5,40.1,256.5457763671875,0.04410000145435333,25,35605.35621023631,7.42145288706399E-4,1.57542003E9,,,,0,,1,0.66,1.57542003E9,362.0,NaN,NaN
Raw,232909931347885,649714205000000,,,-1265581155241041895,-0.31877636909484863,31.096678867470473,8.741599330800824,11.001449981410437,147,15,0.0,16399,384469378467212,5,41.3,-72.52436065673828,0.04530000314116478,25,-11538.979376583176,6.850571963914755E-4,1.57542003E9,,,,0,,1,0.66,1.57542003E9,362.0,NaN,NaN
Raw,232909931347885,649714205000000,,,-1265581155241041895,-0.31877636909484863,31.096678867470473,8.741599330800824,11.001449981410437,147,17,0.0,16399,384469364206575,8,36.4,-523.7432250976562,0.025600001215934753,25,-75233.41835833585,0.001160791358090767,1.57542003E9,,,,0,,1,0.66,1.57542003E9,362.0,NaN,NaN
Raw,232909931347885,649714205000000,,,-1265581155241041895,-0.31877636909484863,31.096678867470473,8.741599330800824,11.001449981410437,147,24,0.0,16399,384469371159708,70,17.4,-567.322509765625,1.9329999685287476,16,0.0,0.0,1.57542003E9,,,,0,,1,0.66,1.57542003E9,362.0,NaN,NaN
Raw,232909931347885,649714205000000,,,-1265581155241041895,-0.31877636909484863,31.096678867470473,8.741599330800824,11.001449981410437,147,28,0.0,16399,384469374233486,5,41.1,227.70989990234375,0.03930000215768814,25,31348.525276989123,6.850571963914755E-4,1.57542003E9,,,,0,,1,0.66,1.57542003E9,362.0,NaN,NaN
Raw,232909931347885,649714205000000,,,-1265581155241041895,-0.31877636909484863,31.096678867470473,8.741599330800824,11.001449981410437,147,30,0.0,16399,384469367353089,11,33.4,601.9392700195312,0.031700000166893005,25,85582.62500798554,0.001655554942969963,1.57542003E9,,,,0,,1,0.66,1.57542003E9,362.0,NaN,NaN
Raw,232909931347885,649714205000000,,,-1265581155241041895,-0.31877636909484863,31.096678867470473,8.741599330800824,11.001449981410437,147,14,0.0,49359,49651382197705,6,38.3,17.38983154296875,0.22210000455379486,25,1055.1514799631072,9.192275613215939E-4,1.59806246E9,,,,0,,3,-0.28,1.59806246E9,362.0,NaN,NaN
Raw,232909931347885,649714205000000,,,-1265581155241041895,-0.31877636909484863,31.096678867470473,8.741599330800824,11.001449981410437,147,22,0.0,49359,49651368686845,35,22.8,-107.39205169677734,0.5938000082969666,19,-16578.74547800079,0.18733370372433672,1.60031245E9,,,,0,,3,-0.28,1.60031245E9,362.0,NaN,NaN
Raw,232909931347885,649714205000000,,,-1265581155241041895,-0.31877636909484863,31.096678867470473,8.741599330800824,11.001449981410437,147,13,0.0,49359,49651374306178,16,29.8,662.9673461914062,0.24490000307559967,25,93754.87618022844,0.0027715645241306536,1.60087501E9,,,,0,,3,-0.28,1.60087501E9,362.0,NaN,NaN
Raw,232909931347885,649714205000000,,,-1265581155241041895,-0.31877636909484863,31.096678867470473,8.741599330800824,11.001449981410437,147,5,0.0,49359,49651377608761,6,38.8,-520.5798950195312,0.24459999799728394,25,-75259.41099121569,9.166463127793883E-4,1.60256256E9,,,,0,,3,-0.28,1.60256256E9,362.0,NaN,NaN
Raw,232909931347885,649714205000000,,,-1265581155241041895,-0.31877636909484863,31.096678867470473,8.741599330800824,11.001449981410437,147,3,0.0,49359,49651370901014,16,29.4,793.9266357421875,0.23890000581741333,25,112384.59863268542,0.002764764268779405,1.60481254E9,,,,0,,3,-0.28,1.60481254E9,362.0,NaN,NaN
Raw,232909931347885,649714205000000,,,-1265581155241041895,-0.31877636909484863,31.096678867470473,8.741599330800824,11.001449981410437,147,4,0.0,49359,49651381352057,11,33.2,259.6166076660156,0.22269999980926514,25,35156.177754180804,0.0016246636830792964,1.60537498E9,,,,0,,3,-0.28,1.60537498E9,362.0,NaN,NaN
Raw,232909931347885,649714205000000,,,-1265581155241041895,-0.31877636909484863,31.096678867470473,8.741599330800824,11.001449981410437,147,37,0.0,16399,384455365930097,5,41.2,495.07305908203125,0.025800000876188278,17,70164.10374166533,6.913421459270097E-4,1.56109798E9,,,,0,,5,1.02,1.56109798E9,362.0,NaN,NaN
Raw,232909931347885,649714205000000,,,-1265581155241041895,-0.31877636909484863,31.096678867470473,8.741599330800824,11.001449981410437,147,22,0.0,16399,384455366592781,14,30.8,-373.787841796875,0.03189999982714653,21,-54231.11646458786,0.0024196975554572116,1.56109798E9,,,,0,,5,1.02,1.56109798E9,362.0,NaN,NaN
Raw,232909931347885,649714205000000,,,-1265581155241041895,-0.31877636909484863,31.096678867470473,8.741599330800824,11.001449981410437,147,20,0.0,16399,384455362362445,24,25.9,651.501220703125,0.03629999980330467,19,17901.256524362136,0.1920394882785269,1.56109798E9,,,,0,,5,1.02,1.56109798E9,362.0,NaN,NaN
Raw,232909931347885,649714205000000,,,-1265581155241041895,-0.31877636909484863,31.096678867470473,8.741599330800824,11.001449981410437,147,19,0.0,16399,384455372281249,53,19.8,237.41842651367188,0.934499979019165,16,0.0,0.0,1.56109798E9,,,,0,,5,1.02,1.56109798E9,362.0,NaN,NaN
Raw,232909931347885,649714205000000,,,-1265581155241041895,-0.31877636909484863,31.096678867470473,8.741599330800824,11.001449981410437,147,10,0.0,16399,384455313466534,7,37.9,176.35623168945312,0.03890000283718109,17,24653.74870391473,0.0010178092579723537,1.56109798E9,,,,0,,5,1.02,1.56109798E9,362.0,NaN,NaN
Raw,232909931347885,649714205000000,,,-1265581155241041895,-0.31877636909484863,31.096678867470473,8.741599330800824,11.001449981410437,147,5,0.0,17167,384455309994844,40,21.7,2.5829310417175293,6.652199745178223,16,0.0,0.0,1.56109798E9,,,,0,,5,1.02,1.56109798E9,362.0,NaN,NaN
Raw,232909931347885,649714205000000,,,-1265581155241041895,-0.31877636909484863,31.096678867470473,8.741599330800824,11.001449981410437,147,1,0.0,23567,384469361184485,5,41.3,408.37603759765625,0.043800003826618195,25,57667.3445449244,0.001484290577412798,1.57542003E9,,,,0,,6,-0.41,1.57542003E9,362.0,NaN,NaN
Raw,232909931347885,649714205000000,,,-1265581155241041895,-0.31877636909484863,31.096678867470473,8.741599330800824,11.001449981410437,147,4,0.0,23567,384469359071313,40,21.5,516.799560546875,0.8149999976158142,16,0.0,0.0,1.57542003E9,,,,0,,6,-0.41,1.57542003E9,362.0,NaN,NaN
Raw,232909931347885,649714205000000,,,-1265581155241041895,-0.31877636909484863,31.096678867470473,8.741599330800824,11.001449981410437,147,5,0.0,23567,384469361399559,24,25.0,-406.2535705566406,0.058800000697374344,21,-630.8050169918216,0.017526047264890512,1.57542003E9,,,,0,,6,-0.41,1.57542003E9,362.0,NaN,NaN
Raw,232909931347885,649714205000000,,,-1265581155241041895,-0.31877636909484863,31.096678867470473,8.741599330800824,11.001449981410437,147,9,0.0,23567,384469374244183,9,35.5,86.90049743652344,0.0471000038087368,25,11558.321769454737,0.0028924638165555576,1.57542003E9,,,,0,,6,-0.41,1.57542003E9,362.0,NaN,NaN
Raw,232909931347885,649714205000000,,,-1265581155241041895,-0.31877636909484863,31.096678867470473,8.741599330800824,11.001449981410437,147,31,0.0,23567,384469367424697,6,38.3,-114.73855590820312,0.047600001096725464,25,-17250.46309378437,0.0020551716777868216,1.57542003E9,,,,0,,6,-0.41,1.57542003E9,362.0,NaN,NaN
Raw,232909931347885,649714205000000,,,-1265581155241041895,-0.31877636909484863,31.096678867470473,8.741599330800824,11.001449981410437,147,30,0.0,81935,384469367360898,3,31.3,601.945068359375,0.03830000013113022,25,81824.45830505254,0.0027776256465907277,1.17645005E9,,,,0,,1,7.58,1.17645005E9,362.0,NaN,NaN
Raw,232909931347885,649714205000000,,,-1265581155241041895,-0.31877636909484863,31.096678867470473,8.741599330800824,11.001449981410437,147,1,0.0,81935,384469361191554,4,30.4,408.3663330078125,0.030700000002980232,29,55177.80610266637,0.0032108332879374254,1.17645005E9,,,,0,,6,7.58,1.17645005E9,362.0,NaN,NaN
Raw,232909931347885,649714205000000,,,-1265581155241041895,-0.31877636909484863,31.096678867470473,8.741599330800824,11.001449981410437,147,4,0.0,81935,384469359078351,8,23.8,516.7062377929688,0.060600001364946365,27,70079.10636196833,0.25482803839368795,1.17645005E9,,,,0,,6,7.58,1.17645005E9,362.0,NaN,NaN
Raw,232909931347885,649714205000000,,,-1265581155241041895,-0.31877636909484863,31.096678867470473,8.741599330800824,11.001449981410437,147,5,0.0,81935,384469361406675,6,26.0,-406.3000183105469,0.04360000044107437,25,-55842.882483623056,0.007288081858568245,1.17645005E9,,,,0,,6,7.58,1.17645005E9,362.0,NaN,NaN
Raw,232909931347885,649714205000000,,,-1265581155241041895,-0.31877636909484863,31.096678867470473,8.741599330800824,11.001449981410437,147,9,0.0,81935,384469374251262,2,35.1,86.8124008178711,0.044600002467632294,25,11105.749227085027,0.0017837963238157039,1.17645005E9,,,,0,,6,7.58,1.17645005E9,362.0,NaN,NaN
Raw,232909931347885,649714205000000,,,-1265581155241041895,-0.31877636909484863,31.096678867470473,8.741599330800824,11.001449981410437,147,31,0.0,81935,384469367431799,2,37.2,-114.74530029296875,0.032600000500679016,25,-16446.7610202604,0.0013505885638054542,1.17645005E9,,,,0,,6,7.58,1.17645005E9,362.0,NaN,NaN
Fix,gps,51.524638,-0.134350,74.510132,0.000000,3.790092,1582195653000,232910900883555
Raw,232910919418869,649715205000000,,,-1265581155241041880,-0.23135066032409668,33.25238503748551,10.528048360716925,11.649754082230684,147,5,0.0,16399,384470364193069,61,18.3,732.6591796875,1.0824999809265137,16,0.0,0.0,1.57542003E9,,,,0,,1,0.45,1.57542003E9,362.0,NaN,NaN
Raw,232910919418869,649715205000000,,,-1265581155241041880,-0.23135066032409668,33.25238503748551,10.528048360716925,11.649754082230684,147,13,0.0,16399,384470377803256,6,39.2,256.983642578125,0.04430000111460686,25,35862.27465452891,8.372921387687362E-4,1.57542003E9,,,,0,,1,0.45,1.57542003E9,362.0,NaN,NaN
Raw,232910919418869,649715205000000,,,-1265581155241041880,-0.23135066032409668,33.25238503748551,10.528048360716925,11.649754082230684,147,15,0.0,16399,384470378467448,5,41.8,-72.05162811279297,0.04530000314116478,25,-11611.102308260746,6.850571963914755E-4,1.57542003E9,,,,0,,1,0.45,1.57542003E9,362.0,NaN,NaN
Raw,232910919418869,649715205000000,,,-1265581155241041880,-0.23135066032409668,33.25238503748551,10.528048360716925,11.649754082230684,147,17,0.0,16399,384470364208313,10,34.6,-523.408935546875,0.026600001379847527,25,-75756.84151029527,0.0015223494237726067,1.57542003E9,,,,0,,1,0.45,1.57542003E9,362.0,NaN,NaN
Raw,232910919418869,649715205000000,,,-1265581155241041880,-0.23135066032409668,33.25238503748551,10.528048360716925,11.649754082230684,147,20,0.0,16399,384470369825913,27,24.2,-315.6265869140625,0.024800000712275505,19,-141.8537104790697,0.19029366893311156,1.57542003E9,,,,0,,1,0.45,1.57542003E9,362.0,NaN,NaN
Raw,232910919418869,649715205000000,,,-1265581155241041880,-0.23135066032409668,33.25238503748551,10.528048360716925,11.649754082230684,147,24,0.0,16399,384470371161638,70,17.6,-567.2463989257812,1.1829999685287476,16,0.0,0.0,1.57542003E9,,,,0,,1,0.45,1.57542003E9,362.0,NaN,NaN
Raw,232910919418869,649715205000000,,,-1265581155241041880,-0.23135066032409668,33.25238503748551,10.528048360716925,11.649754082230684,147,28,0.0,16399,384470374232727,5,40.6,228.17259216308594,0.03960000351071358,25,31576.628449489082,7.42145288706399E-4,1.57542003E9,,,,0,,1,0.45,1.57542003E9,362.0,NaN,NaN
Raw,232910919418869,649715205000000,,,-1265581155241041880,-0.23135066032409668,33.25238503748551,10.528048360716925,11.649754082230684,147,30,0.0,16399,384470367351081,12,32.9,602.298583984375,0.03210000321269035,25,86184.87781362259,0.001807789796734829,1.57542003E9,,,,0,,1,0.45,1.57542003E9,362.0,NaN,NaN
Raw,232910919418869,649715205000000,,,-1265581155241041880,-0.23135066032409668,33.25238503748551,10.528048360716925,11.649754082230684,147,14,0.0,49359,49652382197642,7,37.9,17.88602638244629,0.20740000903606415,25,1072.9583148813153,9.94266504915028E-4,1.59806246E9,,,,0,,3,-0.44,1.59806246E9,362.0,NaN,NaN
Raw,232910919418869,649715205000000,,,-1265581155241041880,-0.23135066032409668,33.25238503748551,10.528048360716925,11.649754082230684,147,22,0.0,49359,49652368687090,21,26.4,-106.455078125,0.2387000024318695,25,-16685.2029425768,0.005357743897484537,1.60031245E9,,,,0,,3,-0.44,1.60031245E9,362.0,NaN,NaN
Raw,232910919418869,649715205000000,,,-1265581155241041880,-0.23135066032409668,33.25238503748551,10.528048360716925,11.649754082230684,147,13,0.0,49359,49652374303957,14,30.1,663.3602294921875,0.24390000104904175,25,94418.19193264682,0.0023595752053329456,1.60087501E9,,,,0,,3,-0.44,1.60087501E9,362.0,NaN,NaN
Raw,232910919418869,649715205000000,,,-1265581155241041880,-0.23135066032409668,33.25238503748551,10.528048360716925,11.649754082230684,147,15,0.0,49359,49652374823210,21,26.3,-630.3875732421875,1.4975000619888306,16,0.0,0.0,1.602E9,,,,0,,3,-0.44,1.602E9,362.0,NaN,NaN
Raw,232910919418869,649715205000000,,,-1265581155241041880,-0.23135066032409668,33.25238503748551,10.528048360716925,11.649754082230684,147,5,0.0,49359,49652377610511,6,38.5,-520.0905151367188,0.24459999799728394,25,-75779.57235301417,9.166463127793883E-4,1.60256256E9,,,,0,,3,-0.44,1.60256256E9,362.0,NaN,NaN
Raw,232910919418869,649715205000000,,,-1265581155241041880,-0.23135066032409668,33.25238503748551,10.528048360716925,11.649754082230684,147,3,0.0,49359,49652370898286,24,25.9,794.3443603515625,0.2483000010251999,25,113178.88599773748,0.1868083964827234,1.60481254E9,,,,0,,3,-0.44,1.60481254E9,362.0,NaN,NaN
Raw,232910919418869,649715205000000,,,-1265581155241041880,-0.23135066032409668,33.25238503748551,10.528048360716925,11.649754082230684,147,4,0.0,49359,49652381351192,9,35.0,260.1091613769531,0.20660001039505005,25,35416.209013672924,0.0013072006865361828,1.60537498E9,,,,0,,3,-0.44,1.60537498E9,362.0,NaN,NaN
Raw,232910919418869,649715205000000,,,-1265581155241041880,-0.23135066032409668,33.25238503748551,10.528048360716925,11.649754082230684,147,37,0.0,16399,384456365928442,5,41.2,495.45892333984375,0.025800000876188278,17,70659.52790245751,6.913421459270097E-4,1.56109798E9,,,,0,,5,0.76,1.56109798E9,362.0,NaN,NaN
Raw,232910919418869,649715205000000,,,-1265581155241041880,-0.23135066032409668,33.25238503748551,10.528048360716925,11.649754082230684,147,22,0.0,16399,384456366594029,16,29.0,-373.3695373535156,0.03290000185370445,17,-54604.53740298956,0.0028421844273806814,1.56109798E9,,,,0,,5,0.76,1.56109798E9,362.0,NaN,NaN
Raw,232910919418869,649715205000000,,,-1265581155241041880,-0.23135066032409668,33.25238503748551,10.528048360716925,11.649754082230684,147,20,0.0,16399,384456362360287,31,23.3,651.822509765625,0.11420000344514847,21,18553.105985465445,0.1920394882785269,1.56109798E9,,,,0,,5,0.76,1.56109798E9,362.0,NaN,NaN
Raw,232910919418869,649715205000000,,,-1265581155241041880,-0.23135066032409668,33.25238503748551,10.528048360716925,11.649754082230684,147,10,0.0,16399,384456313465941,6,38.2,176.69020080566406,0.038600001484155655,17,24830.412508357404,9.409935037250662E-4,1.56109798E9,,,,0,,5,0.76,1.56109798E9,362.0,NaN,NaN
Raw,232910919418869,649715205000000,,,-1265581155241041880,-0.23135066032409668,33.25238503748551,10.528048360716925,11.649754082230684,147,1,0.0,23567,384470361183104,5,40.9,408.7798767089844,0.04410000145435333,25,58076.06499072639,0.001617496273834944,1.57542003E9,,,,0,,6,-0.6,1.57542003E9,362.0,NaN,NaN
Raw,232910919418869,649715205000000,,,-1265581155241041880,-0.23135066032409668,33.25238503748551,10.528048360716925,11.649754082230684,147,4,0.0,23567,384470359069624,35,22.8,517.1801147460938,0.7549999952316284,16,0.0,0.0,1.57542003E9,,,,0,,6,-0.6,1.57542003E9,362.0,NaN,NaN
Raw,232910919418869,649715205000000,,,-1265581155241041880,-0.23135066032409668,33.25238503748551,10.528048360716925,11.649754082230684,147,5,0.0,23567,384470361400966,35,22.3,-406.0771789550781,0.7519999742507935,16,0.0,0.0,1.57542003E9,,,,0,,6,-0.6,1.57542003E9,362.0,NaN,NaN
Raw,232910919418869,649715205000000,,,-1265581155241041880,-0.23135066032409668,33.25238503748551,10.528048360716925,11.649754082230684,147,9,0.0,23567,384470374243885,8,36.8,87.34154510498047,0.04660000279545784,25,11645.601103605852,0.0025499350854412276,1.57542003E9,,,,0,,6,-0.6,1.57542003E9,362.0,NaN,NaN
Raw,232910919418869,649715205000000,,,-1265581155241041880,-0.23135066032409668,33.25238503748551,10.528048360716925,11.649754082230684,147,31,0.0,23567,384470367425093,6,38.3,-114.29276275634766,0.047600001096725464,25,-17364.79726561918,0.0020551716777868216,1.57542003E9,,,,0,,6,-0.6,1.57542003E9,362.0,NaN,NaN
Raw,232910919418869,649715205000000,,,-1265581155241041880,-0.23135066032409668,33.25238503748551,10.528048360716925,11.649754082230684,147,24,0.0,81935,384470371169439,11,19.0,-566.864990234375,1.7630000114440918,16,0.0,0.0,1.17645005E9,,,,0,,1,0.02,1.17645005E9,362.0,NaN,NaN
Raw,232910919418869,649715205000000,,,-1265581155241041880,-0.23135066032409668,33.25238503748551,10.528048360716925,11.649754082230684,147,30,0.0,81935,384470367358890,4,29.5,602.3052368164062,0.04150000214576721,29,82426.71069854074,0.0037714549693657518,1.17645005E9,,,,0,,1,0.02,1.17645005E9,362.0,NaN,NaN
Raw,232910919418869,649715205000000,,,-1265581155241041880,-0.23135066032409668,33.25238503748551,10.528048360716925,11.649754082230684,147,1,0.0,81935,384470361190194,5,28.3,408.8760986328125,0.019600000232458115,25,55586.53068275654,0.0040262828122019055,1.17645005E9,,,,0,,6,0.02,1.17645005E9,362.0,NaN,NaN
Raw,232910919418869,649715205000000,,,-1265581155241041880,-0.23135066032409668,33.25238503748551,10.528048360716925,11.649754082230684,147,4,0.0,81935,384470359076629,8,22.3,517.0617065429688,0.06520000100135803,25,70596.17028030519,0.25482803839368795,1.17645005E9,,,,0,,6,0.02,1.17645005E9,362.0,NaN,NaN
Raw,232910919418869,649715205000000,,,-1265581155241041880,-0.23135066032409668,33.25238503748551,10.528048360716925,11.649754082230684,147,5,0.0,81935,384470361408028,8,23.4,-405.83660888671875,0.02070000022649765,25,-56248.75159194227,0.25482803839368795,1.17645005E9,,,,0,,6,0.02,1.17645005E9,362.0,NaN,NaN
Raw,232910919418869,649715205000000,,,-1265581155241041880,-0.23135066032409668,33.25238503748551,10.528048360716925,11.649754082230684,147,9,0.0,81935,384470374250970,3,33.8,87.40950012207031,0.04650000110268593,25,11193.028578595056,0.0022170039651624013,1.17645005E9,,,,0,,6,0.02,1.17645005E9,362.0,NaN,NaN
Raw,232910919418869,649715205000000,,,-1265581155241041880,-0.23135066032409668,33.25238503748551,10.528048360716925,11.649754082230684,147,31,0.0,81935,384470367432182,2,35.3,-114.16138458251953,0.0340999998152256,25,-16561.088591154105,0.0017837963238157039,1.17645005E9,,,,0,,6,0.02,1.17645005E9,362.0,NaN,NaN
Fix,gps,51.524638,-0.134350,74.516113,0.000000,3.790092,1582195654000,232911908429645
Raw,232911922782042,649716205000000,,,-1265581155241041866,-0.29131436347961426,30.759045330341905,11.487384400337524,9.990399348812195,147,5,0.0,16399,384471364190684,27,24.6,731.3530883789062,0.047300003468990326,19,105590.22074751946,0.19029366893311156,1.57542003E9,,,,0,,1,0.61,1.57542003E9,362.0,NaN,NaN
Raw,232911922782042,649716205000000,,,-1265581155241041866,-0.29131436347961426,30.759045330341905,11.487384400337524,9.990399348812195,147,13,0.0,16399,384471377802413,6,39.1,256.5093994140625,0.04430000111460686,25,36118.81762340622,8.372921387687362E-4,1.57542003E9,,,,0,,1,0.61,1.57542003E9,362.0,NaN,NaN
Raw,232911922782042,649716205000000,,,-1265581155241041866,-0.29131436347961426,30.759045330341905,11.487384400337524,9.990399348812195,147,15,0.0,16399,384471378467696,5,41.6,-72.53197479248047,0.04530000314116478,25,-11683.589804007426,6.850571963914755E-4,1.57542003E9,,,,0,,1,0.61,1.57542003E9,362.0,NaN,NaN
Raw,232911922782042,649716205000000,,,-1265581155241041866,-0.29131436347961426,30.759045330341905,11.487384400337524,9.990399348812195,147,17,0.0,16399,384471364210065,10,34.8,-523.9595336914062,0.026600001379847527,25,-76280.73394157665,0.0015223494237726067,1.57542003E9,,,,0,,1,0.61,1.57542003E9,362.0,NaN,NaN
Raw,232911922782042,649716205000000,,,-1265581155241041866,-0.29131436347961426,30.759045330341905,11.487384400337524,9.990399348812195,147,20,0.0,16399,384471369826924,31,23.3,-316.1953125,0.12470000237226486,21,-458.0253824901644,0.19029366893311156,1.57542003E9,,,,0,,1,0.61,1.57542003E9,362.0,NaN,NaN
Raw,232911922782042,649716205000000,,,-1265581155241041866,-0.29131436347961426,30.759045330341905,11.487384400337524,9.990399348812195,147,24,0.0,16399,384471371163602,53,19.7,-567.2940063476562,1.0130000114440918,16,0.0,0.0,1.57542003E9,,,,0,,1,0.61,1.57542003E9,362.0,NaN,NaN
Raw,232911922782042,649716205000000,,,-1265581155241041866,-0.29131436347961426,30.759045330341905,11.487384400337524,9.990399348812195,147,28,0.0,16399,384471374231974,5,41.1,227.69857788085938,0.03930000215768814,25,31804.361746350492,6.850571963914755E-4,1.57542003E9,,,,0,,1,0.61,1.57542003E9,362.0,NaN,NaN
Raw,232911922782042,649716205000000,,,-1265581155241041866,-0.29131436347961426,30.759045330341905,11.487384400337524,9.990399348812195,147,30,0.0,16399,384471367349067,12,32.1,601.716552734375,0.03210000321269035,25,86786.66900282085,0.001807789796734829,1.57542003E9,,,,0,,1,0.61,1.57542003E9,362.0,NaN,NaN
Raw,232911922782042,649716205000000,,,-1265581155241041866,-0.29131436347961426,30.759045330341905,11.487384400337524,9.990399348812195,147,14,0.0,49359,49653382197629,7,37.9,17.44890594482422,0.2224000096321106,25,1090.4131501680245,9.94266504915028E-4,1.59806246E9,,,,0,,3,-0.41,1.59806246E9,362.0,NaN,NaN
Raw,232911922782042,649716205000000,,,-1265581155241041866,-0.29131436347961426,30.759045330341905,11.487384400337524,9.990399348812195,147,22,0.0,49359,49653368687442,21,26.0,-106.85861206054688,0.2387000024318695,21,-16792.166719547116,0.005357743897484537,1.60031245E9,,,,0,,3,-0.41,1.60031245E9,362.0,NaN,NaN
Raw,232911922782042,649716205000000,,,-1265581155241041866,-0.29131436347961426,30.759045330341905,11.487384400337524,9.990399348812195,147,13,0.0,49359,49653374301734,13,31.0,662.8333740234375,0.24310000240802765,25,95081.09008018645,0.0020412198384807895,1.60087501E9,,,,0,,3,-0.41,1.60087501E9,362.0,NaN,NaN
Raw,232911922782042,649716205000000,,,-1265581155241041866,-0.29131436347961426,30.759045330341905,11.487384400337524,9.990399348812195,147,15,0.0,49359,49653374825317,17,28.3,-630.9027709960938,0.24620001018047333,19,-91409.32540194341,0.0029567544367518762,1.602E9,,,,0,,3,-0.41,1.602E9,362.0,NaN,NaN
Raw,232911922782042,649716205000000,,,-1265581155241041866,-0.29131436347961426,30.759045330341905,11.487384400337524,9.990399348812195,147,5,0.0,49359,49653377612247,6,39.2,-520.532470703125,0.2443000078201294,25,-76300.08387609375,8.23110960518378E-4,1.60256256E9,,,,0,,3,-0.41,1.60256256E9,362.0,NaN,NaN
Raw,232911922782042,649716205000000,,,-1265581155241041866,-0.29131436347961426,30.759045330341905,11.487384400337524,9.990399348812195,147,3,0.0,49359,49653370895668,24,25.4,793.8170776367188,0.2483000010251999,25,113972.75433664498,0.1868083964827234,1.60481254E9,,,,0,,3,-0.41,1.60481254E9,362.0,NaN,NaN
Raw,232911922782042,649716205000000,,,-1265581155241041866,-0.29131436347961426,30.759045330341905,11.487384400337524,9.990399348812195,147,4,0.0,49359,49653381350291,9,35.6,259.69110107421875,0.2215999960899353,25,35675.91553162796,0.0013072006865361828,1.60537498E9,,,,0,,3,-0.41,1.60537498E9,362.0,NaN,NaN
Raw,232911922782042,649716205000000,,,-1265581155241041866,-0.29131436347961426,30.759045330341905,11.487384400337524,9.990399348812195,147,37,0.0,16399,384457365926795,4,42.7,494.9233703613281,0.025600001215934753,25,71154.60815305614,5.953224307615613E-4,1.56109798E9,,,,0,,5,0.85,1.56109798E9,362.0,NaN,NaN
Raw,232911922782042,649716205000000,,,-1265581155241041866,-0.29131436347961426,30.759045330341905,11.487384400337524,9.990399348812195,147,22,0.0,16399,384457366595262,14,30.5,-373.8692626953125,0.03189999982714653,25,-54978.25124254752,0.0024196975554572116,1.56109798E9,,,,0,,5,0.85,1.56109798E9,362.0,NaN,NaN
Raw,232911922782042,649716205000000,,,-1265581155241041866,-0.29131436347961426,30.759045330341905,11.487384400337524,9.990399348812195,147,20,0.0,16399,384457362358070,27,24.9,651.1995849609375,0.04430000111460686,29,19204.575165491282,0.1920394882785269,1.56109798E9,,,,0,,5,0.85,1.56109798E9,362.0,NaN,NaN
Raw,232911922782042,649716205000000,,,-1265581155241041866,-0.29131436347961426,30.759045330341905,11.487384400337524,9.990399348812195,147,10,0.0,16399,384457313465359,7,37.4,176.11790466308594,0.03890000283718109,25,25006.706713099396,0.0010178092579723537,1.56109798E9,,,,0,,5,0.85,1.56109798E9,362.0,NaN,NaN
Raw,232911922782042,649716205000000,,,-1265581155241041866,-0.29131436347961426,30.759045330341905,11.487384400337524,9.990399348812195,147,1,0.0,23567,384471361181748,5,41.8,408.2616882324219,0.043800003826618195,25,58484.36955862859,0.001484290577412798,1.57542003E9,,,,0,,6,-0.51,1.57542003E9,362.0,NaN,NaN
Raw,232911922782042,649716205000000,,,-1265581155241041866,-0.29131436347961426,30.759045330341905,11.487384400337524,9.990399348812195,147,4,0.0,23567,384471359067925,40,21.2,515.791015625,0.8149999976158142,16,0.0,0.0,1.57542003E9,,,,0,,6,-0.51,1.57542003E9,362.0,NaN,NaN
Raw,232911922782042,649716205000000,,,-1265581155241041866,-0.29131436347961426,30.759045330341905,11.487384400337524,9.990399348812195,147,5,0.0,23567,384471361402286,46,20.4,-405.8107604980469,0.871999979019165,16,0.0,0.0,1.57542003E9,,,,0,,6,-0.51,1.57542003E9,362.0,NaN,NaN
Raw,232911922782042,649716205000000,,,-1265581155241041866,-0.29131436347961426,30.759045330341905,11.487384400337524,9.990399348812195,147,9,0.0,23567,384471374243616,9,35.1,86.85084533691406,0.0471000038087368,25,11732.486020478103,0.0028924638165555576,1.57542003E9,,,,0,,6,-0.51,1.57542003E9,362.0,NaN,NaN
Raw,232911922782042,649716205000000,,,-1265581155241041866,-0.29131436347961426,30.759045330341905,11.487384400337524,9.990399348812195,147,31,0.0,23567,384471367425480,7,37.5,-114.77257537841797,0.0479000024497509,25,-17479.52182687567,0.0021883771969841777,1.57542003E9,,,,0,,6,-0.51,1.57542003E9,362.0,NaN,NaN
Raw,232911922782042,649716205000000,,,-1265581155241041866,-0.29131436347961426,30.759045330341905,11.487384400337524,9.990399348812195,147,24,0.0,81935,384471371171300,9,21.6,-566.7630615234375,0.8029999732971191,16,0.0,0.0,1.17645005E9,,,,0,,1,8.83,1.17645005E9,362.0,NaN,NaN
Raw,232911922782042,649716205000000,,,-1265581155241041866,-0.29131436347961426,30.759045330341905,11.487384400337524,9.990399348812195,147,30,0.0,81935,384471367356885,4,30.3,601.7140502929688,0.03970000147819519,25,83028.49616654168,0.0032108332879374254,1.17645005E9,,,,0,,1,8.83,1.17645005E9,362.0,NaN,NaN
Raw,232911922782042,649716205000000,,,-1265581155241041866,-0.29131436347961426,30.759045330341905,11.487384400337524,9.990399348812195,147,1,0.0,81935,384471361188830,6,26.1,408.2132568359375,0.04360000044107437,25,55994.84437193114,0.007288081858568245,1.17645005E9,,,,0,,6,8.83,1.17645005E9,362.0,NaN,NaN
Raw,232911922782042,649716205000000,,,-1265581155241041866,-0.29131436347961426,30.759045330341905,11.487384400337524,9.990399348812195,147,4,0.0,81935,384471359074911,9,21.8,516.409423828125,0.060600001364946365,25,71112.72113125227,0.25482803839368795,1.17645005E9,,,,0,,6,8.83,1.17645005E9,362.0,NaN,NaN
Raw,232911922782042,649716205000000,,,-1265581155241041866,-0.29131436347961426,30.759045330341905,11.487384400337524,9.990399348812195,147,5,0.0,81935,384471361409390,6,25.6,-406.4866638183594,0.03189999982714653,25,-56655.10210858393,0.25482803839368795,1.17645005E9,,,,0,,6,8.83,1.17645005E9,362.0,NaN,NaN
Raw,232911922782042,649716205000000,,,-1265581155241041866,-0.29131436347961426,30.759045330341905,11.487384400337524,9.990399348812195,147,9,0.0,81935,384471374250681,2,35.2,86.76581573486328,0.044600002467632294,25,11279.907725990548,0.0017837963238157039,1.17645005E9,,,,0,,6,8.83,1.17645005E9,362.0,NaN,NaN
Raw,232911922782042,649716205000000,,,-1265581155241041866,-0.29131436347961426,30.759045330341905,11.487384400337524,9.990399348812195,147,31,0.0,81935,384471367432563,2,36.3,-114.82266235351562,0.033400002866983414,25,-16675.82312734137,0.0015544510042033504,1.17645005E9,,,,0,,6,8.83,1.17645005E9,362.0,NaN,NaN
Fix,gps,51.524638,-0.134350,74.517273,0.000000,3.790092,1582195655000,232912893989326
Raw,232912918824381,649717205000000,,,-1265581155241041860,-0.46496033668518066,32.21509177819826,9.436040734541473,10.672758877385355,147,5,0.0,16399,384472364188302,31,23.8,732.13232421875,0.11720000207424164,21,106322.18089691186,0.19029366893311156,1.57542003E9,,,,0,,1,0.66,1.57542003E9,362.0,NaN,NaN
Raw,232912918824381,649717205000000,,,-1265581155241041860,-0.46496033668518066,32.21509177819826,9.436040734541473,10.672758877385355,147,13,0.0,16399,384472377801555,6,39.9,257.3346862792969,0.04430000111460686,25,36375.91001283061,8.372921387687362E-4,1.57542003E9,,,,0,,1,0.66,1.57542003E9,362.0,NaN,NaN
Raw,232912918824381,649717205000000,,,-1265581155241041860,-0.46496033668518066,32.21509177819826,9.436040734541473,10.672758877385355,147,15,0.0,16399,384472378467936,6,39.6,-71.66555786132812,0.04580000042915344,25,-11755.513404454012,8.372921387687362E-4,1.57542003E9,,,,0,,1,0.66,1.57542003E9,362.0,NaN,NaN
Raw,232912918824381,649717205000000,,,-1265581155241041860,-0.46496033668518066,32.21509177819826,9.436040734541473,10.672758877385355,147,17,0.0,16399,384472364211846,10,34.1,-523.1429443359375,0.026600001379847527,25,-76804.07917764135,0.0015223494237726067,1.57542003E9,,,,0,,1,0.66,1.57542003E9,362.0,NaN,NaN
Raw,232912918824381,649717205000000,,,-1265581155241041860,-0.46496033668518066,32.21509177819826,9.436040734541473,10.672758877385355,147,24,0.0,16399,384472371165326,27,24.3,-566.6448974609375,0.05780000239610672,19,-10456.698566987401,0.19029366893311156,1.57542003E9,,,,0,,1,0.66,1.57542003E9,362.0,NaN,NaN
Raw,232912918824381,649717205000000,,,-1265581155241041860,-0.46496033668518066,32.21509177819826,9.436040734541473,10.672758877385355,147,28,0.0,16399,384472374231203,5,41.4,228.55104064941406,0.03930000215768814,25,32032.675714150304,6.850571963914755E-4,1.57542003E9,,,,0,,1,0.66,1.57542003E9,362.0,NaN,NaN
Raw,232912918824381,649717205000000,,,-1265581155241041860,-0.46496033668518066,32.21509177819826,9.436040734541473,10.672758877385355,147,30,0.0,16399,384472367347038,10,34.7,602.4690551757812,0.03110000118613243,25,87388.97262636838,0.0015223494237726067,1.57542003E9,,,,0,,1,0.66,1.57542003E9,362.0,NaN,NaN
Raw,232912918824381,649717205000000,,,-1265581155241041860,-0.46496033668518066,32.21509177819826,9.436040734541473,10.672758877385355,147,14,0.0,49359,49654382197539,7,37.7,18.319026947021484,0.2224000096321106,25,1108.466869802608,9.94266504915028E-4,1.59806246E9,,,,0,,3,-0.41,1.59806246E9,362.0,NaN,NaN
Raw,232912918824381,649717205000000,,,-1265581155241041860,-0.46496033668518066,32.21509177819826,9.436040734541473,10.672758877385355,147,22,0.0,49359,49654368687791,21,26.2,-105.86434936523438,0.2387000024318695,29,-16898.308427442404,0.005357743897484537,1.60031245E9,,,,0,,3,-0.41,1.60031245E9,362.0,NaN,NaN
Raw,232912918824381,649717205000000,,,-1265581155241041860,-0.46496033668518066,32.21509177819826,9.436040734541473,10.672758877385355,147,13,0.0,49359,49654374299505,14,30.6,663.6163940429688,0.24390000104904175,25,95744.50235270488,0.0023595752053329456,1.60087501E9,,,,0,,3,-0.41,1.60087501E9,362.0,NaN,NaN
Raw,232912918824381,649717205000000,,,-1265581155241041860,-0.46496033668518066,32.21509177819826,9.436040734541473,10.672758877385355,147,15,0.0,49359,49654374827426,14,30.6,-630.0885009765625,0.24390000104904175,25,-92039.66235834555,0.0023579182120561683,1.602E9,,,,0,,3,-0.41,1.602E9,362.0,NaN,NaN
Raw,232912918824381,649717205000000,,,-1265581155241041860,-0.46496033668518066,32.21509177819826,9.436040734541473,10.672758877385355,147,5,0.0,49359,49654377613997,7,37.1,-519.7138061523438,0.24490000307559967,25,-76820.0478902433,9.91474542321254E-4,1.60256256E9,,,,0,,3,-0.41,1.60256256E9,362.0,NaN,NaN
Raw,232912918824381,649717205000000,,,-1265581155241041860,-0.46496033668518066,32.21509177819826,9.436040734541473,10.672758877385355,147,3,0.0,49359,49654370893061,17,28.1,794.5437622070312,0.240200012922287,25,114767.11401838405,0.002951572521903534,1.60481254E9,,,,0,,3,-0.41,1.60481254E9,362.0,NaN,NaN
Raw,232912918824381,649717205000000,,,-1265581155241041860,-0.46496033668518066,32.21509177819826,9.436040734541473,10.672758877385355,147,4,0.0,49359,49654381349393,9,35.0,260.59527587890625,0.20660001039505005,25,35936.2225546416,0.0013072006865361828,1.60537498E9,,,,0,,3,-0.41,1.60537498E9,362.0,NaN,NaN
Raw,232912918824381,649717205000000,,,-1265581155241041860,-0.46496033668518066,32.21509177819826,9.436040734541473,10.672758877385355,147,37,0.0,16399,384458365925141,4,42.8,495.68487548828125,0.025600001215934753,25,71650.09067408596,5.953224307615613E-4,1.56109798E9,,,,0,,5,0.91,1.56109798E9,362.0,NaN,NaN
Raw,232912918824381,649717205000000,,,-1265581155241041860,-0.46496033668518066,32.21509177819826,9.436040734541473,10.672758877385355,147,22,0.0,16399,384458366596546,16,29.1,-373.1958923339844,0.03290000185370445,21,-55351.63414702574,0.0028421844273806814,1.56109798E9,,,,0,,5,0.91,1.56109798E9,362.0,NaN,NaN
Raw,232912918824381,649717205000000,,,-1265581155241041860,-0.46496033668518066,32.21509177819826,9.436040734541473,10.672758877385355,147,20,0.0,16399,384458362355875,31,23.5,652.0947265625,0.11420000344514847,21,19856.28745150704,0.1920394882785269,1.56109798E9,,,,0,,5,0.91,1.56109798E9,362.0,NaN,NaN
Raw,232912918824381,649717205000000,,,-1265581155241041860,-0.46496033668518066,32.21509177819826,9.436040734541473,10.672758877385355,147,19,0.0,16399,384458372278840,53,19.9,239.09877014160156,0.9044999480247498,16,0.0,0.0,1.56109798E9,,,,0,,5,0.91,1.56109798E9,362.0,NaN,NaN
Raw,232912918824381,649717205000000,,,-1265581155241041860,-0.46496033668518066,32.21509177819826,9.436040734541473,10.672758877385355,147,10,0.0,16399,384458313464765,7,37.2,176.84005737304688,0.03890000283718109,25,25183.38975919499,0.0010178092579723537,1.56109798E9,,,,0,,5,0.91,1.56109798E9,362.0,NaN,NaN
Raw,232912918824381,649717205000000,,,-1265581155241041860,-0.46496033668518066,32.21509177819826,9.436040734541473,10.672758877385355,147,1,0.0,23567,384472361180382,5,41.6,409.00567626953125,0.043800003826618195,25,58893.17743611533,0.001484290577412798,1.57542003E9,,,,0,,6,-0.41,1.57542003E9,362.0,NaN,NaN
Raw,232912918824381,649717205000000,,,-1265581155241041860,-0.46496033668518066,32.21509177819826,9.436040734541473,10.672758877385355,147,4,0.0,23567,384472359066062,31,23.1,516.8756713867188,0.7549999952316284,16,0.0,0.0,1.57542003E9,,,,0,,6,-0.41,1.57542003E9,362.0,NaN,NaN
Raw,232912918824381,649717205000000,,,-1265581155241041860,-0.46496033668518066,32.21509177819826,9.436040734541473,10.672758877385355,147,5,0.0,23567,384472361403692,40,21.5,-405.52532958984375,0.8119999766349792,16,0.0,0.0,1.57542003E9,,,,0,,6,-0.41,1.57542003E9,362.0,NaN,NaN
Raw,232912918824381,649717205000000,,,-1265581155241041860,-0.46496033668518066,32.21509177819826,9.436040734541473,10.672758877385355,147,9,0.0,23567,384472374243328,11,33.4,87.63057708740234,0.04820000380277634,25,11819.88891930801,0.003596550258902148,1.57542003E9,,,,0,,6,-0.41,1.57542003E9,362.0,NaN,NaN
Raw,232912918824381,649717205000000,,,-1265581155241041860,-0.46496033668518066,32.21509177819826,9.436040734541473,10.672758877385355,147,31,0.0,23567,384472367425853,9,35.8,-113.97390747070312,0.048600003123283386,25,-17593.714523574738,0.0028924638165555576,1.57542003E9,,,,0,,6,-0.41,1.57542003E9,362.0,NaN,NaN
Raw,232912918824381,649717205000000,,,-1265581155241041860,-0.46496033668518066,32.21509177819826,9.436040734541473,10.672758877385355,147,24,0.0,81935,384472371173222,10,20.8,-566.5769653320312,0.061900001019239426,27,-80489.21036813041,0.25482803839368795,1.17645005E9,,,,0,,1,2.54,1.17645005E9,362.0,NaN,NaN
Raw,232912918824381,649717205000000,,,-1265581155241041860,-0.46496033668518066,32.21509177819826,9.436040734541473,10.672758877385355,147,30,0.0,81935,384472367354876,4,30.1,602.4683837890625,0.03970000147819519,29,83630.79991327914,0.0032108332879374254,1.17645005E9,,,,0,,1,2.54,1.17645005E9,362.0,NaN,NaN
Raw,232912918824381,649717205000000,,,-1265581155241041860,-0.46496033668518066,32.21509177819826,9.436040734541473,10.672758877385355,147,1,0.0,81935,384472361187478,5,27.6,409.6224670410156,0.02250000089406967,29,56403.402561939685,0.004332076888121183,1.17645005E9,,,,0,,6,2.54,1.17645005E9,362.0,NaN,NaN
Raw,232912918824381,649717205000000,,,-1265581155241041860,-0.46496033668518066,32.21509177819826,9.436040734541473,10.672758877385355,147,4,0.0,81935,384472359073176,8,22.1,517.410400390625,0.060600001364946365,25,71629.83367079352,0.25482803839368795,1.17645005E9,,,,0,,6,2.54,1.17645005E9,362.0,NaN,NaN
Raw,232912918824381,649717205000000,,,-1265581155241041860,-0.46496033668518066,32.21509177819826,9.436040734541473,10.672758877385355,147,5,0.0,81935,384472361410739,7,24.6,-405.54730224609375,0.01860000006854534,25,-57060.872131634955,0.25482803839368795,1.17645005E9,,,,0,,6,2.54,1.17645005E9,362.0,NaN,NaN
Raw,232912918824381,649717205000000,,,-1265581155241041860,-0.46496033668518066,32.21509177819826,9.436040734541473,10.672758877385355,147,9,0.0,81935,384472374250390,2,34.3,87.79762268066406,0.045500002801418304,25,11367.322130061726,0.0020386244039789624,1.17645005E9,,,,0,,6,2.54,1.17645005E9,362.0,NaN,NaN
Raw,232912918824381,649717205000000,,,-1265581155241041860,-0.46496033668518066,32.21509177819826,9.436040734541473,10.672758877385355,147,24,0.0,81935,384472364878336,23,13.7,-539.3562622070312,3.7325000762939453,16,0.0,0.0,1.17645005E9,,,,0,,6,2.54,1.17645005E9,362.0,NaN,NaN
Raw,232912918824381,649717205000000,,,-1265581155241041860,-0.46496033668518066,32.21509177819826,9.436040734541473,10.672758877385355,147,31,0.0,81935,384472367432945,3,33.7,-113.80878448486328,0.036000002175569534,25,-16790.008697915764,0.0022170039651624013,1.17645005E9,,,,0,,6,2.54,1.17645005E9,362.0,NaN,NaN
Fix,gps,51.524638,-0.134350,74.518860,0.000000,3.790092,1582195656000,232913910571146
Raw,232913927078544,649718205000000,,,-1265581155241041846,-0.0071086883544921875,33.118456485681236,11.930136772276436,10.923991419169575,147,5,0.0,16399,384473364185809,21,26.0,731.5044555664062,0.03270000219345093,17,107053.8538558783,0.005442398901996786,1.57542003E9,,,,0,,1,0.59,1.57542003E9,362.0,NaN,NaN
Raw,232913927078544,649718205000000,,,-1265581155241041846,-0.0071086883544921875,33.118456485681236,11.930136772276436,10.923991419169575,147,13,0.0,16399,384473377800701,5,41.3,256.8440246582031,0.043800003826618195,25,36632.906324444644,6.850571963914755E-4,1.57542003E9,,,,0,,1,0.59,1.57542003E9,362.0,NaN,NaN
Raw,232913927078544,649718205000000,,,-1265581155241041846,-0.0071086883544921875,33.118456485681236,11.930136772276436,10.923991419169575,147,15,0.0,16399,384473378468136,6,38.8,-72.16516876220703,0.04610000178217888,25,-11827.507648866336,9.324389888310735E-4,1.57542003E9,,,,0,,1,0.59,1.57542003E9,362.0,NaN,NaN
Raw,232913927078544,649718205000000,,,-1265581155241041846,-0.0071086883544921875,33.118456485681236,11.930136772276436,10.923991419169575,147,17,0.0,16399,384473364213579,11,33.3,-523.6729736328125,0.0272000003606081,25,-77327.59418242348,0.001655554942969963,1.57542003E9,,,,0,,1,0.59,1.57542003E9,362.0,NaN,NaN
Raw,232913927078544,649718205000000,,,-1265581155241041846,-0.0071086883544921875,33.118456485681236,11.930136772276436,10.923991419169575,147,20,0.0,16399,384473369829178,19,27.7,-315.8492736816406,0.00930000003427267,19,-142.12727557931444,0.003234992547669888,1.57542003E9,,,,0,,1,0.59,1.57542003E9,362.0,NaN,NaN
