# 
# Header Description:
# 
# Version: v2.0.0.1 Platform: 10 Manufacturer: Google Model: Pixel 4
# 
# Raw,ElapsedRealtimeNanos,TimeNanos,LeapSecond,TimeUncertaintyNanos,FullBiasNanos,BiasNanos,BiasUncertaintyNanos,DriftNanosPerSecond,DriftUncertaintyNanosPerSecond,HardwareClockDiscontinuityCount,Svid,TimeOffsetNanos,State,ReceivedSvTimeNanos,ReceivedSvTimeUncertaintyNanos,Cn0DbHz,PseudorangeRateMetersPerSecond,PseudorangeRateUncertaintyMetersPerSecond,AccumulatedDeltaRangeState,AccumulatedDeltaRangeMeters,AccumulatedDeltaRangeUncertaintyMeters,CarrierFrequencyHz,CarrierCycles,CarrierPhase,CarrierPhaseUncertainty,MultipathIndicator,SnrInDb,ConstellationType,AgcDb,CarrierFrequencyHz,UserLatitude,UserLongitude,UserAltitude
# 
# Fix,Provider,Latitude,Longitude,Altitude,Speed,Accuracy,(UTC)TimeInMs,ElapsedRealtimeNanos
# 
# Nav,Svid,Type,Status,MessageId,Sub-messageId,Data(Bytes)
# 
Fix,gps,51.524807,-0.134124,78.576172,0.000000,3.790092,1582195297000,232554905496424
Raw,232554929499916,649359188000000,,,-1265581155250939640,0.43912172317504883,38.063280953792855,-27.65474104309714,11.703798046743714,122,5,0.0,16399,384114357954150,35,22.4,716.7221069335938,0.8119999766349792,16,0.0,0.0,1.57542003E9,,,,0,,1,0.26,1.57542003E9,356.0,NaN,NaN
Raw,232554929499916,649359188000000,,,-1265581155250939640,0.43912172317504883,38.063280953792855,-27.65474104309714,11.703798046743714,122,13,0.0,16399,384114370982524,7,37.1,211.7554168701172,0.03440000116825104,25,1545.3351650931454,0.0010085564157135064,1.57542003E9,,,,0,,1,0.26,1.57542003E9,356.0,NaN,NaN
Raw,232554929499916,649359188000000,,,-1265581155250939640,0.43912172317504883,38.063280953792855,-27.65474104309714,11.703798046743714,122,15,0.0,16399,384114371252466,13,31.9,-122.90940856933594,0.038600001484155655,25,-902.0638021581598,0.002074201012354331,1.57542003E9,,,,0,,1,0.26,1.57542003E9,356.0,NaN,NaN
Raw,232554929499916,649359188000000,,,-1265581155250939640,0.43912172317504883,38.063280953792855,-27.65474104309714,11.703798046743714,122,20,0.0,16399,384114362320942,24,25.6,-367.783203125,0.03629999980330467,29,-1657.2389354616637,0.19029366893311156,1.57542003E9,,,,0,,1,0.26,1.57542003E9,356.0,NaN,NaN
Raw,232554929499916,649359188000000,,,-1265581155250939640,0.43912172317504883,38.063280953792855,-27.65474104309714,11.703798046743714,122,24,0.0,16399,384114363371724,35,22.5,-595.7667236328125,0.4343000054359436,19,-216.5405598640897,0.19029366893311156,1.57542003E9,,,,0,,1,0.26,1.57542003E9,356.0,NaN,NaN
Raw,232554929499916,649359188000000,,,-1265581155250939640,0.43912172317504883,38.063280953792855,-27.65474104309714,11.703798046743714,122,28,0.0,16399,384114367374711,5,40.9,177.60984802246094,0.029100000858306885,25,1294.5987801147862,7.42145288706399E-4,1.57542003E9,,,,0,,1,0.26,1.57542003E9,356.0,NaN,NaN
Raw,232554929499916,649359188000000,,,-1265581155250939640,0.43912172317504883,38.063280953792855,-27.65474104309714,11.703798046743714,122,30,0.0,16399,384114360954712,31,23.3,581.4931030273438,0.1112000048160553,21,4114.594531180453,0.19029366893311156,1.57542003E9,,,,0,,1,0.26,1.57542003E9,356.0,NaN,NaN
Raw,232554929499916,649359188000000,,,-1265581155250939640,0.43912172317504883,38.063280953792855,-27.65474104309714,11.703798046743714,122,14,0.0,49359,49296375084239,5,40.3,-42.07685852050781,0.241100013256073,25,-294.8778227586743,7.316300713026974E-4,1.59806246E9,,,,0,,3,-0.69,1.59806246E9,356.0,NaN,NaN
Raw,232554929499916,649359188000000,,,-1265581155250939640,0.43912172317504883,38.063280953792855,-27.65474104309714,11.703798046743714,122,22,0.0,49359,49296361419912,53,19.8,-176.3746795654297,2.6180002689361572,16,0.0,0.0,1.60031245E9,,,,0,,3,-0.69,1.60031245E9,356.0,NaN,NaN
Raw,232554929499916,649359188000000,,,-1265581155250939640,0.43912172317504883,38.063280953792855,-27.65474104309714,11.703798046743714,122,13,0.0,49359,49296367973811,24,25.5,631.177490234375,0.24379999935626984,29,4359.356519302284,0.18726787319550683,1.60087501E9,,,,0,,3,-0.69,1.60087501E9,356.0,NaN,NaN
Raw,232554929499916,649359188000000,,,-1265581155250939640,0.43912172317504883,38.063280953792855,-27.65474104309714,11.703798046743714,122,15,0.0,49359,49296366951965,13,31.9,-669.6072387695312,0.23110000789165497,25,-3717.076803513466,0.0020397864077763375,1.602E9,,,,0,,3,-0.69,1.602E9,356.0,NaN,NaN
Raw,232554929499916,649359188000000,,,-1265581155250939640,0.43912172317504883,38.063280953792855,-27.65474104309714,11.703798046743714,122,5,0.0,49359,49296369864161,4,43.2,-569.5031127929688,0.23149999976158142,25,-3937.6957713720576,5.050908325201994E-4,1.60256256E9,,,,0,,3,-0.69,1.60256256E9,356.0,NaN,NaN
Raw,232554929499916,649359188000000,,,-1265581155250939640,0.43912172317504883,38.063280953792855,-27.65474104309714,11.703798046743714,122,3,0.0,49359,49296364723758,8,36.0,762.1530151367188,0.225600004196167,25,5261.156874876455,0.0011395311965536827,1.60481254E9,,,,0,,3,-0.69,1.60481254E9,356.0,NaN,NaN
Raw,232554929499916,649359188000000,,,-1265581155250939640,0.43912172317504883,38.063280953792855,-27.65474104309714,11.703798046743714,122,4,0.0,49359,49296374521562,7,37.5,193.7447052001953,0.24040000140666962,25,1335.2931723168701,9.897376030341073E-4,1.60537498E9,,,,0,,3,-0.69,1.60537498E9,356.0,NaN,NaN
Raw,232554929499916,649359188000000,,,-1265581155250939640,0.43912172317504883,38.063280953792855,-27.65474104309714,11.703798046743714,122,37,0.0,16399,384100359402282,5,40.3,469.14727783203125,0.0471000038087368,25,3404.361533673182,7.489539839688142E-4,1.56109798E9,,,,0,,5,0.41,1.56109798E9,356.0,NaN,NaN
Raw,232554929499916,649359188000000,,,-1265581155250939640,0.43912172317504883,38.063280953792855,-27.65474104309714,11.703798046743714,122,22,0.0,16399,384100359027266,5,41.0,-414.029296875,0.046800002455711365,25,-3008.136416429646,6.913421459270097E-4,1.56109798E9,,,,0,,5,0.41,1.56109798E9,356.0,NaN,NaN
Raw,232554929499916,649359188000000,,,-1265581155250939640,0.43912172317504883,38.063280953792855,-27.65474104309714,11.703798046743714,122,20,0.0,16399,384100356020992,9,35.1,627.6837768554688,0.04410000145435333,17,4527.655298786419,0.0013442764594430532,1.56109798E9,,,,0,,5,0.41,1.56109798E9,356.0,NaN,NaN
Raw,232554929499916,649359188000000,,,-1265581155250939640,0.43912172317504883,38.063280953792855,-27.65474104309714,11.703798046743714,122,19,0.0,16399,384100365435744,16,29.0,189.8768310546875,0.03140000253915787,21,903.0580600464739,0.0028421844273806814,1.56109798E9,,,,0,,5,0.41,1.56109798E9,356.0,NaN,NaN
Raw,232554929499916,649359188000000,,,-1265581155250939640,0.43912172317504883,38.063280953792855,-27.65474104309714,11.703798046743714,122,10,0.0,16399,384100306566958,21,26.9,160.21189880371094,0.014700000174343586,19,71.60981892770701,0.005492329335005111,1.56109798E9,,,,0,,5,0.41,1.56109798E9,356.0,NaN,NaN
Raw,232554929499916,649359188000000,,,-1265581155250939640,0.43912172317504883,38.063280953792855,-27.65474104309714,11.703798046743714,122,1,0.0,23567,384114354551486,7,37.1,378.29547119140625,0.046400003135204315,25,2728.4208462244987,0.0021883771969841777,1.57542003E9,,,,0,,6,0.23,1.57542003E9,356.0,NaN,NaN
Raw,232554929499916,649359188000000,,,-1265581155250939640,0.43912172317504883,38.063280953792855,-27.65474104309714,11.703798046743714,122,4,0.0,23567,384114352569286,6,38.7,491.5033264160156,0.04310000315308571,25,3545.102074161837,0.0020551716777868216,1.57542003E9,,,,0,,6,0.23,1.57542003E9,356.0,NaN,NaN
Raw,232554929499916,649359188000000,,,-1265581155250939640,0.43912172317504883,38.063280953792855,-27.65474104309714,11.703798046743714,122,5,0.0,23567,384114353803789,7,37.9,-432.6793518066406,0.04490000009536743,25,-3125.11367300549,0.0021883771969841777,1.57542003E9,,,,0,,6,0.23,1.57542003E9,356.0,NaN,NaN
Raw,232554929499916,649359188000000,,,-1265581155250939640,0.43912172317504883,38.063280953792855,-27.65474104309714,11.703798046743714,122,9,0.0,23567,384114367225365,10,34.7,48.590675354003906,0.04910000041127205,25,347.9348202583475,0.003311109885939926,1.57542003E9,,,,0,,6,0.23,1.57542003E9,356.0,NaN,NaN
Raw,232554929499916,649359188000000,,,-1265581155250939640,0.43912172317504883,38.063280953792855,-27.65474104309714,11.703798046743714,122,24,0.0,23567,384114357114722,21,26.2,-563.0172729492188,0.05220000073313713,21,-1439.1366185977731,0.011874324619302384,1.57542003E9,,,,0,,6,0.23,1.57542003E9,356.0,NaN,NaN
Raw,232554929499916,649359188000000,,,-1265581155250939640,0.43912172317504883,38.063280953792855,-27.65474104309714,11.703798046743714,122,31,0.0,23567,384114360166059,9,35.6,-154.9527130126953,0.04410000145435333,25,-1121.2422924947743,0.0028924638165555576,1.57542003E9,,,,0,,6,0.23,1.57542003E9,356.0,NaN,NaN
Raw,232554929499916,649359188000000,,,-1265581155250939640,0.43912172317504883,38.063280953792855,-27.65474104309714,11.703798046743714,122,24,0.0,81935,384114363379573,7,24.7,-595.749755859375,0.6690000295639038,16,0.0,0.0,1.17645005E9,,,,0,,1,-4.27,1.17645005E9,356.0,NaN,NaN
Raw,232554929499916,649359188000000,,,-1265581155250939640,0.43912172317504883,38.063280953792855,-27.65474104309714,11.703798046743714,122,30,0.0,81935,384114360962428,5,27.0,580.6865234375,0.09300000220537186,27,209.6795496913517,0.004332076888121183,1.17645005E9,,,,0,,1,-4.27,1.17645005E9,356.0,NaN,NaN
Raw,232554929499916,649359188000000,,,-1265581155250939640,0.43912172317504883,38.063280953792855,-27.65474104309714,11.703798046743714,122,1,0.0,81935,384114354558569,4,30.8,376.9854431152344,0.050200000405311584,25,512.7851576312823,0.0032108332879374254,1.17645005E9,,,,0,,6,-4.27,1.17645005E9,356.0,NaN,NaN
Raw,232554929499916,649359188000000,,,-1265581155250939640,0.43912172317504883,38.063280953792855,-27.65474104309714,11.703798046743714,122,4,0.0,81935,384114352576372,3,31.5,490.1482849121094,0.04580000042915344,29,665.1923097946631,0.0027776256465907277,1.17645005E9,,,,0,,6,-4.27,1.17645005E9,356.0,NaN,NaN
Raw,232554929499916,649359188000000,,,-1265581155250939640,0.43912172317504883,38.063280953792855,-27.65474104309714,11.703798046743714,122,5,0.0,81935,384114353810870,2,34.5,-433.85504150390625,0.04400000348687172,25,-585.4329474886475,0.0020386244039789624,1.17645005E9,,,,0,,6,-4.27,1.17645005E9,356.0,NaN,NaN
Raw,232554929499916,649359188000000,,,-1265581155250939640,0.43912172317504883,38.063280953792855,-27.65474104309714,11.703798046743714,122,9,0.0,81935,384114367232467,4,29.8,48.76134490966797,1.0420000553131104,16,0.0,0.0,1.17645005E9,,,,0,,6,-4.27,1.17645005E9,356.0,NaN,NaN
Raw,232554929499916,649359188000000,,,-1265581155250939640,0.43912172317504883,38.063280953792855,-27.65474104309714,11.703798046743714,122,31,0.0,81935,384114360173141,4,29.6,-156.26016235351562,0.03099999949336052,25,-207.24171058008108,0.0037714549693657518,1.17645005E9,,,,0,,6,-4.27,1.17645005E9,356.0,NaN,NaN
Fix,gps,51.524804,-0.134118,77.279968,0.000000,3.790092,1582195298000,232555908069024
Raw,232555931853454,649360188000000,,,-1265581155250939668,0.8868746757507324,32.71891546319239,-28.616455761537246,10.606248122777172,122,5,0.0,16399,384115357951695,19,27.0,718.353515625,0.05130000039935112,19,5799.406328349256,0.003234992547669888,1.57542003E9,,,,0,,1,0.63,1.57542003E9,356.0,NaN,NaN
Raw,232555931853454,649360188000000,,,-1265581155250939668,0.8868746757507324,32.71891546319239,-28.616455761537246,10.606248122777172,122,13,0.0,16399,384115370981795,9,35.8,214.1856231689453,0.035100001841783524,25,1758.2489456861827,0.0013320557236479321,1.57542003E9,,,,0,,1,0.63,1.57542003E9,356.0,NaN,NaN
Raw,232555931853454,649360188000000,,,-1265581155250939668,0.8868746757507324,32.71891546319239,-28.616455761537246,10.606248122777172,122,15,0.0,16399,384115371252886,13,31.7,-120.46630859375,0.038600001484155655,25,-1023.8175698461146,0.002074201012354331,1.57542003E9,,,,0,,1,0.63,1.57542003E9,356.0,NaN,NaN
Raw,232555931853454,649360188000000,,,-1265581155250939668,0.8868746757507324,32.71891546319239,-28.616455761537246,10.606248122777172,122,17,0.0,16399,384115356474009,35,22.7,-546.4176635742188,0.3758000135421753,19,-249.47823011807876,0.19029366893311156,1.57542003E9,,,,0,,1,0.63,1.57542003E9,356.0,NaN,NaN
Raw,232555931853454,649360188000000,,,-1265581155250939668,0.8868746757507324,32.71891546319239,-28.616455761537246,10.606248122777172,122,20,0.0,16399,384115362322141,27,24.2,-365.89715576171875,0.02930000051856041,21,-2024.6192950564316,0.19029366893311156,1.57542003E9,,,,0,,1,0.63,1.57542003E9,356.0,NaN,NaN
Raw,232555931853454,649360188000000,,,-1265581155250939668,0.8868746757507324,32.71891546319239,-28.616455761537246,10.606248122777172,122,24,0.0,16399,384115363373742,19,27.1,-593.9353637695312,0.030300000682473183,21,-811.3817315046333,0.003234992547669888,1.57542003E9,,,,0,,1,0.63,1.57542003E9,356.0,NaN,NaN
Raw,232555931853454,649360188000000,,,-1265581155250939668,0.8868746757507324,32.71891546319239,-28.616455761537246,10.606248122777172,122,28,0.0,16399,384115367374120,4,43.0,180.07748413085938,0.02850000187754631,25,1473.3937659436301,5.137929194467054E-4,1.57542003E9,,,,0,,1,0.63,1.57542003E9,356.0,NaN,NaN
Raw,232555931853454,649360188000000,,,-1265581155250939668,0.8868746757507324,32.71891546319239,-28.616455761537246,10.606248122777172,122,30,0.0,16399,384115360952683,14,30.7,583.2401733398438,0.007899999618530273,17,4696.715401504044,0.002397700231676362,1.57542003E9,,,,0,,1,0.63,1.57542003E9,356.0,NaN,NaN
Raw,232555931853454,649360188000000,,,-1265581155250939668,0.8868746757507324,32.71891546319239,-28.616455761537246,10.606248122777172,122,14,0.0,49359,49297375084378,5,41.4,-39.622947692871094,0.24080000817775726,25,-335.7911023112863,6.753508417684034E-4,1.59806246E9,,,,0,,3,-0.31,1.59806246E9,356.0,NaN,NaN
Raw,232555931853454,649360188000000,,,-1265581155250939668,0.8868746757507324,32.71891546319239,-28.616455761537246,10.606248122777172,122,22,0.0,49359,49297361420423,17,28.3,-173.68711853027344,0.21170000731945038,19,-980.0621620044676,0.002959872375920247,1.60031245E9,,,,0,,3,-0.31,1.60031245E9,356.0,NaN,NaN
Raw,232555931853454,649360188000000,,,-1265581155250939668,0.8868746757507324,32.71891546319239,-28.616455761537246,10.606248122777172,122,13,0.0,49359,49297367971685,24,25.3,633.7577514648438,0.24379999935626984,21,4991.70703137982,0.18726787319550683,1.60087501E9,,,,0,,3,-0.31,1.60087501E9,356.0,NaN,NaN
Raw,232555931853454,649360188000000,,,-1265581155250939668,0.8868746757507324,32.71891546319239,-28.616455761537246,10.606248122777172,122,15,0.0,49359,49297366954423,27,24.1,-667.4171142578125,0.25029999017715454,21,-4385.64832718417,0.18713636579275905,1.602E9,,,,0,,3,-0.31,1.602E9,356.0,NaN,NaN
Raw,232555931853454,649360188000000,,,-1265581155250939668,0.8868746757507324,32.71891546319239,-28.616455761537246,10.606248122777172,122,5,0.0,49359,49297369866023,4,43.5,-567.0822143554688,0.23149999976158142,25,-4506.051843909072,5.050908325201994E-4,1.60256256E9,,,,0,,3,-0.31,1.60256256E9,356.0,NaN,NaN
Raw,232555931853454,649360188000000,,,-1265581155250939668,0.8868746757507324,32.71891546319239,-28.616455761537246,10.606248122777172,122,3,0.0,49359,49297364721241,10,34.7,764.5733642578125,0.22660000622272491,25,6024.494143606116,0.0014944672428451689,1.60481254E9,,,,0,,3,-0.31,1.60481254E9,356.0,NaN,NaN
Raw,232555931853454,649360188000000,,,-1265581155250939668,0.8868746757507324,32.71891546319239,-28.616455761537246,10.606248122777172,122,4,0.0,49359,49297374520903,7,37.2,196.2549591064453,0.24040000140666962,25,1530.2347543851015,9.897376030341073E-4,1.60537498E9,,,,0,,3,-0.31,1.60537498E9,356.0,NaN,NaN
Raw,232555931853454,649360188000000,,,-1265581155250939668,0.8868746757507324,32.71891546319239,-28.616455761537246,10.606248122777172,122,37,0.0,16399,384101359400698,5,41.1,471.53436279296875,0.046800002455711365,25,3874.6286202750143,6.913421459270097E-4,1.56109798E9,,,,0,,5,0.84,1.56109798E9,356.0,NaN,NaN
Raw,232555931853454,649360188000000,,,-1265581155250939668,0.8868746757507324,32.71891546319239,-28.616455761537246,10.606248122777172,122,22,0.0,16399,384101359028639,5,41.8,-411.65301513671875,0.046800002455711365,25,-3421.0439540805087,6.913421459270097E-4,1.56109798E9,,,,0,,5,0.84,1.56109798E9,356.0,NaN,NaN
Raw,232555931853454,649360188000000,,,-1265581155250939668,0.8868746757507324,32.71891546319239,-28.616455761537246,10.606248122777172,122,20,0.0,16399,384101356018915,9,35.6,630.0103759765625,0.04410000145435333,17,5156.454599349254,0.0013442764594430532,1.56109798E9,,,,0,,5,0.84,1.56109798E9,356.0,NaN,NaN
Raw,232555931853454,649360188000000,,,-1265581155250939668,0.8868746757507324,32.71891546319239,-28.616455761537246,10.606248122777172,122,19,0.0,16399,384101365435106,16,29.8,192.379638671875,0.03140000253915787,17,1094.192352215081,0.0028421844273806814,1.56109798E9,,,,0,,5,0.84,1.56109798E9,356.0,NaN,NaN
Raw,232555931853454,649360188000000,,,-1265581155250939668,0.8868746757507324,32.71891546319239,-28.616455761537246,10.606248122777172,122,10,0.0,16399,384101306566446,24,25.8,162.6467742919922,0.04230000078678131,21,233.01006993338646,0.1920394882785269,1.56109798E9,,,,0,,5,0.84,1.56109798E9,356.0,NaN,NaN
Raw,232555931853454,649360188000000,,,-1265581155250939668,0.8868746757507324,32.71891546319239,-28.616455761537246,10.606248122777172,122,1,0.0,23567,384115354550205,6,38.6,380.5444030761719,0.04610000178217888,25,3107.7668303341216,0.0020551716777868216,1.57542003E9,,,,0,,6,0.6,1.57542003E9,356.0,NaN,NaN
Raw,232555931853454,649360188000000,,,-1265581155250939668,0.8868746757507324,32.71891546319239,-28.616455761537246,10.606248122777172,122,4,0.0,23567,384115352567647,7,37.2,493.7234191894531,0.04340000078082085,25,4037.666572432499,0.0021883771969841777,1.57542003E9,,,,0,,6,0.6,1.57542003E9,356.0,NaN,NaN
Raw,232555931853454,649360188000000,,,-1265581155250939668,0.8868746757507324,32.71891546319239,-28.616455761537246,10.606248122777172,122,5,0.0,23567,384115353805217,6,38.5,-430.4810791015625,0.044600002467632294,25,-3556.779962497283,0.0020551716777868216,1.57542003E9,,,,0,,6,0.6,1.57542003E9,356.0,NaN,NaN
Raw,232555931853454,649360188000000,,,-1265581155250939668,0.8868746757507324,32.71891546319239,-28.616455761537246,10.606248122777172,122,9,0.0,23567,384115367225186,8,36.3,50.86019515991211,0.048100002110004425,25,397.58025766188376,0.0025499350854412276,1.57542003E9,,,,0,,6,0.6,1.57542003E9,356.0,NaN,NaN
Raw,232555931853454,649360188000000,,,-1265581155250939668,0.8868746757507324,32.71891546319239,-28.616455761537246,10.606248122777172,122,31,0.0,23567,384115360166561,9,35.4,-152.69532775878906,0.04410000145435333,25,-1275.1539328935871,0.0028924638165555576,1.57542003E9,,,,0,,6,0.6,1.57542003E9,356.0,NaN,NaN
Raw,232555931853454,649360188000000,,,-1265581155250939668,0.8868746757507324,32.71891546319239,-28.616455761537246,10.606248122777172,122,24,0.0,81935,384115363381564,6,26.1,-594.2844848632812,0.515999972820282,16,0.0,0.0,1.17645005E9,,,,0,,1,-1.67,1.17645005E9,356.0,NaN,NaN
Raw,232555931853454,649360188000000,,,-1265581155250939668,0.8868746757507324,32.71891546319239,-28.616455761537246,10.606248122777172,122,30,0.0,81935,384115360960492,5,28.1,583.236572265625,0.01809999905526638,29,791.6397208692433,0.0040262828122019055,1.17645005E9,,,,0,,1,-1.67,1.17645005E9,356.0,NaN,NaN
Raw,232555931853454,649360188000000,,,-1265581155250939668,0.8868746757507324,32.71891546319239,-28.616455761537246,10.606248122777172,122,1,0.0,81935,384115354557305,3,33.2,380.7371826171875,0.04650000110268593,25,892.1452973532237,0.0022170039651624013,1.17645005E9,,,,0,,6,-1.67,1.17645005E9,356.0,NaN,NaN
Raw,232555931853454,649360188000000,,,-1265581155250939668,0.8868746757507324,32.71891546319239,-28.616455761537246,10.606248122777172,122,4,0.0,81935,384115352574730,2,34.7,493.8897399902344,0.042500000447034836,25,1157.7703256057935,0.0020386244039789624,1.17645005E9,,,,0,,6,-1.67,1.17645005E9,356.0,NaN,NaN
Raw,232555931853454,649360188000000,,,-1265581155250939668,0.8868746757507324,32.71891546319239,-28.616455761537246,10.606248122777172,122,5,0.0,81935,384115353812309,2,38.1,-430.3443908691406,0.04100000113248825,25,-1017.0702661973248,0.0012486574029382824,1.17645005E9,,,,0,,6,-1.67,1.17645005E9,356.0,NaN,NaN
Raw,232555931853454,649360188000000,,,-1265581155250939668,0.8868746757507324,32.71891546319239,-28.616455761537246,10.606248122777172,122,9,0.0,81935,384115367232304,2,36.1,51.044471740722656,0.033400002866983414,27,115.42362554287686,0.0015544510042033504,1.17645005E9,,,,0,,6,-1.67,1.17645005E9,356.0,NaN,NaN
Raw,232555931853454,649360188000000,,,-1265581155250939668,0.8868746757507324,32.71891546319239,-28.616455761537246,10.606248122777172,122,24,0.0,81935,384115357123695,14,17.0,-560.647216796875,2.496999979019165,16,0.0,0.0,1.17645005E9,,,,0,,6,-1.67,1.17645005E9,356.0,NaN,NaN
Raw,232555931853454,649360188000000,,,-1265581155250939668,0.8868746757507324,32.71891546319239,-28.616455761537246,10.606248122777172,122,31,0.0,81935,384115360173644,4,29.8,-152.61721801757812,0.01599999889731407,25,-361.1016902902186,0.0037714549693657518,1.17645005E9,,,,0,,6,-1.67,1.17645005E9,356.0,NaN,NaN
Fix,gps,51.524800,-0.134117,77.501160,0.000000,3.790092,1582195299000,232556905535478
Raw,232556924206834,649361188000000,,,-1265581155250939687,0.7314319610595703,32.92575274826959,-21.08002029757843,11.54716630122058,122,5,0.0,16399,384116357949334,27,24.1,718.939208984375,0.06680000573396683,21,6518.001717872214,0.19029366893311156,1.57542003E9,,,,0,,1,0.54,1.57542003E9,356.0,NaN,NaN
Raw,232556924206834,649361188000000,,,-1265581155250939687,0.7314319610595703,32.92575274826959,-21.08002029757843,11.54716630122058,122,13,0.0,16399,384116370981116,9,35.9,214.85565185546875,0.035100001841783524,25,1972.7493820730306,0.0013320557236479321,1.57542003E9,,,,0,,1,0.54,1.57542003E9,356.0,NaN,NaN
Raw,232556924206834,649361188000000,,,-1265581155250939687,0.7314319610595703,32.92575274826959,-21.08002029757843,11.54716630122058,122,15,0.0,16399,384116371253269,12,32.6,-119.81378173828125,0.038100000470876694,25,-1143.9980761558809,0.001807789796734829,1.57542003E9,,,,0,,1,0.54,1.57542003E9,356.0,NaN,NaN
Raw,232556924206834,649361188000000,,,-1265581155250939687,0.7314319610595703,32.92575274826959,-21.08002029757843,11.54716630122058,122,17,0.0,16399,384116356475914,27,24.5,-545.9747924804688,0.06530000269412994,21,-795.7853878341899,0.19029366893311156,1.57542003E9,,,,0,,1,0.54,1.57542003E9,356.0,NaN,NaN
Raw,232556924206834,649361188000000,,,-1265581155250939687,0.7314319610595703,32.92575274826959,-21.08002029757843,11.54716630122058,122,20,0.0,16399,384116362323402,21,26.0,-364.6252746582031,0.02970000170171261,17,-2389.652411616557,0.005442398901996786,1.57542003E9,,,,0,,1,0.54,1.57542003E9,356.0,NaN,NaN
Raw,232556924206834,649361188000000,,,-1265581155250939687,0.7314319610595703,32.92575274826959,-21.08002029757843,11.54716630122058,122,24,0.0,16399,384116363375747,35,22.4,-592.7838134765625,0.7910000085830688,16,0.0,0.0,1.57542003E9,,,,0,,1,0.54,1.57542003E9,356.0,NaN,NaN
Raw,232556924206834,649361188000000,,,-1265581155250939687,0.7314319610595703,32.92575274826959,-21.08002029757843,11.54716630122058,122,28,0.0,16399,384116367373529,5,41.6,180.7681884765625,0.028800001367926598,25,1653.795464199877,6.850571963914755E-4,1.57542003E9,,,,0,,1,0.54,1.57542003E9,356.0,NaN,NaN
Raw,232556924206834,649361188000000,,,-1265581155250939687,0.7314319610595703,32.92575274826959,-21.08002029757843,11.54716630122058,122,30,0.0,16399,384116360950964,40,21.6,584.75341796875,0.8464999794960022,16,0.0,0.0,1.57542003E9,,,,0,,1,0.54,1.57542003E9,356.0,NaN,NaN
Raw,232556924206834,649361188000000,,,-1265581155250939687,0.7314319610595703,32.92575274826959,-21.08002029757843,11.54716630122058,122,14,0.0,49359,49298375084506,5,41.5,-38.925628662109375,0.24080000817775726,25,-375.08430557502214,6.753508417684034E-4,1.59806246E9,,,,0,,3,-0.38,1.59806246E9,356.0,NaN,NaN
Raw,232556924206834,649361188000000,,,-1265581155250939687,0.7314319610595703,32.92575274826959,-21.08002029757843,11.54716630122058,122,22,0.0,49359,49298361421027,17,28.7,-172.95297241210938,0.21170000731945038,25,-1153.426860439816,0.002959872375920247,1.60031245E9,,,,0,,3,-0.38,1.60031245E9,356.0,NaN,NaN
Raw,232556924206834,649361188000000,,,-1265581155250939687,0.7314319610595703,32.92575274826959,-21.08002029757843,11.54716630122058,122,13,0.0,49359,49298367969583,24,25.7,634.342041015625,0.24379999935626984,29,5625.8127235063275,0.18726787319550683,1.60087501E9,,,,0,,3,-0.38,1.60087501E9,356.0,NaN,NaN
Raw,232556924206834,649361188000000,,,-1265581155250939687,0.7314319610595703,32.92575274826959,-21.08002029757843,11.54716630122058,122,15,0.0,49359,49298366956487,13,31.8,-666.6084594726562,0.23110000789165497,25,-5052.537197978879,0.0020397864077763375,1.602E9,,,,0,,3,-0.38,1.602E9,356.0,NaN,NaN
Raw,232556924206834,649361188000000,,,-1265581155250939687,0.7314319610595703,32.92575274826959,-21.08002029757843,11.54716630122058,122,5,0.0,49359,49298369867910,4,42.9,-566.4080200195312,0.23160000145435333,25,-5072.811908315713,5.799191056178505E-4,1.60256256E9,,,,0,,3,-0.38,1.60256256E9,356.0,NaN,NaN
Raw,232556924206834,649361188000000,,,-1265581155250939687,0.7314319610595703,32.92575274826959,-21.08002029757843,11.54716630122058,122,3,0.0,49359,49298364718652,7,37.6,765.1926879882812,0.22540000081062317,25,6789.327868381414,9.900844722691658E-4,1.60481254E9,,,,0,,3,-0.38,1.60481254E9,356.0,NaN,NaN
Raw,232556924206834,649361188000000,,,-1265581155250939687,0.7314319610595703,32.92575274826959,-21.08002029757843,11.54716630122058,122,4,0.0,49359,49298374520265,7,37.0,196.96958923339844,0.24040000140666962,25,1726.8264490237991,9.897376030341073E-4,1.60537498E9,,,,0,,3,-0.38,1.60537498E9,356.0,NaN,NaN
Raw,232556924206834,649361188000000,,,-1265581155250939687,0.7314319610595703,32.92575274826959,-21.08002029757843,11.54716630122058,122,37,0.0,16399,384102359399138,5,40.1,472.1518249511719,0.0471000038087368,25,4346.471993597012,7.489539839688142E-4,1.56109798E9,,,,0,,5,0.74,1.56109798E9,356.0,NaN,NaN
Raw,232556924206834,649361188000000,,,-1265581155250939687,0.7314319610595703,32.92575274826959,-21.08002029757843,11.54716630122058,122,22,0.0,16399,384102359030007,5,41.2,-411.00262451171875,0.046800002455711365,25,-3832.3811754761828,6.913421459270097E-4,1.56109798E9,,,,0,,5,0.74,1.56109798E9,356.0,NaN,NaN
Raw,232556924206834,649361188000000,,,-1265581155250939687,0.7314319610595703,32.92575274826959,-21.08002029757843,11.54716630122058,122,20,0.0,16399,384102356016798,9,35.9,630.6078491210938,0.04410000145435333,17,5786.714760233479,0.0013442764594430532,1.56109798E9,,,,0,,5,0.74,1.56109798E9,356.0,NaN,NaN
Raw,232556924206834,649361188000000,,,-1265581155250939687,0.7314319610595703,32.92575274826959,-21.08002029757843,11.54716630122058,122,19,0.0,16399,384102365434470,16,29.6,193.05755615234375,0.03140000253915787,17,1286.8661849070884,0.0028421844273806814,1.56109798E9,,,,0,,5,0.74,1.56109798E9,356.0,NaN,NaN
Raw,232556924206834,649361188000000,,,-1265581155250939687,0.7314319610595703,32.92575274826959,-21.08002029757843,11.54716630122058,122,10,0.0,16399,384102306565931,21,26.3,163.20835876464844,0.0357000008225441,17,395.92381974472477,0.005492329335005111,1.56109798E9,,,,0,,5,0.74,1.56109798E9,356.0,NaN,NaN
Raw,232556924206834,649361188000000,,,-1265581155250939687,0.7314319610595703,32.92575274826959,-21.08002029757843,11.54716630122058,122,1,0.0,23567,384116354548955,8,36.8,381.2082214355469,0.04660000279545784,25,3488.6942668089932,0.0025499350854412276,1.57542003E9,,,,0,,6,0.49,1.57542003E9,356.0,NaN,NaN
Raw,232556924206834,649361188000000,,,-1265581155250939687,0.7314319610595703,32.92575274826959,-21.08002029757843,11.54716630122058,122,4,0.0,23567,384116352566015,6,38.0,494.38385009765625,0.04310000315308571,25,4531.742253557871,0.0020551716777868216,1.57542003E9,,,,0,,6,0.49,1.57542003E9,356.0,NaN,NaN
Raw,232556924206834,649361188000000,,,-1265581155250939687,0.7314319610595703,32.92575274826959,-21.08002029757843,11.54716630122058,122,5,0.0,23567,384116353806652,6,38.2,-429.81536865234375,0.044600002467632294,25,-3986.8973697886813,0.0020551716777868216,1.57542003E9,,,,0,,6,0.49,1.57542003E9,356.0,NaN,NaN
Raw,232556924206834,649361188000000,,,-1265581155250939687,0.7314319610595703,32.92575274826959,-21.08002029757843,11.54716630122058,122,9,0.0,23567,384116367225034,8,36.6,51.561092376708984,0.048100002110004425,25,448.82133038029184,0.0025499350854412276,1.57542003E9,,,,0,,6,0.49,1.57542003E9,356.0,NaN,NaN
Raw,232556924206834,649361188000000,,,-1265581155250939687,0.7314319610595703,32.92575274826959,-21.08002029757843,11.54716630122058,122,24,0.0,23567,384116357118467,24,25.3,-560.138916015625,1.3519999980926514,16,0.0,0.0,1.57542003E9,,,,0,,6,0.49,1.57542003E9,356.0,NaN,NaN
Raw,232556924206834,649361188000000,,,-1265581155250939687,0.7314319610595703,32.92575274826959,-21.08002029757843,11.54716630122058,122,31,0.0,23567,384116360167081,7,37.4,-152.02261352539062,0.04340000078082085,25,-1427.4799556941216,0.0021883771969841777,1.57542003E9,,,,0,,6,0.49,1.57542003E9,356.0,NaN,NaN
Raw,232556924206834,649361188000000,,,-1265581155250939687,0.7314319610595703,32.92575274826959,-21.08002029757843,11.54716630122058,122,24,0.0,81935,384116363383539,5,27.9,-593.3875122070312,0.04050000011920929,27,-1398.6035481196323,0.004332076888121183,1.17645005E9,,,,0,,1,-4.18,1.17645005E9,356.0,NaN,NaN
Raw,232556924206834,649361188000000,,,-1265581155250939687,0.7314319610595703,32.92575274826959,-21.08002029757843,11.54716630122058,122,1,0.0,81935,384116354556025,3,32.6,381.2876892089844,0.047600001096725464,25,1273.0777709959318,0.0024208662868967453,1.17645005E9,,,,0,,6,-4.18,1.17645005E9,356.0,NaN,NaN
Raw,232556924206834,649361188000000,,,-1265581155250939687,0.7314319610595703,32.92575274826959,-21.08002029757843,11.54716630122058,122,4,0.0,81935,384116352573078,3,32.4,494.5148620605469,0.044600002467632294,25,1651.856214346929,0.0024208662868967453,1.17645005E9,,,,0,,6,-4.18,1.17645005E9,356.0,NaN,NaN
Raw,232556924206834,649361188000000,,,-1265581155250939687,0.7314319610595703,32.92575274826959,-21.08002029757843,11.54716630122058,122,5,0.0,81935,384116353813742,2,36.4,-429.7812194824219,0.04240000247955322,25,-1447.1981824775473,0.0015544510042033504,1.17645005E9,,,,0,,6,-4.18,1.17645005E9,356.0,NaN,NaN
Raw,232556924206834,649361188000000,,,-1265581155250939687,0.7314319610595703,32.92575274826959,-21.08002029757843,11.54716630122058,122,9,0.0,81935,384116367232132,3,33.5,51.60074234008789,0.036000002175569534,25,166.65145353150888,0.0022170039651624013,1.17645005E9,,,,0,,6,-4.18,1.17645005E9,356.0,NaN,NaN
Raw,232556924206834,649361188000000,,,-1265581155250939687,0.7314319610595703,32.92575274826959,-21.08002029757843,11.54716630122058,122,24,0.0,81935,384116357125418,14,17.7,-560.86376953125,1.1019999980926514,16,0.0,0.0,1.17645005E9,,,,0,,6,-4.18,1.17645005E9,356.0,NaN,NaN
Raw,232556924206834,649361188000000,,,-1265581155250939687,0.7314319610595703,32.92575274826959,-21.08002029757843,11.54716630122058,122,31,0.0,81935,384116360174152,4,29.2,-152.00547790527344,0.01599999889731407,25,-513.4326411264191,0.0037714549693657518,1.17645005E9,,,,0,,6,-4.18,1.17645005E9,356.0,NaN,NaN
Fix,gps,51.524798,-0.134117,78.640442,0.000000,3.790092,1582195300000,232557911949276
Raw,232557924420371,649362188000000,,,-1265581155250939706,0.2034602165222168,31.612871680408716,-19.18401684457302,11.583260823755579,122,13,0.0,16399,384117370980384,9,35.2,214.21417236328125,0.035100001841783524,25,2187.5183911169215,0.0013320557236479321,1.57542003E9,,,,0,,1,0.42,1.57542003E9,356.0,NaN,NaN
Raw,232557924420371,649362188000000,,,-1265581155250939706,0.2034602165222168,31.612871680408716,-19.18401684457302,11.583260823755579,122,15,0.0,16399,384117371253679,12,32.4,-120.42227935791016,0.038100000470876694,25,-1263.881674735774,0.001807789796734829,1.57542003E9,,,,0,,1,0.42,1.57542003E9,356.0,NaN,NaN
Raw,232557924420371,649362188000000,,,-1265581155250939706,0.2034602165222168,31.612871680408716,-19.18401684457302,11.583260823755579,122,17,0.0,16399,384117356477732,35,22.1,-546.3236083984375,0.8104999661445618,16,0.0,0.0,1.57542003E9,,,,0,,1,0.42,1.57542003E9,356.0,NaN,NaN
Raw,232557924420371,649362188000000,,,-1265581155250939706,0.2034602165222168,31.612871680408716,-19.18401684457302,11.583260823755579,122,20,0.0,16399,384117362324658,24,25.4,-365.3108215332031,0.021299999207258224,17,-2754.372830661971,0.19029366893311156,1.57542003E9,,,,0,,1,0.42,1.57542003E9,356.0,NaN,NaN
Raw,232557924420371,649362188000000,,,-1265581155250939706,0.2034602165222168,31.612871680408716,-19.18401684457302,11.583260823755579,122,24,0.0,16399,384117363377700,27,24.9,-594.075439453125,0.04580000042915344,19,-1998.5502450037986,0.19029366893311156,1.57542003E9,,,,0,,1,0.42,1.57542003E9,356.0,NaN,NaN
Raw,232557924420371,649362188000000,,,-1265581155250939706,0.2034602165222168,31.612871680408716,-19.18401684457302,11.583260823755579,122,28,0.0,16399,384117367372906,4,42.7,180.11830139160156,0.028600001707673073,25,1834.449681733405,5.899103906353357E-4,1.57542003E9,,,,0,,1,0.42,1.57542003E9,356.0,NaN,NaN
Raw,232557924420371,649362188000000,,,-1265581155250939706,0.2034602165222168,31.612871680408716,-19.18401684457302,11.583260823755579,122,30,0.0,16399,384117360949041,40,21.8,583.6973266601562,0.7714999914169312,16,0.0,0.0,1.57542003E9,,,,0,,1,0.42,1.57542003E9,356.0,NaN,NaN
Raw,232557924420371,649362188000000,,,-1265581155250939706,0.2034602165222168,31.612871680408716,-19.18401684457302,11.583260823755579,122,14,0.0,49359,49299375084614,5,41.7,-39.51823806762695,0.24080000817775726,25,-414.0796932988023,6.753508417684034E-4,1.59806246E9,,,,0,,3,-0.5,1.59806246E9,356.0,NaN,NaN
Raw,232557924420371,649362188000000,,,-1265581155250939706,0.2034602165222168,31.612871680408716,-19.18401684457302,11.583260823755579,122,22,0.0,49359,49299361421513,21,26.6,-173.5173797607422,0.21320000290870667,25,-1326.4414116597159,0.005357743897484537,1.60031245E9,,,,0,,3,-0.5,1.60031245E9,356.0,NaN,NaN
Raw,232557924420371,649362188000000,,,-1265581155250939706,0.2034602165222168,31.612871680408716,-19.18401684457302,11.583260823755579,122,13,0.0,49359,49299367967459,24,25.6,633.6702270507812,0.24379999935626984,25,6260.012534506817,0.18726787319550683,1.60087501E9,,,,0,,3,-0.5,1.60087501E9,356.0,NaN,NaN
Raw,232557924420371,649362188000000,,,-1265581155250939706,0.2034602165222168,31.612871680408716,-19.18401684457302,11.583260823755579,122,15,0.0,49359,49299366958757,21,26.0,-667.2739868164062,0.23570001125335693,21,-5719.342116982393,0.005352100032671997,1.602E9,,,,0,,3,-0.5,1.602E9,356.0,NaN,NaN
Raw,232557924420371,649362188000000,,,-1265581155250939706,0.2034602165222168,31.612871680408716,-19.18401684457302,11.583260823755579,122,5,0.0,49359,49299369869814,4,43.2,-567.0630493164062,0.23149999976158142,25,-5639.338747356829,5.050908325201994E-4,1.60256256E9,,,,0,,3,-0.5,1.60256256E9,356.0,NaN,NaN
Raw,232557924420371,649362188000000,,,-1265581155250939706,0.2034602165222168,31.612871680408716,-19.18401684457302,11.583260823755579,122,3,0.0,49359,49299364716112,9,35.6,764.5386962890625,0.22609999775886536,25,7554.431561625778,0.0013076588157421632,1.60481254E9,,,,0,,3,-0.5,1.60481254E9,356.0,NaN,NaN
Raw,232557924420371,649362188000000,,,-1265581155250939706,0.2034602165222168,31.612871680408716,-19.18401684457302,11.583260823755579,122,4,0.0,49359,49299374519588,8,36.4,196.39175415039062,0.24060000479221344,25,1923.7351981260554,0.0011391319696942128,1.60537498E9,,,,0,,3,-0.5,1.60537498E9,356.0,NaN,NaN
Raw,232557924420371,649362188000000,,,-1265581155250939706,0.2034602165222168,31.612871680408716,-19.18401684457302,11.583260823755579,122,37,0.0,16399,384103359397562,6,39.9,471.46923828125,0.047300003468990326,25,4818.48852455533,8.449737438469402E-4,1.56109798E9,,,,0,,5,0.57,1.56109798E9,356.0,NaN,NaN
Raw,232557924420371,649362188000000,,,-1265581155250939706,0.2034602165222168,31.612871680408716,-19.18401684457302,11.583260823755579,122,22,0.0,16399,384103359031378,4,42.0,-411.65423583984375,0.04660000279545784,25,-4243.495312096632,5.953224307615613E-4,1.56109798E9,,,,0,,5,0.57,1.56109798E9,356.0,NaN,NaN
Raw,232557924420371,649362188000000,,,-1265581155250939706,0.2034602165222168,31.612871680408716,-19.18401684457302,11.583260823755579,122,20,0.0,16399,384103356014699,11,33.7,629.9613647460938,0.04520000144839287,25,6417.329292147205,0.0016707435714883973,1.56109798E9,,,,0,,5,0.57,1.56109798E9,356.0,NaN,NaN
Raw,232557924420371,649362188000000,,,-1265581155250939706,0.2034602165222168,31.612871680408716,-19.18401684457302,11.583260823755579,122,19,0.0,16399,384103365433834,17,28.4,192.43406677246094,0.03270000219345093,25,1479.8453637025425,0.003034223768286223,1.56109798E9,,,,0,,5,0.57,1.56109798E9,356.0,NaN,NaN
Raw,232557924420371,649362188000000,,,-1265581155250939706,0.2034602165222168,31.612871680408716,-19.18401684457302,11.583260823755579,122,10,0.0,16399,384103306565334,21,26.6,162.4423370361328,0.0357000008225441,25,558.974271438833,0.005492329335005111,1.56109798E9,,,,0,,5,0.57,1.56109798E9,356.0,NaN,NaN
Raw,232557924420371,649362188000000,,,-1265581155250939706,0.2034602165222168,31.612871680408716,-19.18401684457302,11.583260823755579,122,1,0.0,23567,384117354547661,6,38.3,380.6302795410156,0.04610000178217888,25,3869.8178362606204,0.0020551716777868216,1.57542003E9,,,,0,,6,0.38,1.57542003E9,356.0,NaN,NaN
Raw,232557924420371,649362188000000,,,-1265581155250939706,0.2034602165222168,31.612871680408716,-19.18401684457302,11.583260823755579,122,4,0.0,23567,384117352564353,7,37.8,493.7991027832031,0.04340000078082085,25,5026.055267683437,0.0021883771969841777,1.57542003E9,,,,0,,6,0.38,1.57542003E9,356.0,NaN,NaN
Raw,232557924420371,649362188000000,,,-1265581155250939706,0.2034602165222168,31.612871680408716,-19.18401684457302,11.583260823755579,122,5,0.0,23567,384117353808095,6,38.6,-430.4504089355469,0.044600002467632294,25,-4416.825448956764,0.0020551716777868216,1.57542003E9,,,,0,,6,0.38,1.57542003E9,356.0,NaN,NaN
Raw,232557924420371,649362188000000,,,-1265581155250939706,0.2034602165222168,31.612871680408716,-19.18401684457302,11.583260823755579,122,9,0.0,23567,384117367224852,7,37.5,50.97529602050781,0.0479000024497509,25,500.2965402031039,0.0021883771969841777,1.57542003E9,,,,0,,6,0.38,1.57542003E9,356.0,NaN,NaN
Raw,232557924420371,649362188000000,,,-1265581155250939706,0.2034602165222168,31.612871680408716,-19.18401684457302,11.583260823755579,122,24,0.0,23567,384117357120357,24,25.5,-560.689453125,0.058800000697374344,19,-871.9976072939194,0.017526047264890512,1.57542003E9,,,,0,,6,0.38,1.57542003E9,356.0,NaN,NaN
Raw,232557924420371,649362188000000,,,-1265581155250939706,0.2034602165222168,31.612871680408716,-19.18401684457302,11.583260823755579,122,31,0.0,23567,384117360167607,9,35.0,-152.59242248535156,0.04410000145435333,25,-1579.5514646005354,0.0028924638165555576,1.57542003E9,,,,0,,6,0.38,1.57542003E9,356.0,NaN,NaN
Raw,232557924420371,649362188000000,,,-1265581155250939706,0.2034602165222168,31.612871680408716,-19.18401684457302,11.583260823755579,122,24,0.0,81935,384117363385523,7,24.9,-593.9901123046875,0.06459999829530716,25,-1992.089893603499,0.25482803839368795,1.17645005E9,,,,0,,1,-7.19,1.17645005E9,356.0,NaN,NaN
Raw,232557924420371,649362188000000,,,-1265581155250939706,0.2034602165222168,31.612871680408716,-19.18401684457302,11.583260823755579,122,1,0.0,81935,384117354554755,4,30.4,380.50653076171875,0.050200000405311584,25,1654.1912732964283,0.0032108332879374254,1.17645005E9,,,,0,,6,-7.19,1.17645005E9,356.0,NaN,NaN
Raw,232557924420371,649362188000000,,,-1265581155250939706,0.2034602165222168,31.612871680408716,-19.18401684457302,11.583260823755579,122,4,0.0,81935,384117352571428,3,31.0,493.71038818359375,0.04580000042915344,25,2146.1487106722607,0.0027776256465907277,1.17645005E9,,,,0,,6,-7.19,1.17645005E9,356.0,NaN,NaN
Raw,232557924420371,649362188000000,,,-1265581155250939706,0.2034602165222168,31.612871680408716,-19.18401684457302,11.583260823755579,122,5,0.0,81935,384117353815177,2,35.3,-430.54144287109375,0.04310000315308571,25,-1877.1524000350526,0.0017837963238157039,1.17645005E9,,,,0,,6,-7.19,1.17645005E9,356.0,NaN,NaN
Raw,232557924420371,649362188000000,,,-1265581155250939706,0.2034602165222168,31.612871680408716,-19.18401684457302,11.583260823755579,122,9,0.0,81935,384117367231959,3,32.5,50.829769134521484,0.03710000216960907,25,218.09610420069905,0.0024208662868967453,1.17645005E9,,,,0,,6,-7.19,1.17645005E9,356.0,NaN,NaN
Raw,232557924420371,649362188000000,,,-1265581155250939706,0.2034602165222168,31.612871680408716,-19.18401684457302,11.583260823755579,122,31,0.0,81935,384117360174665,4,30.5,-152.69717407226562,0.0142000000923872,25,-665.5358599066591,0.0032108332879374254,1.17645005E9,,,,0,,6,-7.19,1.17645005E9,356.0,NaN,NaN
Fix,gps,51.524793,-0.134114,77.522217,0.000000,3.790092,1582195301000,232558904720156
Raw,232558920755991,649363188000000,,,-1265581155250939725,0.6179869174957275,28.216969440109096,-21.410172328715326,9.631793038342911,122,5,0.0,16399,384118357944649,40,21.0,718.6915893554688,1.621999979019165,16,0.0,0.0,1.57542003E9,,,,0,,1,0.49,1.57542003E9,356.0,NaN,NaN
Raw,232558920755991,649363188000000,,,-1265581155250939725,0.6179869174957275,28.216969440109096,-21.410172328715326,9.631793038342911,122,13,0.0,16399,384118370979646,9,35.6,213.7718505859375,0.035100001841783524,25,2400.667628188563,0.0013320557236479321,1.57542003E9,,,,0,,1,0.49,1.57542003E9,356.0,NaN,NaN
Raw,232558920755991,649363188000000,,,-1265581155250939725,0.6179869174957275,28.216969440109096,-21.410172328715326,9.631793038342911,122,15,0.0,16399,384118371254046,13,31.9,-120.89339447021484,0.038600001484155655,25,-1385.3806608013244,0.002074201012354331,1.57542003E9,,,,0,,1,0.49,1.57542003E9,356.0,NaN,NaN
Raw,232558920755991,649363188000000,,,-1265581155250939725,0.6179869174957275,28.216969440109096,-21.410172328715326,9.631793038342911,122,20,0.0,16399,384118362325693,35,22.3,-364.8500671386719,0.7894999980926514,16,0.0,0.0,1.57542003E9,,,,0,,1,0.49,1.57542003E9,356.0,NaN,NaN
Raw,232558920755991,649363188000000,,,-1265581155250939725,0.6179869174957275,28.216969440109096,-21.410172328715326,9.631793038342911,122,24,0.0,16399,384118363379666,16,29.3,-594.5020141601562,0.0284000001847744,21,-2593.694312005615,0.00281634630106073,1.57542003E9,,,,0,,1,0.49,1.57542003E9,356.0,NaN,NaN
Raw,232558920755991,649363188000000,,,-1265581155250939725,0.6179869174957275,28.216969440109096,-21.410172328715326,9.631793038342911,122,28,0.0,16399,384118367372323,4,43.8,179.70750427246094,0.02850000187754631,25,2013.5337382086288,5.137929194467054E-4,1.57542003E9,,,,0,,1,0.49,1.57542003E9,356.0,NaN,NaN
Raw,232558920755991,649363188000000,,,-1265581155250939725,0.6179869174957275,28.216969440109096,-21.410172328715326,9.631793038342911,122,30,0.0,16399,384118360947141,61,18.8,582.6126708984375,0.9965000152587891,16,0.0,0.0,1.57542003E9,,,,0,,1,0.49,1.57542003E9,356.0,NaN,NaN
Raw,232558920755991,649363188000000,,,-1265581155250939725,0.6179869174957275,28.216969440109096,-21.410172328715326,9.631793038342911,122,14,0.0,49359,49300375084759,5,40.7,-39.949337005615234,0.241100013256073,25,-454.64011809694324,7.316300713026974E-4,1.59806246E9,,,,0,,3,-0.38,1.59806246E9,356.0,NaN,NaN
Raw,232558920755991,649363188000000,,,-1265581155250939725,0.6179869174957275,28.216969440109096,-21.410172328715326,9.631793038342911,122,22,0.0,49359,49300361421982,21,26.1,-174.1050567626953,0.2282000035047531,29,-1501.0037099259675,0.005357743897484537,1.60031245E9,,,,0,,3,-0.38,1.60031245E9,356.0,NaN,NaN
Raw,232558920755991,649363188000000,,,-1265581155250939725,0.6179869174957275,28.216969440109096,-21.410172328715326,9.631793038342911,122,13,0.0,49359,49300367965399,21,26.0,633.1804809570312,0.23720000684261322,29,6892.588945102919,0.005355861144370204,1.60087501E9,,,,0,,3,-0.38,1.60087501E9,356.0,NaN,NaN
Raw,232558920755991,649363188000000,,,-1265581155250939725,0.6179869174957275,28.216969440109096,-21.410172328715326,9.631793038342911,122,15,0.0,49359,49300366960736,24,25.6,-668.1180419921875,0.24230000376701355,29,-6387.714870141637,0.18713636579275905,1.602E9,,,,0,,3,-0.38,1.602E9,356.0,NaN,NaN
Raw,232558920755991,649363188000000,,,-1265581155250939725,0.6179869174957275,28.216969440109096,-21.410172328715326,9.631793038342911,122,5,0.0,49359,49300369871712,4,43.4,-567.4890747070312,0.23149999976158142,25,-6207.448268435548,5.050908325201994E-4,1.60256256E9,,,,0,,3,-0.38,1.60256256E9,356.0,NaN,NaN
Raw,232558920755991,649363188000000,,,-1265581155250939725,0.6179869174957275,28.216969440109096,-21.410172328715326,9.631793038342911,122,3,0.0,49359,49300364713608,11,33.7,764.0951538085938,0.2272000014781952,25,8317.894407101378,0.0016252330722257222,1.60481254E9,,,,0,,3,-0.38,1.60481254E9,356.0,NaN,NaN
Raw,232558920755991,649363188000000,,,-1265581155250939725,0.6179869174957275,28.216969440109096,-21.410172328715326,9.631793038342911,122,4,0.0,49359,49300374518918,7,37.1,195.96336364746094,0.24040000140666962,25,2119.082816924998,9.897376030341073E-4,1.60537498E9,,,,0,,3,-0.38,1.60537498E9,356.0,NaN,NaN
Raw,232558920755991,649363188000000,,,-1265581155250939725,0.6179869174957275,28.216969440109096,-21.410172328715326,9.631793038342911,122,37,0.0,16399,384104359395994,5,40.2,470.9289855957031,0.0471000038087368,25,5288.863676174414,7.489539839688142E-4,1.56109798E9,,,,0,,5,0.69,1.56109798E9,356.0,NaN,NaN
Raw,232558920755991,649363188000000,,,-1265581155250939725,0.6179869174957275,28.216969440109096,-21.410172328715326,9.631793038342911,122,22,0.0,16399,384104359032758,4,42.3,-412.1612243652344,0.04660000279545784,25,-4656.23210196898,5.953224307615613E-4,1.56109798E9,,,,0,,5,0.69,1.56109798E9,356.0,NaN,NaN
Raw,232558920755991,649363188000000,,,-1265581155250939725,0.6179869174957275,28.216969440109096,-21.410172328715326,9.631793038342911,122,20,0.0,16399,384104356012615,11,33.9,629.410888671875,0.04520000144839287,25,7046.181293489978,0.0016707435714883973,1.56109798E9,,,,0,,5,0.69,1.56109798E9,356.0,NaN,NaN
Raw,232558920755991,649363188000000,,,-1265581155250939725,0.6179869174957275,28.216969440109096,-21.410172328715326,9.631793038342911,122,19,0.0,16399,384104365433185,17,28.1,191.9846649169922,0.03270000219345093,21,1671.198817483358,0.003034223768286223,1.56109798E9,,,,0,,5,0.69,1.56109798E9,356.0,NaN,NaN
Raw,232558920755991,649363188000000,,,-1265581155250939725,0.6179869174957275,28.216969440109096,-21.410172328715326,9.631793038342911,122,10,0.0,16399,384104306564788,24,25.4,161.93939208984375,0.04230000078678131,21,720.3394041486694,0.1920394882785269,1.56109798E9,,,,0,,5,0.69,1.56109798E9,356.0,NaN,NaN
Raw,232558920755991,649363188000000,,,-1265581155250939725,0.6179869174957275,28.216969440109096,-21.410172328715326,9.631793038342911,122,1,0.0,23567,384118354546392,6,39.6,379.95068359375,0.04580000042915344,25,4249.300585565777,0.0018458486430946374,1.57542003E9,,,,0,,6,0.49,1.57542003E9,356.0,NaN,NaN
Raw,232558920755991,649363188000000,,,-1265581155250939725,0.6179869174957275,28.216969440109096,-21.410172328715326,9.631793038342911,122,4,0.0,23567,384118352562697,7,37.8,493.1060485839844,0.04340000078082085,25,5518.69711781891,0.0021883771969841777,1.57542003E9,,,,0,,6,0.49,1.57542003E9,356.0,NaN,NaN
Raw,232558920755991,649363188000000,,,-1265581155250939725,0.6179869174957275,28.216969440109096,-21.410172328715326,9.631793038342911,122,5,0.0,23567,384118353809531,6,38.8,-431.1278381347656,0.044600002467632294,25,-4848.42810108971,0.0020551716777868216,1.57542003E9,,,,0,,6,0.49,1.57542003E9,356.0,NaN,NaN
Raw,232558920755991,649363188000000,,,-1265581155250939725,0.6179869174957275,28.216969440109096,-21.410172328715326,9.631793038342911,122,9,0.0,23567,384118367224697,9,35.2,50.30412292480469,0.048600003123283386,25,550.1253420410144,0.0028924638165555576,1.57542003E9,,,,0,,6,0.49,1.57542003E9,356.0,NaN,NaN
Raw,232558920755991,649363188000000,,,-1265581155250939725,0.6179869174957275,28.216969440109096,-21.410172328715326,9.631793038342911,122,24,0.0,23567,384118357122216,24,25.8,-561.408447265625,0.058800000697374344,25,-1433.7528176367248,0.017526047264890512,1.57542003E9,,,,0,,6,0.49,1.57542003E9,356.0,NaN,NaN
Raw,232558920755991,649363188000000,,,-1265581155250939725,0.6179869174957275,28.216969440109096,-21.410172328715326,9.631793038342911,122,31,0.0,23567,384118360168123,12,32.0,-153.2340545654297,0.04560000076889992,25,-1733.2526385613348,0.003958108324583987,1.57542003E9,,,,0,,6,0.49,1.57542003E9,356.0,NaN,NaN
Raw,232558920755991,649363188000000,,,-1265581155250939725,0.6179869174957275,28.216969440109096,-21.410172328715326,9.631793038342911,122,24,0.0,81935,384118363387514,6,26.2,-594.565185546875,0.04659999907016754,29,-2587.242743236228,0.007288081858568245,1.17645005E9,,,,0,,1,-1.3,1.17645005E9,356.0,NaN,NaN
Raw,232558920755991,649363188000000,,,-1265581155250939725,0.6179869174957275,28.216969440109096,-21.410172328715326,9.631793038342911,122,1,0.0,81935,384118354553495,3,31.4,380.1654968261719,0.04880000278353691,25,2033.6673228479524,0.0027776256465907277,1.17645005E9,,,,0,,6,-1.3,1.17645005E9,356.0,NaN,NaN
Raw,232558920755991,649363188000000,,,-1265581155250939725,0.6179869174957275,28.216969440109096,-21.410172328715326,9.631793038342911,122,4,0.0,81935,384118352569789,3,33.9,493.32171630859375,0.04350000247359276,25,2638.79171669979,0.0022170039651624013,1.17645005E9,,,,0,,6,-1.3,1.17645005E9,356.0,NaN,NaN
Raw,232558920755991,649363188000000,,,-1265581155250939725,0.6179869174957275,28.216969440109096,-21.410172328715326,9.631793038342911,122,5,0.0,81935,384118353816617,2,37.2,-430.8826904296875,0.041600000113248825,25,-2308.733825354865,0.0013505885638054542,1.17645005E9,,,,0,,6,-1.3,1.17645005E9,356.0,NaN,NaN
Raw,232558920755991,649363188000000,,,-1265581155250939725,0.6179869174957275,28.216969440109096,-21.410172328715326,9.631793038342911,122,9,0.0,81935,384118367231794,2,35.5,50.625938415527344,0.0340999998152256,25,267.9575023806442,0.0017837963238157039,1.17645005E9,,,,0,,6,-1.3,1.17645005E9,356.0,NaN,NaN
Raw,232558920755991,649363188000000,,,-1265581155250939725,0.6179869174957275,28.216969440109096,-21.410172328715326,9.631793038342911,122,24,0.0,81935,384118357129167,12,18.3,-561.00390625,1.7720000743865967,16,0.0,0.0,1.17645005E9,,,,0,,6,-1.3,1.17645005E9,356.0,NaN,NaN
Raw,232558920755991,649363188000000,,,-1265581155250939725,0.6179869174957275,28.216969440109096,-21.410172328715326,9.631793038342911,122,31,0.0,81935,384118360175173,5,28.2,-152.87399291992188,0.03310000151395798,25,-819.2074529732691,0.0040262828122019055,1.17645005E9,,,,0,,6,-1.3,1.17645005E9,356.0,NaN,NaN
Fix,gps,51.524790,-0.134116,75.900696,0.000000,3.790092,1582195302000,232559900086609
Raw,232559948304687,649364188000000,,,-1265581155250939751,0.4403719902038574,29.207250918261707,-23.565253748631815,11.58374355797271,122,5,0.0,16399,384119357942163,14,30.7,718.3287963867188,0.04840000346302986,19,8674.270584391825,0.002397700231676362,1.57542003E9,,,,0,,1,0.22,1.57542003E9,356.0,NaN,NaN
Raw,232559948304687,649364188000000,,,-1265581155250939751,0.4403719902038574,29.207250918261707,-23.565253748631815,11.58374355797271,122,13,0.0,16399,384119370978929,11,33.1,214.425537109375,0.03620000183582306,25,2615.786200738906,0.001655554942969963,1.57542003E9,,,,0,,1,0.22,1.57542003E9,356.0,NaN,NaN
Raw,232559948304687,649364188000000,,,-1265581155250939751,0.4403719902038574,29.207250918261707,-23.565253748631815,11.58374355797271,122,15,0.0,16399,384119371254468,8,36.4,-120.17750549316406,0.03610000014305115,25,-1504.8923316177516,0.001160791358090767,1.57542003E9,,,,0,,1,0.22,1.57542003E9,356.0,NaN,NaN
Raw,232559948304687,649364188000000,,,-1265581155250939751,0.4403719902038574,29.207250918261707,-23.565253748631815,11.58374355797271,122,24,0.0,16399,384119363381642,16,29.3,-593.973388671875,0.013400000520050526,17,-3186.8812856093286,0.00281634630106073,1.57542003E9,,,,0,,1,0.22,1.57542003E9,356.0,NaN,NaN
Raw,232559948304687,649364188000000,,,-1265581155250939751,0.4403719902038574,29.207250918261707,-23.565253748631815,11.58374355797271,122,28,0.0,16399,384119367371718,4,45.1,180.3695068359375,0.027000000700354576,25,2194.6023259380922,4.186460693843681E-4,1.57542003E9,,,,0,,1,0.22,1.57542003E9,356.0,NaN,NaN
Raw,232559948304687,649364188000000,,,-1265581155250939751,0.4403719902038574,29.207250918261707,-23.565253748631815,11.58374355797271,122,30,0.0,16399,384119360944389,40,21.0,583.7353515625,0.8314999938011169,16,0.0,0.0,1.57542003E9,,,,0,,1,0.22,1.57542003E9,356.0,NaN,NaN
Raw,232559948304687,649364188000000,,,-1265581155250939751,0.4403719902038574,29.207250918261707,-23.565253748631815,11.58374355797271,122,14,0.0,49359,49301375084894,6,39.1,-39.217899322509766,0.24130000174045563,25,-493.1916432337643,8.254288163121457E-4,1.59806246E9,,,,0,,3,-0.7,1.59806246E9,356.0,NaN,NaN
Raw,232559948304687,649364188000000,,,-1265581155250939751,0.4403719902038574,29.207250918261707,-23.565253748631815,11.58374355797271,122,22,0.0,49359,49301361422012,53,19.2,-172.056640625,1.1030000448226929,16,0.0,0.0,1.60031245E9,,,,0,,3,-0.7,1.60031245E9,356.0,NaN,NaN
Raw,232559948304687,649364188000000,,,-1265581155250939751,0.4403719902038574,29.207250918261707,-23.565253748631815,11.58374355797271,122,13,0.0,49359,49301367963182,27,24.8,633.8054809570312,0.251800000667572,21,7527.021619742823,0.18726787319550683,1.60087501E9,,,,0,,3,-0.7,1.60087501E9,356.0,NaN,NaN
Raw,232559948304687,649364188000000,,,-1265581155250939751,0.4403719902038574,29.207250918261707,-23.565253748631815,11.58374355797271,122,15,0.0,49359,49301366963226,53,19.7,-667.1224365234375,1.125499963760376,16,0.0,0.0,1.602E9,,,,0,,3,-0.7,1.602E9,356.0,NaN,NaN
Raw,232559948304687,649364188000000,,,-1265581155250939751,0.4403719902038574,29.207250918261707,-23.565253748631815,11.58374355797271,122,5,0.0,49359,49301369873618,4,42.6,-566.8201904296875,0.23160000145435333,25,-6773.571631118947,5.799191056178505E-4,1.60256256E9,,,,0,,3,-0.7,1.60256256E9,356.0,NaN,NaN
Raw,232559948304687,649364188000000,,,-1265581155250939751,0.4403719902038574,29.207250918261707,-23.565253748631815,11.58374355797271,122,3,0.0,49359,49301364711027,8,36.9,764.6636352539062,0.225600004196167,25,9083.299634891786,0.0011395311965536827,1.60481254E9,,,,0,,3,-0.7,1.60481254E9,356.0,NaN,NaN
Raw,232559948304687,649364188000000,,,-1265581155250939751,0.4403719902038574,29.207250918261707,-23.565253748631815,11.58374355797271,122,4,0.0,49359,49301374518274,6,39.1,196.72161865234375,0.23980000615119934,25,2316.463715839262,8.216689731510993E-4,1.60537498E9,,,,0,,3,-0.7,1.60537498E9,356.0,NaN,NaN
Raw,232559948304687,649364188000000,,,-1265581155250939751,0.4403719902038574,29.207250918261707,-23.565253748631815,11.58374355797271,122,37,0.0,16399,384105359394408,6,38.9,471.59039306640625,0.047600001096725464,25,5761.1704633027475,9.409935037250662E-4,1.56109798E9,,,,0,,5,0.44,1.56109798E9,356.0,NaN,NaN
Raw,232559948304687,649364188000000,,,-1265581155250939751,0.4403719902038574,29.207250918261707,-23.565253748631815,11.58374355797271,122,22,0.0,16399,384105359034130,4,42.5,-411.4609680175781,0.04660000279545784,25,-5066.99933750897,5.953224307615613E-4,1.56109798E9,,,,0,,5,0.44,1.56109798E9,356.0,NaN,NaN
Raw,232559948304687,649364188000000,,,-1265581155250939751,0.4403719902038574,29.207250918261707,-23.565253748631815,11.58374355797271,122,20,0.0,16399,384105356010523,9,35.9,630.0550537109375,0.04410000145435333,25,7676.952250140403,0.0013442764594430532,1.56109798E9,,,,0,,5,0.44,1.56109798E9,356.0,NaN,NaN
Raw,232559948304687,649364188000000,,,-1265581155250939751,0.4403719902038574,29.207250918261707,-23.565253748631815,11.58374355797271,122,19,0.0,16399,384105365432542,13,31.1,192.6536102294922,0.029600001871585846,17,1864.5628014279498,0.0020932304434118673,1.56109798E9,,,,0,,5,0.44,1.56109798E9,356.0,NaN,NaN
Raw,232559948304687,649364188000000,,,-1265581155250939751,0.4403719902038574,29.207250918261707,-23.565253748631815,11.58374355797271,122,10,0.0,16399,384105306564236,27,24.5,162.5494842529297,0.050300002098083496,21,883.6366657123812,0.1920394882785269,1.56109798E9,,,,0,,5,0.44,1.56109798E9,356.0,NaN,NaN
Raw,232559948304687,649364188000000,,,-1265581155250939751,0.4403719902038574,29.207250918261707,-23.565253748631815,11.58374355797271,122,1,0.0,23567,384119354545136,5,40.9,380.7706604003906,0.04560000076889992,25,4630.720936326294,0.001617496273834944,1.57542003E9,,,,0,,6,0.23,1.57542003E9,356.0,NaN,NaN
Raw,232559948304687,649364188000000,,,-1265581155250939751,0.4403719902038574,29.207250918261707,-23.565253748631815,11.58374355797271,122,4,0.0,23567,384119352561046,8,36.3,493.9120178222656,0.04360000044107437,25,6013.250337986287,0.0025499350854412276,1.57542003E9,,,,0,,6,0.23,1.57542003E9,356.0,NaN,NaN
Raw,232559948304687,649364188000000,,,-1265581155250939751,0.4403719902038574,29.207250918261707,-23.565253748631815,11.58374355797271,122,5,0.0,23567,384119353810959,6,38.0,-430.3287353515625,0.044600002467632294,25,-5278.111089905651,0.0020551716777868216,1.57542003E9,,,,0,,6,0.23,1.57542003E9,356.0,NaN,NaN
Raw,232559948304687,649364188000000,,,-1265581155250939751,0.4403719902038574,29.207250918261707,-23.565253748631815,11.58374355797271,122,9,0.0,23567,384119367224532,8,36.1,51.17518615722656,0.048100002110004425,25,601.9130626173765,0.0025499350854412276,1.57542003E9,,,,0,,6,0.23,1.57542003E9,356.0,NaN,NaN
Raw,232559948304687,649364188000000,,,-1265581155250939751,0.4403719902038574,29.207250918261707,-23.565253748631815,11.58374355797271,122,24,0.0,23567,384119357124019,24,25.1,-560.5746459960938,0.058800000697374344,21,-1993.7973160640372,0.017526047264890512,1.57542003E9,,,,0,,6,0.23,1.57542003E9,356.0,NaN,NaN
Raw,232559948304687,649364188000000,,,-1265581155250939751,0.4403719902038574,29.207250918261707,-23.565253748631815,11.58374355797271,122,31,0.0,23567,384119360168598,14,30.8,-152.41830444335938,0.04690000042319298,25,-1885.0483668624613,0.005233075867304602,1.57542003E9,,,,0,,6,0.23,1.57542003E9,356.0,NaN,NaN
Raw,232559948304687,649364188000000,,,-1265581155250939751,0.4403719902038574,29.207250918261707,-23.565253748631815,11.58374355797271,122,24,0.0,81935,384119363389486,8,23.1,-594.0013427734375,0.02370000071823597,25,-3180.409202821286,0.25482803839368795,1.17645005E9,,,,0,,1,-12.25,1.17645005E9,356.0,NaN,NaN
Raw,232559948304687,649364188000000,,,-1265581155250939751,0.4403719902038574,29.207250918261707,-23.565253748631815,11.58374355797271,122,30,0.0,81935,384119360952697,9,21.8,583.0974731445312,0.7714999914169312,16,0.0,0.0,1.17645005E9,,,,0,,1,-12.25,1.17645005E9,356.0,NaN,NaN
Raw,232559948304687,649364188000000,,,-1265581155250939751,0.4403719902038574,29.207250918261707,-23.565253748631815,11.58374355797271,122,1,0.0,81935,384119354552234,8,23.2,380.6642150878906,0.0552000030875206,25,2415.079709928369,0.34557229348499413,1.17645005E9,,,,0,,6,-12.25,1.17645005E9,356.0,NaN,NaN
Raw,232559948304687,649364188000000,,,-1265581155250939751,0.4403719902038574,29.207250918261707,-23.565253748631815,11.58374355797271,122,4,0.0,81935,384119352568139,4,29.3,493.5852355957031,0.049000002443790436,25,3133.3456339226746,0.0037714549693657518,1.17645005E9,,,,0,,6,-12.25,1.17645005E9,356.0,NaN,NaN
Raw,232559948304687,649364188000000,,,-1265581155250939751,0.4403719902038574,29.207250918261707,-23.565253748631815,11.58374355797271,122,5,0.0,81935,384119353818051,3,33.3,-430.6012878417969,0.04500000178813934,25,-2738.404668007417,0.0022170039651624013,1.17645005E9,,,,0,,6,-12.25,1.17645005E9,356.0,NaN,NaN
Raw,232559948304687,649364188000000,,,-1265581155250939751,0.4403719902038574,29.207250918261707,-23.565253748631815,11.58374355797271,122,9,0.0,81935,384119367231622,4,30.6,50.878841400146484,0.03970000147819519,25,319.75117428027374,0.0032108332879374254,1.17645005E9,,,,0,,6,-12.25,1.17645005E9,356.0,NaN,NaN
