# 
# Header Description:
# 
# Version: v2.0.0.1 Platform: 10 Manufacturer: Google Model: Pixel 4
# 
# Raw,ElapsedRealtimeNanos,TimeNanos,LeapSecond,TimeUncertaintyNanos,FullBiasNanos,BiasNanos,BiasUncertaintyNanos,DriftNanosPerSecond,DriftUncertaintyNanosPerSecond,HardwareClockDiscontinuityCount,Svid,TimeOffsetNanos,State,ReceivedSvTimeNanos,ReceivedSvTimeUncertaintyNanos,Cn0DbHz,PseudorangeRateMetersPerSecond,PseudorangeRateUncertaintyMetersPerSecond,AccumulatedDeltaRangeState,AccumulatedDeltaRangeMeters,AccumulatedDeltaRangeUncertaintyMeters,CarrierFrequencyHz,CarrierCycles,CarrierPhase,CarrierPhaseUncertainty,MultipathIndicator,SnrInDb,ConstellationType,AgcDb,CarrierFrequencyHz,UserLatitude,UserLongitude,UserAltitude
# 
# Fix,Provider,Latitude,Longitude,Altitude,Speed,Accuracy,(UTC)TimeInMs,ElapsedRealtimeNanos
# 
# Nav,Svid,Type,Status,MessageId,Sub-messageId,Data(Bytes)
# 
Fix,gps,51.524711,-0.134016,73.796387,0.000000,3.790092,1582203887000,241144917052660
Raw,241144931676151,657949213000000,,,-1265581155230293633,-0.13317298889160156,30.660674383398145,26.446209965916854,11.005048617872582,203,12,0.0,16399,392704374002878,9,35.8,-410.44036865234375,0.04110000282526016,25,-21699.751882543595,0.0013320557236479321,1.57542003E9,,,,0,,1,0.79,1.57542003E9,410.0,NaN,NaN
Raw,241144931676151,657949213000000,,,-1265581155230293633,-0.13317298889160156,30.660674383398145,26.446209965916854,11.005048617872582,203,15,0.0,16399,392704366011449,5,41.4,689.4403076171875,0.027300002053380013,25,36151.58871279787,6.850571963914755E-4,1.57542003E9,,,,0,,1,0.79,1.57542003E9,410.0,NaN,NaN
Raw,241144931676151,657949213000000,,,-1265581155230293633,-0.13317298889160156,30.660674383398145,26.446209965916854,11.005048617872582,203,17,0.0,16399,392704366181112,6,38.6,288.4237976074219,0.02810000069439411,25,14994.829193472133,9.324389888310735E-4,1.57542003E9,,,,0,,1,0.79,1.57542003E9,410.0,NaN,NaN
Raw,241144931676151,657949213000000,,,-1265581155230293633,-0.13317298889160156,30.660674383398145,26.446209965916854,11.005048617872582,203,19,0.0,16399,392704370066431,12,32.7,-36.011199951171875,0.03660000115633011,25,-2092.316741173855,0.001807789796734829,1.57542003E9,,,,0,,1,0.79,1.57542003E9,410.0,NaN,NaN
Raw,241144931676151,657949213000000,,,-1265581155230293633,-0.13317298889160156,30.660674383398145,26.446209965916854,11.005048617872582,203,24,0.0,16399,392704376271594,8,36.4,64.58473205566406,0.04360000044107437,25,3261.035858458783,0.001160791358090767,1.57542003E9,,,,0,,1,0.79,1.57542003E9,410.0,NaN,NaN
Raw,241144931676151,657949213000000,,,-1265581155230293633,-0.13317298889160156,30.660674383398145,26.446209965916854,11.005048617872582,203,25,0.0,16399,392704364933909,40,21.0,-683.4016723632812,0.8524999618530273,16,0.0,0.0,1.57542003E9,,,,0,,1,0.79,1.57542003E9,410.0,NaN,NaN
Raw,241144931676151,657949213000000,,,-1265581155230293633,-0.13317298889160156,30.660674383398145,26.446209965916854,11.005048617872582,203,32,0.0,16399,392704364284314,21,26.1,-606.60595703125,0.03270000219345093,21,-23353.063515245292,0.005442398901996786,1.57542003E9,,,,0,,1,0.79,1.57542003E9,410.0,NaN,NaN
Raw,241144931676151,657949213000000,,,-1265581155230293633,-0.13317298889160156,30.660674383398145,26.446209965916854,11.005048617872582,203,14,0.0,49359,57886368188013,27,24.0,648.5100708007812,0.2533000111579895,27,33316.63533424315,0.18759745926927673,1.59806246E9,,,,0,,3,-0.7,1.59806246E9,410.0,NaN,NaN
Raw,241144931676151,657949213000000,,,-1265581155230293633,-0.13317298889160156,30.660674383398145,26.446209965916854,11.005048617872582,203,6,0.0,49359,57886375140139,21,26.1,-112.66917419433594,0.2492000013589859,29,-6123.6514100409495,0.005359627545920612,1.59975002E9,,,,0,,3,-0.7,1.59975002E9,410.0,NaN,NaN
Raw,241144931676151,657949213000000,,,-1265581155230293633,-0.13317298889160156,30.660674383398145,26.446209965916854,11.005048617872582,203,16,0.0,49359,57886373936629,31,23.5,-471.8678894042969,0.33070001006126404,27,-23510.938991151623,0.18720210387987432,1.60143744E9,,,,0,,3,-0.7,1.60143744E9,410.0,NaN,NaN
Raw,241144931676151,657949213000000,,,-1265581155230293633,-0.13317298889160156,30.660674383398145,26.446209965916854,11.005048617872582,203,15,0.0,49359,57886378420730,12,32.5,188.4363250732422,0.24860000610351562,25,9700.20918108201,0.0017777954178659534,1.602E9,,,,0,,3,-0.7,1.602E9,410.0,NaN,NaN
Raw,241144931676151,657949213000000,,,-1265581155230293633,-0.13317298889160156,30.660674383398145,26.446209965916854,11.005048617872582,203,5,0.0,49359,57886372397810,10,34.4,697.1688842773438,0.2386000007390976,25,35115.05900838951,0.0014965654619530243,1.60256256E9,,,,0,,3,-0.7,1.60256256E9,410.0,NaN,NaN
Raw,241144931676151,657949213000000,,,-1265581155230293633,-0.13317298889160156,30.660674383398145,26.446209965916854,11.005048617872582,203,23,0.0,49359,57886366278413,27,24.3,480.9960632324219,0.25029999017715454,29,24111.947339921364,0.1869394431765222,1.60368755E9,,,,0,,3,-0.7,1.60368755E9,410.0,NaN,NaN
Raw,241144931676151,657949213000000,,,-1265581155230293633,-0.13317298889160156,30.660674383398145,26.446209965916854,11.005048617872582,203,17,0.0,49359,57886368713731,19,27.1,-651.7183227539062,0.2378000020980835,29,-34170.51096567153,0.0031768565459246133,1.60424998E9,,,,0,,3,-0.7,1.60424998E9,410.0,NaN,NaN
Raw,241144931676151,657949213000000,,,-1265581155230293633,-0.13317298889160156,30.660674383398145,26.446209965916854,11.005048617872582,203,36,0.0,16399,392690370483727,9,35.9,-28.883485794067383,0.035100001841783524,25,-1609.3181924418798,0.0013442764594430532,1.56109798E9,,,,0,,5,1.48,1.56109798E9,410.0,NaN,NaN
Raw,241144931676151,657949213000000,,,-1265581155230293633,-0.13317298889160156,30.660674383398145,26.446209965916854,11.005048617872582,203,30,0.0,16399,392690361214535,13,31.4,-539.5621948242188,0.023600000888109207,21,-28357.435085999226,0.0020932304434118673,1.56109798E9,,,,0,,5,1.48,1.56109798E9,410.0,NaN,NaN
Raw,241144931676151,657949213000000,,,-1265581155230293633,-0.13317298889160156,30.660674383398145,26.446209965916854,11.005048617872582,203,27,0.0,16399,392690362737905,17,28.2,-78.6446533203125,0.028200000524520874,21,-4137.249017766458,0.003034223768286223,1.56109798E9,,,,0,,5,1.48,1.56109798E9,410.0,NaN,NaN
Raw,241144931676151,657949213000000,,,-1265581155230293633,-0.13317298889160156,30.660674383398145,26.446209965916854,11.005048617872582,203,22,0.0,16399,392690362706266,11,33.1,457.9264221191406,0.02420000173151493,25,22732.446037149195,0.0016707435714883973,1.56109798E9,,,,0,,5,1.48,1.56109798E9,410.0,NaN,NaN
Raw,241144931676151,657949213000000,,,-1265581155230293633,-0.13317298889160156,30.660674383398145,26.446209965916854,11.005048617872582,203,21,0.0,16399,392690362796758,24,25.8,-91.6704330444336,0.03629999980330467,21,-4785.765632130189,0.1920394882785269,1.56109798E9,,,,0,,5,1.48,1.56109798E9,410.0,NaN,NaN
Raw,241144931676151,657949213000000,,,-1265581155230293633,-0.13317298889160156,30.660674383398145,26.446209965916854,11.005048617872582,203,8,0.0,16399,392690307739928,80,16.8,-321.560546875,1.9270000457763672,16,0.0,0.0,1.56109798E9,,,,0,,5,1.48,1.56109798E9,410.0,NaN,NaN
Raw,241144931676151,657949213000000,,,-1265581155230293633,-0.13317298889160156,30.660674383398145,26.446209965916854,11.005048617872582,203,3,0.0,23567,392704357119175,21,26.3,-325.9099426269531,0.05220000073313713,25,-7363.439027453883,0.011874324619302384,1.57542003E9,,,,0,,6,0.81,1.57542003E9,410.0,NaN,NaN
Raw,241144931676151,657949213000000,,,-1265581155230293633,-0.13317298889160156,30.660674383398145,26.446209965916854,11.005048617872582,203,5,0.0,23567,392704362349947,11,33.9,211.74261474609375,0.04820000380277634,25,10980.509419737893,0.003596550258902148,1.57542003E9,,,,0,,6,0.81,1.57542003E9,410.0,NaN,NaN
Raw,241144931676151,657949213000000,,,-1265581155230293633,-0.13317298889160156,30.660674383398145,26.446209965916854,11.005048617872582,203,9,0.0,23567,392704361339370,10,34.4,595.0097045898438,0.04610000178217888,25,31168.942007561363,0.003311109885939926,1.57542003E9,,,,0,,6,0.81,1.57542003E9,410.0,NaN,NaN
Raw,241144931676151,657949213000000,,,-1265581155230293633,-0.13317298889160156,30.660674383398145,26.446209965916854,11.005048617872582,203,24,0.0,23567,392704371172247,35,22.5,-83.3105697631836,0.7549999952316284,16,0.0,0.0,1.57542003E9,,,,0,,6,0.81,1.57542003E9,410.0,NaN,NaN
Raw,241144931676151,657949213000000,,,-1265581155230293633,-0.13317298889160156,30.660674383398145,26.446209965916854,11.005048617872582,203,25,0.0,23567,392704355028486,21,26.7,-464.2884521484375,0.0552000030875206,19,-258.781295332029,0.011874324619302384,1.57542003E9,,,,0,,6,0.81,1.57542003E9,410.0,NaN,NaN
Raw,241144931676151,657949213000000,,,-1265581155230293633,-0.13317298889160156,30.660674383398145,26.446209965916854,11.005048617872582,203,31,0.0,23567,392704360167232,14,30.4,381.65411376953125,0.04690000042319298,25,19965.07684215254,0.005233075867304602,1.57542003E9,,,,0,,6,0.81,1.57542003E9,410.0,NaN,NaN
Raw,241144931676151,657949213000000,,,-1265581155230293633,-0.13317298889160156,30.660674383398145,26.446209965916854,11.005048617872582,203,33,0.0,23567,392704352259941,40,21.6,-354.0413818359375,0.8104999661445618,16,0.0,0.0,1.57542003E9,,,,0,,6,0.81,1.57542003E9,410.0,NaN,NaN
Raw,241144931676151,657949213000000,,,-1265581155230293633,-0.13317298889160156,30.660674383398145,26.446209965916854,11.005048617872582,203,24,0.0,81935,392704376279444,3,32.4,64.54939270019531,0.050599999725818634,25,2895.1409816959404,0.0024208662868967453,1.17645005E9,,,,0,,1,6.19,1.17645005E9,410.0,NaN,NaN
Raw,241144931676151,657949213000000,,,-1265581155230293633,-0.13317298889160156,30.660674383398145,26.446209965916854,11.005048617872582,203,25,0.0,81935,392704364941651,7,24.1,-684.4354858398438,0.08110000193119049,25,-31772.088095850017,0.25482803839368795,1.17645005E9,,,,0,,1,6.19,1.17645005E9,410.0,NaN,NaN
Raw,241144931676151,657949213000000,,,-1265581155230293633,-0.13317298889160156,30.660674383398145,26.446209965916854,11.005048617872582,203,32,0.0,81935,392704364292157,10,20.0,-606.9876098632812,0.92249995470047,16,0.0,0.0,1.17645005E9,,,,0,,1,6.19,1.17645005E9,410.0,NaN,NaN
Raw,241144931676151,657949213000000,,,-1265581155230293633,-0.13317298889160156,30.660674383398145,26.446209965916854,11.005048617872582,203,3,0.0,81935,392704357126218,3,31.3,-325.0032958984375,0.053300000727176666,25,-15183.352666770466,0.0027776256465907277,1.17645005E9,,,,0,,6,6.19,1.17645005E9,410.0,NaN,NaN
Raw,241144931676151,657949213000000,,,-1265581155230293633,-0.13317298889160156,30.660674383398145,26.446209965916854,11.005048617872582,203,5,0.0,81935,392704362357031,12,18.2,210.6663360595703,0.999500036239624,16,0.0,0.0,1.17645005E9,,,,0,,6,6.19,1.17645005E9,410.0,NaN,NaN
Raw,241144931676151,657949213000000,,,-1265581155230293633,-0.13317298889160156,30.660674383398145,26.446209965916854,11.005048617872582,203,9,0.0,81935,392704361346471,4,29.6,595.9214477539062,0.032499998807907104,25,27554.02443388545,0.0037714549693657518,1.17645005E9,,,,0,,6,6.19,1.17645005E9,410.0,NaN,NaN
Raw,241144931676151,657949213000000,,,-1265581155230293633,-0.13317298889160156,30.660674383398145,26.446209965916854,11.005048617872582,203,24,0.0,81935,392704371179331,8,23.1,-82.38157653808594,0.050700001418590546,29,-3922.8494309783437,0.25482803839368795,1.17645005E9,,,,0,,6,6.19,1.17645005E9,410.0,NaN,NaN
Raw,241144931676151,657949213000000,,,-1265581155230293633,-0.13317298889160156,30.660674383398145,26.446209965916854,11.005048617872582,203,25,0.0,81935,392704355035518,8,23.1,-463.44183349609375,0.056700002402067184,29,-21542.38814404474,0.34557229348499413,1.17645005E9,,,,0,,6,6.19,1.17645005E9,410.0,NaN,NaN
Raw,241144931676151,657949213000000,,,-1265581155230293633,-0.13317298889160156,30.660674383398145,26.446209965916854,11.005048617872582,203,31,0.0,81935,392704360174314,2,36.4,382.4478454589844,0.02290000021457672,25,17652.717490169383,0.0015544510042033504,1.17645005E9,,,,0,,6,6.19,1.17645005E9,410.0,NaN,NaN
Fix,gps,51.524710,-0.134019,73.750061,0.160000,3.790092,1582203888000,241145923682657
Raw,241145946114482,657950213000000,,,-1265581155230293608,-0.9932918548583984,32.76600546087138,23.414163505620994,11.002091771382801,203,10,0.0,16399,392705365320082,46,20.1,265.12664794921875,2.3940000534057617,16,0.0,0.0,1.57542003E9,,,,0,,1,0.97,1.57542003E9,410.0,NaN,NaN
Raw,241145946114482,657950213000000,,,-1265581155230293608,-0.9932918548583984,32.76600546087138,23.414163505620994,11.002091771382801,203,12,0.0,16399,392705374004230,10,34.5,-407.8880310058594,0.041600000113248825,25,-22110.011616455387,0.0015223494237726067,1.57542003E9,,,,0,,1,0.97,1.57542003E9,410.0,NaN,NaN
Raw,241145946114482,657950213000000,,,-1265581155230293608,-0.9932918548583984,32.76600546087138,23.414163505620994,11.002091771382801,203,15,0.0,16399,392705366009145,6,38.2,691.968017578125,0.02810000069439411,25,36841.1882013118,9.324389888310735E-4,1.57542003E9,,,,0,,1,0.97,1.57542003E9,410.0,NaN,NaN
Raw,241145946114482,657950213000000,,,-1265581155230293608,-0.9932918548583984,32.76600546087138,23.414163505620994,11.002091771382801,203,17,0.0,16399,392705366180177,7,37.5,290.9636535644531,0.028400002047419548,25,15283.31534249396,0.0010085564157135064,1.57542003E9,,,,0,,1,0.97,1.57542003E9,410.0,NaN,NaN
Raw,241145946114482,657950213000000,,,-1265581155230293608,-0.9932918548583984,32.76600546087138,23.414163505620994,11.002091771382801,203,19,0.0,16399,392705370066610,11,33.2,-33.43211364746094,0.03620000183582306,25,-2128.193785441206,0.001655554942969963,1.57542003E9,,,,0,,1,0.97,1.57542003E9,410.0,NaN,NaN
Raw,241145946114482,657950213000000,,,-1265581155230293608,-0.9932918548583984,32.76600546087138,23.414163505620994,11.002091771382801,203,20,0.0,16399,392705362498197,70,17.6,556.4757690429688,2.6694998741149902,16,0.0,0.0,1.57542003E9,,,,0,,1,0.97,1.57542003E9,410.0,NaN,NaN
Raw,241145946114482,657950213000000,,,-1265581155230293608,-0.9932918548583984,32.76600546087138,23.414163505620994,11.002091771382801,203,24,0.0,16399,392705376271383,6,38.6,67.08142852783203,0.04310000315308571,25,3325.748892685035,9.324389888310735E-4,1.57542003E9,,,,0,,1,0.97,1.57542003E9,410.0,NaN,NaN
Raw,241145946114482,657950213000000,,,-1265581155230293608,-0.9932918548583984,32.76600546087138,23.414163505620994,11.002091771382801,203,25,0.0,16399,392705364936109,14,30.3,-682.0100708007812,0.02890000119805336,19,-36553.290686997345,0.002397700231676362,1.57542003E9,,,,0,,1,0.97,1.57542003E9,410.0,NaN,NaN
Raw,241145946114482,657950213000000,,,-1265581155230293608,-0.9932918548583984,32.76600546087138,23.414163505620994,11.002091771382801,203,32,0.0,16399,392705364286247,27,24.5,-604.1443481445312,0.67249995470047,16,0.0,0.0,1.57542003E9,,,,0,,1,0.97,1.57542003E9,410.0,NaN,NaN
Raw,241145946114482,657950213000000,,,-1265581155230293608,-0.9932918548583984,32.76600546087138,23.414163505620994,11.002091771382801,203,6,0.0,49359,57887375140560,24,25.2,-110.16334533691406,0.2558000087738037,21,-6236.208535825935,0.1873995655581228,1.59975002E9,,,,0,,3,-0.59,1.59975002E9,410.0,NaN,NaN
Raw,241145946114482,657950213000000,,,-1265581155230293608,-0.9932918548583984,32.76600546087138,23.414163505620994,11.002091771382801,203,16,0.0,49359,57887373938051,27,24.4,-470.9241027832031,0.26080000400543213,21,-23983.266324509823,0.18720210387987432,1.60143744E9,,,,0,,3,-0.59,1.60143744E9,410.0,NaN,NaN
Raw,241145946114482,657950213000000,,,-1265581155230293608,-0.9932918548583984,32.76600546087138,23.414163505620994,11.002091771382801,203,15,0.0,49359,57887378420033,6,38.1,190.93893432617188,0.24610000848770142,25,9888.754504548815,9.169682032598611E-4,1.602E9,,,,0,,3,-0.59,1.602E9,410.0,NaN,NaN
Raw,241145946114482,657950213000000,,,-1265581155230293608,-0.9932918548583984,32.76600546087138,23.414163505620994,11.002091771382801,203,5,0.0,49359,57887372395477,13,31.0,699.7310180664062,0.24009999632835388,25,35812.39840575136,0.002039070365688371,1.60256256E9,,,,0,,3,-0.59,1.60256256E9,410.0,NaN,NaN
Raw,241145946114482,657950213000000,,,-1265581155230293608,-0.9932918548583984,32.76600546087138,23.414163505620994,11.002091771382801,203,23,0.0,49359,57887366276836,40,21.1,483.36932373046875,0.9954999685287476,16,0.0,0.0,1.60368755E9,,,,0,,3,-0.59,1.60368755E9,410.0,NaN,NaN
Raw,241145946114482,657950213000000,,,-1265581155230293608,-0.9932918548583984,32.76600546087138,23.414163505620994,11.002091771382801,203,17,0.0,49359,57887368715880,11,33.1,-650.4893798828125,0.5184999704360962,16,0.0,0.0,1.60424998E9,,,,0,,3,-0.59,1.60424998E9,410.0,NaN,NaN
Raw,241145946114482,657950213000000,,,-1265581155230293608,-0.9932918548583984,32.76600546087138,23.414163505620994,11.002091771382801,203,7,0.0,49359,57887365067213,61,18.5,-701.5776977539062,1.9540001153945923,16,0.0,0.0,1.60481254E9,,,,0,,3,-0.59,1.60481254E9,410.0,NaN,NaN
Raw,241145946114482,657950213000000,,,-1265581155230293608,-0.9932918548583984,32.76600546087138,23.414163505620994,11.002091771382801,203,36,0.0,16399,392691370483881,21,26.9,-26.438642501831055,0.04170000180602074,25,-1638.0895215644232,0.005492329335005111,1.56109798E9,,,,0,,5,1.63,1.56109798E9,410.0,NaN,NaN
Raw,241145946114482,657950213000000,,,-1265581155230293608,-0.9932918548583984,32.76600546087138,23.414163505620994,11.002091771382801,203,30,0.0,16399,392691361216304,9,35.2,-537.0372314453125,0.02160000056028366,17,-28896.879898820596,0.0013442764594430532,1.56109798E9,,,,0,,5,1.63,1.56109798E9,410.0,NaN,NaN
Raw,241145946114482,657950213000000,,,-1265581155230293608,-0.9932918548583984,32.76600546087138,23.414163505620994,11.002091771382801,203,27,0.0,16399,392691362738126,16,29.7,-76.15032196044922,0.026900000870227814,21,-4215.8030462324505,0.0028421844273806814,1.56109798E9,,,,0,,5,1.63,1.56109798E9,410.0,NaN,NaN
Raw,241145946114482,657950213000000,,,-1265581155230293608,-0.9932918548583984,32.76600546087138,23.414163505620994,11.002091771382801,203,22,0.0,16399,392691362704705,13,31.0,461.0484313964844,0.3894999921321869,16,0.0,0.0,1.56109798E9,,,,0,,5,1.63,1.56109798E9,410.0,NaN,NaN
Raw,241145946114482,657950213000000,,,-1265581155230293608,-0.9932918548583984,32.76600546087138,23.414163505620994,11.002091771382801,203,21,0.0,16399,392691362797193,14,30.2,-89.08821868896484,0.02590000070631504,21,-4877.208023265127,0.0024196975554572116,1.56109798E9,,,,0,,5,1.63,1.56109798E9,410.0,NaN,NaN
Raw,241145946114482,657950213000000,,,-1265581155230293608,-0.9932918548583984,32.76600546087138,23.414163505620994,11.002091771382801,203,8,0.0,16399,392691307740979,61,18.1,-320.7635803222656,1.0869998931884766,16,0.0,0.0,1.56109798E9,,,,0,,5,1.63,1.56109798E9,410.0,NaN,NaN
Raw,241145946114482,657950213000000,,,-1265581155230293608,-0.9932918548583984,32.76600546087138,23.414163505620994,11.002091771382801,203,3,0.0,23567,392705357120204,12,32.5,-323.5589294433594,0.0471000038087368,25,-7689.235920516398,0.003958108324583987,1.57542003E9,,,,0,,6,0.93,1.57542003E9,410.0,NaN,NaN
Raw,241145946114482,657950213000000,,,-1265581155230293608,-0.9932918548583984,32.76600546087138,23.414163505620994,11.002091771382801,203,5,0.0,23567,392705362349264,13,31.0,214.01759338378906,0.04910000041127205,25,11192.327800960198,0.004528989424958011,1.57542003E9,,,,0,,6,0.93,1.57542003E9,410.0,NaN,NaN
Raw,241145946114482,657950213000000,,,-1265581155230293608,-0.9932918548583984,32.76600546087138,23.414163505620994,11.002091771382801,203,9,0.0,23567,392705361337432,14,30.9,597.3496704101562,0.04840000346302986,25,31764.109314563695,0.005233075867304602,1.57542003E9,,,,0,,6,0.93,1.57542003E9,410.0,NaN,NaN
Raw,241145946114482,657950213000000,,,-1265581155230293608,-0.9932918548583984,32.76600546087138,23.414163505620994,11.002091771382801,203,24,0.0,23567,392705371172558,19,27.2,-80.9078140258789,0.05430000275373459,19,-43.03468889900778,0.007212130206821385,1.57542003E9,,,,0,,6,0.93,1.57542003E9,410.0,NaN,NaN
Raw,241145946114482,657950213000000,,,-1265581155230293608,-0.9932918548583984,32.76600546087138,23.414163505620994,11.002091771382801,203,25,0.0,23567,392705355030019,17,28.7,-462.1488037109375,0.053700003772974014,25,-722.9707359822653,0.006565131413727744,1.57542003E9,,,,0,,6,0.93,1.57542003E9,410.0,NaN,NaN
Raw,241145946114482,657950213000000,,,-1265581155230293608,-0.9932918548583984,32.76600546087138,23.414163505620994,11.002091771382801,203,31,0.0,23567,392705360165946,7,37.8,383.9858703613281,0.04340000078082085,25,20346.82751671415,0.0021883771969841777,1.57542003E9,,,,0,,6,0.93,1.57542003E9,410.0,NaN,NaN
Raw,241145946114482,657950213000000,,,-1265581155230293608,-0.9932918548583984,32.76600546087138,23.414163505620994,11.002091771382801,203,33,0.0,23567,392705352261085,40,21.9,-351.3201904296875,0.8104999661445618,16,0.0,0.0,1.57542003E9,,,,0,,6,0.93,1.57542003E9,410.0,NaN,NaN
Raw,241145946114482,657950213000000,,,-1265581155230293608,-0.9932918548583984,32.76600546087138,23.414163505620994,11.002091771382801,203,24,0.0,81935,392705376279227,2,37.0,67.0799331665039,0.04610000178217888,25,2959.8569735687006,0.0013505885638054542,1.17645005E9,,,,0,,1,13.01,1.17645005E9,410.0,NaN,NaN
Raw,241145946114482,657950213000000,,,-1265581155230293608,-0.9932918548583984,32.76600546087138,23.414163505620994,11.002091771382801,203,25,0.0,81935,392705364943925,6,26.6,-682.01123046875,0.048100002110004425,29,-32456.546067142634,0.007288081858568245,1.17645005E9,,,,0,,1,13.01,1.17645005E9,410.0,NaN,NaN
Raw,241145946114482,657950213000000,,,-1265581155230293608,-0.9932918548583984,32.76600546087138,23.414163505620994,11.002091771382801,203,32,0.0,81935,392705364294171,9,21.8,-604.0673217773438,0.05140000209212303,27,-26913.898260746737,0.25482803839368795,1.17645005E9,,,,0,,1,13.01,1.17645005E9,410.0,NaN,NaN
Raw,241145946114482,657950213000000,,,-1265581155230293608,-0.9932918548583984,32.76600546087138,23.414163505620994,11.002091771382801,203,3,0.0,81935,392705357127306,3,31.4,-323.1050109863281,0.053300000727176666,25,-15509.149215652495,0.0027776256465907277,1.17645005E9,,,,0,,6,13.01,1.17645005E9,410.0,NaN,NaN
Raw,241145946114482,657950213000000,,,-1265581155230293608,-0.9932918548583984,32.76600546087138,23.414163505620994,11.002091771382801,203,5,0.0,81935,392705362356356,6,25.7,214.62384033203125,0.033399999141693115,27,9929.405643740967,0.02346966281299121,1.17645005E9,,,,0,,6,13.01,1.17645005E9,410.0,NaN,NaN
Raw,241145946114482,657950213000000,,,-1265581155230293608,-0.9932918548583984,32.76600546087138,23.414163505620994,11.002091771382801,203,9,0.0,81935,392705361344482,3,32.2,597.8305053710938,0.02810000069439411,25,28149.144936164834,0.0024208662868967453,1.17645005E9,,,,0,,6,13.01,1.17645005E9,410.0,NaN,NaN
Raw,241145946114482,657950213000000,,,-1265581155230293608,-0.9932918548583984,32.76600546087138,23.414163505620994,11.002091771382801,203,24,0.0,81935,392705371179602,5,28.5,-80.51300811767578,0.04960000142455101,29,-4005.200525283071,0.0040262828122019055,1.17645005E9,,,,0,,6,13.01,1.17645005E9,410.0,NaN,NaN
Raw,241145946114482,657950213000000,,,-1265581155230293608,-0.9932918548583984,32.76600546087138,23.414163505620994,11.002091771382801,203,25,0.0,81935,392705355037212,7,24.7,-461.9549560546875,0.05460000038146973,29,-22005.29868641285,0.08959753608771179,1.17645005E9,,,,0,,6,13.01,1.17645005E9,410.0,NaN,NaN
Raw,241145946114482,657950213000000,,,-1265581155230293608,-0.9932918548583984,32.76600546087138,23.414163505620994,11.002091771382801,203,31,0.0,81935,392705360173041,2,37.0,384.6214904785156,0.0071000000461936,25,18034.46704595775,0.0013505885638054542,1.17645005E9,,,,0,,6,13.01,1.17645005E9,410.0,NaN,NaN
Raw,241145946114482,657950213000000,,,-1265581155230293608,-0.9932918548583984,32.76600546087138,23.414163505620994,11.002091771382801,203,33,0.0,81935,392705352268251,27,12.9,-353.1407165527344,8.244500160217285,16,0.0,0.0,1.17645005E9,,,,0,,6,13.01,1.17645005E9,410.0,NaN,NaN
Fix,gps,51.524709,-0.134019,73.764221,0.000000,3.790092,1582203889000,241146920827391
Raw,241146947009998,657951213000000,,,-1265581155230293570,-0.3098773956298828,33.61140261404216,31.451993607915533,12.565705278775186,203,10,0.0,16399,392706365319217,40,21.7,265.402587890625,0.8539999723434448,16,0.0,0.0,1.57542003E9,,,,0,,1,0.95,1.57542003E9,410.0,NaN,NaN
Raw,241146947009998,657951213000000,,,-1265581155230293570,-0.3098773956298828,33.61140261404216,31.451993607915533,12.565705278775186,203,12,0.0,16399,392706374005714,27,24.1,-409.0971984863281,0.062300004065036774,21,-22517.694444890138,0.19029366893311156,1.57542003E9,,,,0,,1,0.95,1.57542003E9,410.0,NaN,NaN
Raw,241146947009998,657951213000000,,,-1265581155230293570,-0.3098773956298828,33.61140261404216,31.451993607915533,12.565705278775186,203,15,0.0,16399,392706366006829,7,37.1,691.7682495117188,0.028400002047419548,25,37533.707204296625,0.0010085564157135064,1.57542003E9,,,,0,,1,0.95,1.57542003E9,410.0,NaN,NaN
Raw,241146947009998,657951213000000,,,-1265581155230293570,-0.3098773956298828,33.61140261404216,31.451993607915533,12.565705278775186,203,17,0.0,16399,392706366179246,9,35.6,290.9359130859375,0.029100000858306885,25,15574.965798681678,0.0013320557236479321,1.57542003E9,,,,0,,1,0.95,1.57542003E9,410.0,NaN,NaN
Raw,241146947009998,657951213000000,,,-1265581155230293570,-0.3098773956298828,33.61140261404216,31.451993607915533,12.565705278775186,203,19,0.0,16399,392706370066746,12,32.1,-33.420379638671875,0.03660000115633011,25,-2160.9301010387367,0.001807789796734829,1.57542003E9,,,,0,,1,0.95,1.57542003E9,410.0,NaN,NaN
Raw,241146947009998,657951213000000,,,-1265581155230293570,-0.3098773956298828,33.61140261404216,31.451993607915533,12.565705278775186,203,20,0.0,16399,392706362496278,35,22.1,556.8659057617188,0.7894999980926514,16,0.0,0.0,1.57542003E9,,,,0,,1,0.95,1.57542003E9,410.0,NaN,NaN
Raw,241146947009998,657951213000000,,,-1265581155230293570,-0.3098773956298828,33.61140261404216,31.451993607915533,12.565705278775186,203,24,0.0,16399,392706376271159,8,36.5,67.01252746582031,0.04360000044107437,25,3393.487669002159,0.001160791358090767,1.57542003E9,,,,0,,1,0.95,1.57542003E9,410.0,NaN,NaN
Raw,241146947009998,657951213000000,,,-1265581155230293570,-0.3098773956298828,33.61140261404216,31.451993607915533,12.565705278775186,203,25,0.0,16399,392706364938405,14,30.5,-682.1471557617188,0.02890000119805336,25,-37234.58739790409,0.002397700231676362,1.57542003E9,,,,0,,1,0.95,1.57542003E9,410.0,NaN,NaN
Raw,241146947009998,657951213000000,,,-1265581155230293570,-0.3098773956298828,33.61140261404216,31.451993607915533,12.565705278775186,203,32,0.0,16399,392706364288061,70,17.9,-603.9445190429688,1.0824999809265137,16,0.0,0.0,1.57542003E9,,,,0,,1,0.95,1.57542003E9,410.0,NaN,NaN
Raw,241146947009998,657951213000000,,,-1265581155230293570,-0.3098773956298828,33.61140261404216,31.451993607915533,12.565705278775186,203,14,0.0,49359,57888368184021,61,18.3,648.7401733398438,1.9585001468658447,16,0.0,0.0,1.59806246E9,,,,0,,3,-0.67,1.59806246E9,410.0,NaN,NaN
Raw,241146947009998,657951213000000,,,-1265581155230293570,-0.3098773956298828,33.61140261404216,31.451993607915533,12.565705278775186,203,6,0.0,49359,57888375140952,40,21.3,-109.4694595336914,1.0089999437332153,16,0.0,0.0,1.59975002E9,,,,0,,3,-0.67,1.59975002E9,410.0,NaN,NaN
Raw,241146947009998,657951213000000,,,-1265581155230293570,-0.3098773956298828,33.61140261404216,31.451993607915533,12.565705278775186,203,16,0.0,49359,57888373939687,21,26.6,-470.38177490234375,0.24620001018047333,29,-24452.781515740462,0.005353980141953307,1.60143744E9,,,,0,,3,-0.67,1.60143744E9,410.0,NaN,NaN
Raw,241146947009998,657951213000000,,,-1265581155230293570,-0.3098773956298828,33.61140261404216,31.451993607915533,12.565705278775186,203,15,0.0,49359,57888378419389,5,40.5,190.90118408203125,0.24560000002384186,25,10080.371301982894,7.298318067930613E-4,1.602E9,,,,0,,3,-0.67,1.602E9,410.0,NaN,NaN
Raw,241146947009998,657951213000000,,,-1265581155230293570,-0.3098773956298828,33.61140261404216,31.451993607915533,12.565705278775186,203,5,0.0,49359,57888372393121,13,31.1,699.6403198242188,0.24009999632835388,25,36512.746583715976,0.002039070365688371,1.60256256E9,,,,0,,3,-0.67,1.60256256E9,410.0,NaN,NaN
Raw,241146947009998,657951213000000,,,-1265581155230293570,-0.3098773956298828,33.61140261404216,31.451993607915533,12.565705278775186,203,23,0.0,49359,57888366275339,53,19.1,483.1637268066406,1.125499963760376,16,0.0,0.0,1.60368755E9,,,,0,,3,-0.67,1.60368755E9,410.0,NaN,NaN
Raw,241146947009998,657951213000000,,,-1265581155230293570,-0.3098773956298828,33.61140261404216,31.451993607915533,12.565705278775186,203,17,0.0,49359,57888368717974,11,33.6,-650.7118530273438,0.23319999873638153,27,-35471.26010235232,0.0016258029903346391,1.60424998E9,,,,0,,3,-0.67,1.60424998E9,410.0,NaN,NaN
Raw,241146947009998,657951213000000,,,-1265581155230293570,-0.3098773956298828,33.61140261404216,31.451993607915533,12.565705278775186,203,7,0.0,49359,57888365069731,53,19.2,-702.9693603515625,1.1239999532699585,16,0.0,0.0,1.60481254E9,,,,0,,3,-0.67,1.60481254E9,410.0,NaN,NaN
Raw,241146947009998,657951213000000,,,-1265581155230293570,-0.3098773956298828,33.61140261404216,31.451993607915533,12.565705278775186,203,36,0.0,16399,392692370483946,21,26.0,-26.401594161987305,0.04170000180602074,21,-1663.8565063539293,0.005492329335005111,1.56109798E9,,,,0,,5,1.44,1.56109798E9,410.0,NaN,NaN
Raw,241146947009998,657951213000000,,,-1265581155230293570,-0.3098773956298828,33.61140261404216,31.451993607915533,12.565705278775186,203,30,0.0,16399,392692361218102,16,29.6,-537.2318725585938,0.02540000155568123,17,-29433.349260770992,0.0028421844273806814,1.56109798E9,,,,0,,5,1.44,1.56109798E9,410.0,NaN,NaN
Raw,241146947009998,657951213000000,,,-1265581155230293570,-0.3098773956298828,33.61140261404216,31.451993607915533,12.565705278775186,203,27,0.0,16399,392692362738390,13,31.9,-76.25888061523438,0.025100000202655792,17,-4291.321525716536,0.0020932304434118673,1.56109798E9,,,,0,,5,1.44,1.56109798E9,410.0,NaN,NaN
Raw,241146947009998,657951213000000,,,-1265581155230293570,-0.3098773956298828,33.61140261404216,31.451993607915533,12.565705278775186,203,22,0.0,16399,392692362703195,19,27.5,460.220947265625,0.028800001367926598,19,23649.799760972997,0.0032646714781548623,1.56109798E9,,,,0,,5,1.44,1.56109798E9,410.0,NaN,NaN
Raw,241146947009998,657951213000000,,,-1265581155230293570,-0.3098773956298828,33.61140261404216,31.451993607915533,12.565705278775186,203,21,0.0,16399,392692362797568,24,25.6,-89.19500732421875,0.03629999980330467,21,-4965.753092158706,0.1920394882785269,1.56109798E9,,,,0,,5,1.44,1.56109798E9,410.0,NaN,NaN
Raw,241146947009998,657951213000000,,,-1265581155230293570,-0.3098773956298828,33.61140261404216,31.451993607915533,12.565705278775186,203,8,0.0,16399,392692307742038,53,19.3,-320.6771240234375,1.0069999694824219,16,0.0,0.0,1.56109798E9,,,,0,,5,1.44,1.56109798E9,410.0,NaN,NaN
Raw,241146947009998,657951213000000,,,-1265581155230293570,-0.3098773956298828,33.61140261404216,31.451993607915533,12.565705278775186,203,3,0.0,23567,392706357121285,11,33.8,-323.3777160644531,0.04670000076293945,25,-8011.9579940514805,0.003596550258902148,1.57542003E9,,,,0,,6,0.87,1.57542003E9,410.0,NaN,NaN
Raw,241146947009998,657951213000000,,,-1265581155230293570,-0.3098773956298828,33.61140261404216,31.451993607915533,12.565705278775186,203,5,0.0,23567,392706362348472,24,25.4,214.2662353515625,0.06030000001192093,21,11407.135817081738,0.017526047264890512,1.57542003E9,,,,0,,6,0.87,1.57542003E9,410.0,NaN,NaN
Raw,241146947009998,657951213000000,,,-1265581155230293570,-0.3098773956298828,33.61140261404216,31.451993607915533,12.565705278775186,203,9,0.0,23567,392706361335440,14,30.0,597.41015625,0.04840000346302986,25,32362.182519831313,0.005233075867304602,1.57542003E9,,,,0,,6,0.87,1.57542003E9,410.0,NaN,NaN
Raw,241146947009998,657951213000000,,,-1265581155230293570,-0.3098773956298828,33.61140261404216,31.451993607915533,12.565705278775186,203,24,0.0,23567,392706371172804,12,32.9,-80.76553344726562,0.05010000243782997,25,-123.05581668372399,0.003958108324583987,1.57542003E9,,,,0,,6,0.87,1.57542003E9,410.0,NaN,NaN
Raw,241146947009998,657951213000000,,,-1265581155230293570,-0.3098773956298828,33.61140261404216,31.451993607915533,12.565705278775186,203,25,0.0,23567,392706355031590,14,30.4,-461.9651184082031,0.05140000209212303,25,-1184.2496022119697,0.005233075867304602,1.57542003E9,,,,0,,6,0.87,1.57542003E9,410.0,NaN,NaN
Raw,241146947009998,657951213000000,,,-1265581155230293570,-0.3098773956298828,33.61140261404216,31.451993607915533,12.565705278775186,203,31,0.0,23567,392706360164671,5,40.0,384.1122741699219,0.04260000213980675,25,20731.63494802565,0.001617496273834944,1.57542003E9,,,,0,,6,0.87,1.57542003E9,410.0,NaN,NaN
Raw,241146947009998,657951213000000,,,-1265581155230293570,-0.3098773956298828,33.61140261404216,31.451993607915533,12.565705278775186,203,33,0.0,23567,392706352262263,35,22.7,-351.3582458496094,0.750499963760376,16,0.0,0.0,1.57542003E9,,,,0,,6,0.87,1.57542003E9,410.0,NaN,NaN
Raw,241146947009998,657951213000000,,,-1265581155230293570,-0.3098773956298828,33.61140261404216,31.451993607915533,12.565705278775186,203,24,0.0,81935,392706376279001,2,38.1,67.02418518066406,0.045500002801418304,25,3027.5938679958413,0.0012486574029382824,1.17645005E9,,,,0,,1,10.36,1.17645005E9,410.0,NaN,NaN
Raw,241146947009998,657951213000000,,,-1265581155230293570,-0.3098773956298828,33.61140261404216,31.451993607915533,12.565705278775186,203,25,0.0,81935,392706364946198,6,25.0,-682.1599731445312,0.060499999672174454,29,-33137.91966149018,0.25482803839368795,1.17645005E9,,,,0,,1,10.36,1.17645005E9,410.0,NaN,NaN
Raw,241146947009998,657951213000000,,,-1265581155230293570,-0.3098773956298828,33.61140261404216,31.451993607915533,12.565705278775186,203,32,0.0,81935,392706364296199,8,22.5,-604.8726196289062,0.7324999570846558,16,0.0,0.0,1.17645005E9,,,,0,,1,10.36,1.17645005E9,410.0,NaN,NaN
Raw,241146947009998,657951213000000,,,-1265581155230293570,-0.3098773956298828,33.61140261404216,31.451993607915533,12.565705278775186,203,3,0.0,81935,392706357128386,2,34.6,-323.7588806152344,0.05000000074505806,25,-15831.885400556752,0.0020386244039789624,1.17645005E9,,,,0,,6,10.36,1.17645005E9,410.0,NaN,NaN
Raw,241146947009998,657951213000000,,,-1265581155230293570,-0.3098773956298828,33.61140261404216,31.451993607915533,12.565705278775186,203,5,0.0,81935,392706362355644,6,25.8,213.99075317382812,0.033399999141693115,29,10144.276152502327,0.02346966281299121,1.17645005E9,,,,0,,6,10.36,1.17645005E9,410.0,NaN,NaN
Raw,241146947009998,657951213000000,,,-1265581155230293570,-0.3098773956298828,33.61140261404216,31.451993607915533,12.565705278775186,203,9,0.0,81935,392706361342490,3,31.3,597.0415649414062,0.02930000051856041,25,28747.214877355495,0.0027776256465907277,1.17645005E9,,,,0,,6,10.36,1.17645005E9,410.0,NaN,NaN
Raw,241146947009998,657951213000000,,,-1265581155230293570,-0.3098773956298828,33.61140261404216,31.451993607915533,12.565705278775186,203,24,0.0,81935,392706371179867,3,32.1,-81.14652252197266,0.04309999942779541,25,-4085.3211115863223,0.0024208662868967453,1.17645005E9,,,,0,,6,10.36,1.17645005E9,410.0,NaN,NaN
Raw,241146947009998,657951213000000,,,-1265581155230293570,-0.3098773956298828,33.61140261404216,31.451993607915533,12.565705278775186,203,25,0.0,81935,392706355038759,7,24.3,-462.2489013671875,0.05460000038146973,29,-22466.60110254212,0.08959753608771179,1.17645005E9,,,,0,,6,10.36,1.17645005E9,410.0,NaN,NaN
Raw,241146947009998,657951213000000,,,-1265581155230293570,-0.3098773956298828,33.61140261404216,31.451993607915533,12.565705278775186,203,31,0.0,81935,392706360171756,2,37.3,383.74383544921875,0.022099999710917473,25,18419.268902408887,0.0013505885638054542,1.17645005E9,,,,0,,6,10.36,1.17645005E9,410.0,NaN,NaN
Raw,241146947009998,657951213000000,,,-1265581155230293570,-0.3098773956298828,33.61140261404216,31.451993607915533,12.565705278775186,203,33,0.0,81935,392706352269430,11,19.4,-352.6820068359375,0.934499979019165,16,0.0,0.0,1.17645005E9,,,,0,,6,10.36,1.17645005E9,410.0,NaN,NaN
Fix,gps,51.524709,-0.134019,73.771667,0.000000,3.790092,1582203890000,241147919003168
Raw,241147936236034,657952213000000,,,-1265581155230293544,-0.292449951171875,34.268348827026784,31.110930351969664,10.527599028208392,203,10,0.0,16399,392707365318293,40,21.9,264.6509094238281,0.793999969959259,16,0.0,0.0,1.57542003E9,,,,0,,1,1.0,1.57542003E9,410.0,NaN,NaN
Raw,241147936236034,657952213000000,,,-1265581155230293544,-0.292449951171875,34.268348827026784,31.110930351969664,10.527599028208392,203,12,0.0,16399,392707374007061,21,26.3,-408.1513977050781,0.5975000262260437,16,0.0,0.0,1.57542003E9,,,,0,,1,1.0,1.57542003E9,410.0,NaN,NaN
Raw,241147936236034,657952213000000,,,-1265581155230293544,-0.292449951171875,34.268348827026784,31.110930351969664,10.527599028208392,203,15,0.0,16399,392707366004547,8,36.7,691.6176147460938,0.028600001707673073,25,38225.315406774,0.001160791358090767,1.57542003E9,,,,0,,1,1.0,1.57542003E9,410.0,NaN,NaN
Raw,241147936236034,657952213000000,,,-1265581155230293544,-0.292449951171875,34.268348827026784,31.110930351969664,10.527599028208392,203,17,0.0,16399,392707366178295,10,34.2,290.81634521484375,0.029600001871585846,25,15865.779821434502,0.0015223494237726067,1.57542003E9,,,,0,,1,1.0,1.57542003E9,410.0,NaN,NaN
Raw,241147936236034,657952213000000,,,-1265581155230293544,-0.292449951171875,34.268348827026784,31.110930351969664,10.527599028208392,203,19,0.0,16399,392707370066843,13,31.9,-33.51066589355469,0.03710000216960907,25,-2194.477324128772,0.002074201012354331,1.57542003E9,,,,0,,1,1.0,1.57542003E9,410.0,NaN,NaN
Raw,241147936236034,657952213000000,,,-1265581155230293544,-0.292449951171875,34.268348827026784,31.110930351969664,10.527599028208392,203,20,0.0,16399,392707362494398,46,20.6,556.8754272460938,0.9194999933242798,16,0.0,0.0,1.57542003E9,,,,0,,1,1.0,1.57542003E9,410.0,NaN,NaN
Raw,241147936236034,657952213000000,,,-1265581155230293544,-0.292449951171875,34.268348827026784,31.110930351969664,10.527599028208392,203,24,0.0,16399,392707376270928,6,38.9,66.91555786132812,0.04310000315308571,25,3460.38611287752,9.324389888310735E-4,1.57542003E9,,,,0,,1,1.0,1.57542003E9,410.0,NaN,NaN
Raw,241147936236034,657952213000000,,,-1265581155230293544,-0.292449951171875,34.268348827026784,31.110930351969664,10.527599028208392,203,25,0.0,16399,392707364940683,14,30.6,-682.313232421875,0.02890000119805336,25,-37916.88702421165,0.002397700231676362,1.57542003E9,,,,0,,1,1.0,1.57542003E9,410.0,NaN,NaN
Raw,241147936236034,657952213000000,,,-1265581155230293544,-0.292449951171875,34.268348827026784,31.110930351969664,10.527599028208392,203,32,0.0,16399,392707364290288,31,23.6,-604.3475341796875,0.11720000207424164,19,-25171.29507062689,0.19029366893311156,1.57542003E9,,,,0,,1,1.0,1.57542003E9,410.0,NaN,NaN
Raw,241147936236034,657952213000000,,,-1265581155230293544,-0.292449951171875,34.268348827026784,31.110930351969664,10.527599028208392,203,14,0.0,49359,57889368181479,31,23.8,649.2503051757812,0.323199987411499,19,35261.5648211967,0.18759745926927673,1.59806246E9,,,,0,,3,-0.6,1.59806246E9,410.0,NaN,NaN
Raw,241147936236034,657952213000000,,,-1265581155230293544,-0.292449951171875,34.268348827026784,31.110930351969664,10.527599028208392,203,6,0.0,49359,57889375141306,35,22.5,-110.18276977539062,0.6043000221252441,19,-6454.3123473498645,0.1873995655581228,1.59975002E9,,,,0,,3,-0.6,1.59975002E9,410.0,NaN,NaN
Raw,241147936236034,657952213000000,,,-1265581155230293544,-0.292449951171875,34.268348827026784,31.110930351969664,10.527599028208392,203,16,0.0,49359,57889373941187,31,23.7,-470.4921569824219,0.33070001006126404,21,-24923.3921243461,0.18720210387987432,1.60143744E9,,,,0,,3,-0.6,1.60143744E9,410.0,NaN,NaN
Raw,241147936236034,657952213000000,,,-1265581155230293544,-0.292449951171875,34.268348827026784,31.110930351969664,10.527599028208392,203,15,0.0,49359,57889378418758,6,39.9,190.77883911132812,0.24580000340938568,25,10271.143375744483,8.234000050264612E-4,1.602E9,,,,0,,3,-0.6,1.602E9,410.0,NaN,NaN
Raw,241147936236034,657952213000000,,,-1265581155230293544,-0.292449951171875,34.268348827026784,31.110930351969664,10.527599028208392,203,5,0.0,49359,57889372390798,11,33.1,699.5274047851562,0.23919999599456787,25,37212.25801275168,0.0016275148854291823,1.60256256E9,,,,0,,3,-0.6,1.60256256E9,410.0,NaN,NaN
Raw,241147936236034,657952213000000,,,-1265581155230293544,-0.292449951171875,34.268348827026784,31.110930351969664,10.527599028208392,203,23,0.0,49359,57889366273676,53,19.9,482.61224365234375,1.125499963760376,16,0.0,0.0,1.60368755E9,,,,0,,3,-0.6,1.60368755E9,410.0,NaN,NaN
Raw,241147936236034,657952213000000,,,-1265581155230293544,-0.292449951171875,34.268348827026784,31.110930351969664,10.527599028208392,203,17,0.0,49359,57889368720239,11,33.1,-650.8274536132812,0.23319999873638153,25,-36122.111197704166,0.0016258029903346391,1.60424998E9,,,,0,,3,-0.6,1.60424998E9,410.0,NaN,NaN
Raw,241147936236034,657952213000000,,,-1265581155230293544,-0.292449951171875,34.268348827026784,31.110930351969664,10.527599028208392,203,7,0.0,49359,57889365071898,40,21.0,-702.184814453125,0.9939999580383301,16,0.0,0.0,1.60481254E9,,,,0,,3,-0.6,1.60481254E9,410.0,NaN,NaN
Raw,241147936236034,657952213000000,,,-1265581155230293544,-0.292449951171875,34.268348827026784,31.110930351969664,10.527599028208392,203,36,0.0,16399,392693370484048,27,24.6,-26.67165184020996,0.056300003081560135,21,-1690.4710247498188,0.1920394882785269,1.56109798E9,,,,0,,5,1.63,1.56109798E9,410.0,NaN,NaN
Raw,241147936236034,657952213000000,,,-1265581155230293544,-0.292449951171875,34.268348827026784,31.110930351969664,10.527599028208392,203,30,0.0,16399,392693361219914,21,26.8,-537.3270263671875,0.028200000524520874,17,-29970.72561705585,0.005492329335005111,1.56109798E9,,,,0,,5,1.63,1.56109798E9,410.0,NaN,NaN
Raw,241147936236034,657952213000000,,,-1265581155230293544,-0.292449951171875,34.268348827026784,31.110930351969664,10.527599028208392,203,27,0.0,16399,392693362738635,13,31.5,-76.34728240966797,0.025100000202655792,17,-4367.6823150298,0.0020932304434118673,1.56109798E9,,,,0,,5,1.63,1.56109798E9,410.0,NaN,NaN
Raw,241147936236034,657952213000000,,,-1265581155230293544,-0.292449951171875,34.268348827026784,31.110930351969664,10.527599028208392,203,22,0.0,16399,392693362701700,21,26.6,460.3087158203125,0.02970000170171261,21,24110.059378814345,0.005492329335005111,1.56109798E9,,,,0,,5,1.63,1.56109798E9,410.0,NaN,NaN
Raw,241147936236034,657952213000000,,,-1265581155230293544,-0.292449951171875,34.268348827026784,31.110930351969664,10.527599028208392,203,21,0.0,16399,392693362797746,19,27.3,-89.31378173828125,0.028800001367926598,21,-5055.1020525499,0.0032646714781548623,1.56109798E9,,,,0,,5,1.63,1.56109798E9,410.0,NaN,NaN
Raw,241147936236034,657952213000000,,,-1265581155230293544,-0.292449951171875,34.268348827026784,31.110930351969664,10.527599028208392,203,8,0.0,16399,392693307743101,53,19.5,-321.09002685546875,1.0069999694824219,16,0.0,0.0,1.56109798E9,,,,0,,5,1.63,1.56109798E9,410.0,NaN,NaN
Raw,241147936236034,657952213000000,,,-1265581155230293544,-0.292449951171875,34.268348827026784,31.110930351969664,10.527599028208392,203,3,0.0,23567,392707357122354,11,33.4,-323.5942687988281,0.04670000076293945,25,-8335.544812396598,0.003596550258902148,1.57542003E9,,,,0,,6,0.93,1.57542003E9,410.0,NaN,NaN
Raw,241147936236034,657952213000000,,,-1265581155230293544,-0.292449951171875,34.268348827026784,31.110930351969664,10.527599028208392,203,5,0.0,23567,392707362347817,17,28.6,213.98350524902344,0.05220000073313713,25,11621.259781052371,0.006565131413727744,1.57542003E9,,,,0,,6,0.93,1.57542003E9,410.0,NaN,NaN
Raw,241147936236034,657952213000000,,,-1265581155230293544,-0.292449951171875,34.268348827026784,31.110930351969664,10.527599028208392,203,9,0.0,23567,392707361333435,14,30.2,597.1015625,0.04840000346302986,25,32959.31149631783,0.005233075867304602,1.57542003E9,,,,0,,6,0.93,1.57542003E9,410.0,NaN,NaN
Raw,241147936236034,657952213000000,,,-1265581155230293544,-0.292449951171875,34.268348827026784,31.110930351969664,10.527599028208392,203,24,0.0,23567,392707371173075,12,32.2,-81.00897216796875,0.05010000243782997,25,-204.04481439814978,0.003958108324583987,1.57542003E9,,,,0,,6,0.93,1.57542003E9,410.0,NaN,NaN
Raw,241147936236034,657952213000000,,,-1265581155230293544,-0.292449951171875,34.268348827026784,31.110930351969664,10.527599028208392,203,25,0.0,23567,392707355033137,13,31.0,-462.2964172363281,0.05060000345110893,25,-1646.5047601352207,0.004528989424958011,1.57542003E9,,,,0,,6,0.93,1.57542003E9,410.0,NaN,NaN
Raw,241147936236034,657952213000000,,,-1265581155230293544,-0.292449951171875,34.268348827026784,31.110930351969664,10.527599028208392,203,31,0.0,23567,392707360163390,6,39.1,383.84735107421875,0.04280000180006027,25,21115.51295461467,0.0018458486430946374,1.57542003E9,,,,0,,6,0.93,1.57542003E9,410.0,NaN,NaN
Raw,241147936236034,657952213000000,,,-1265581155230293544,-0.292449951171875,34.268348827026784,31.110930351969664,10.527599028208392,203,33,0.0,23567,392707352263456,31,23.7,-352.2525939941406,0.6904999613761902,16,0.0,0.0,1.57542003E9,,,,0,,6,0.93,1.57542003E9,410.0,NaN,NaN
Raw,241147936236034,657952213000000,,,-1265581155230293544,-0.292449951171875,34.268348827026784,31.110930351969664,10.527599028208392,203,24,0.0,81935,392707376278779,2,37.7,66.91481018066406,0.04610000178217888,25,3094.4995492201497,0.0013505885638054542,1.17645005E9,,,,0,,1,11.0,1.17645005E9,410.0,NaN,NaN
Raw,241147936236034,657952213000000,,,-1265581155230293544,-0.292449951171875,34.268348827026784,31.110930351969664,10.527599028208392,203,25,0.0,81935,392707364948471,6,25.9,-682.2974243164062,0.060499999672174454,25,-33820.21870178246,0.25482803839368795,1.17645005E9,,,,0,,1,11.0,1.17645005E9,410.0,NaN,NaN
Raw,241147936236034,657952213000000,,,-1265581155230293544,-0.292449951171875,34.268348827026784,31.110930351969664,10.527599028208392,203,32,0.0,81935,392707364298215,8,22.0,-604.4014892578125,0.04270000010728836,27,-28121.64976568291,0.25482803839368795,1.17645005E9,,,,0,,1,11.0,1.17645005E9,410.0,NaN,NaN
Raw,241147936236034,657952213000000,,,-1265581155230293544,-0.292449951171875,34.268348827026784,31.110930351969664,10.527599028208392,203,3,0.0,81935,392707357129463,2,34.3,-323.7306823730469,0.05000000074505806,25,-16155.468260740125,0.0020386244039789624,1.17645005E9,,,,0,,6,11.0,1.17645005E9,410.0,NaN,NaN
Raw,241147936236034,657952213000000,,,-1265581155230293544,-0.292449951171875,34.268348827026784,31.110930351969664,10.527599028208392,203,5,0.0,81935,392707362354936,6,25.6,213.9950714111328,0.033399999141693115,25,10358.32727790211,0.02346966281299121,1.17645005E9,,,,0,,6,11.0,1.17645005E9,410.0,NaN,NaN
Raw,241147936236034,657952213000000,,,-1265581155230293544,-0.292449951171875,34.268348827026784,31.110930351969664,10.527599028208392,203,9,0.0,81935,392707361340495,3,32.6,597.0123291015625,0.02810000069439411,25,29344.3681003787,0.0024208662868967453,1.17645005E9,,,,0,,6,11.0,1.17645005E9,410.0,NaN,NaN
Raw,241147936236034,657952213000000,,,-1265581155230293544,-0.292449951171875,34.268348827026784,31.110930351969664,10.527599028208392,203,24,0.0,81935,392707371180137,4,30.6,-81.1600570678711,0.04570000246167183,25,-4166.300345519504,0.0032108332879374254,1.17645005E9,,,,0,,6,11.0,1.17645005E9,410.0,NaN,NaN
Raw,241147936236034,657952213000000,,,-1265581155230293544,-0.292449951171875,34.268348827026784,31.110930351969664,10.527599028208392,203,25,0.0,81935,392707355040304,8,23.6,-462.3416748046875,0.05290000140666962,25,-22928.840890480024,0.02346966281299121,1.17645005E9,,,,0,,6,11.0,1.17645005E9,410.0,NaN,NaN
Raw,241147936236034,657952213000000,,,-1265581155230293544,-0.292449951171875,34.268348827026784,31.110930351969664,10.527599028208392,203,31,0.0,81935,392707360170476,2,38.4,383.690185546875,0.0215000007301569,25,18803.16014739,0.0012486574029382824,1.17645005E9,,,,0,,6,11.0,1.17645005E9,410.0,NaN,NaN
Raw,241147936236034,657952213000000,,,-1265581155230293544,-0.292449951171875,34.268348827026784,31.110930351969664,10.527599028208392,203,33,0.0,81935,392707352270599,9,21.1,-352.0662841796875,0.06340000033378601,27,-16154.075426738913,0.25482803839368795,1.17645005E9,,,,0,,6,11.0,1.17645005E9,410.0,NaN,NaN
Fix,gps,51.524709,-0.134019,73.781860,0.000000,3.790092,1582203891000,241148910590506
Raw,241148932647227,657953213000000,,,-1265581155230293516,-0.6656970977783203,37.32120603672229,30.227636483089576,11.503353598162906,203,10,0.0,16399,392708365317442,35,22.9,264.567626953125,0.38929998874664307,19,1439.8354910214064,0.19029366893311156,1.57542003E9,,,,0,,1,1.0,1.57542003E9,410.0,NaN,NaN
Raw,241148932647227,657953213000000,,,-1265581155230293516,-0.6656970977783203,37.32120603672229,30.227636483089576,11.503353598162906,203,12,0.0,16399,392708374008358,27,24.8,-408.307861328125,0.062300004065036774,19,-23335.985047260932,0.19029366893311156,1.57542003E9,,,,0,,1,1.0,1.57542003E9,410.0,NaN,NaN
Raw,241148932647227,657953213000000,,,-1265581155230293516,-0.6656970977783203,37.32120603672229,30.227636483089576,11.503353598162906,203,15,0.0,16399,392708366002211,7,37.5,691.3040161132812,0.028400002047419548,25,38916.87042909398,0.0010085564157135064,1.57542003E9,,,,0,,1,1.0,1.57542003E9,410.0,NaN,NaN
Raw,241148932647227,657953213000000,,,-1265581155230293516,-0.6656970977783203,37.32120603672229,30.227636483089576,11.503353598162906,203,17,0.0,16399,392708366177279,7,37.7,290.5732421875,0.028400002047419548,25,16156.55733745488,0.0010085564157135064,1.57542003E9,,,,0,,1,1.0,1.57542003E9,410.0,NaN,NaN
Raw,241148932647227,657953213000000,,,-1265581155230293516,-0.6656970977783203,37.32120603672229,30.227636483089576,11.503353598162906,203,19,0.0,16399,392708370066962,12,32.2,-33.695281982421875,0.03660000115633011,25,-2228.0054745865696,0.001807789796734829,1.57542003E9,,,,0,,1,1.0,1.57542003E9,410.0,NaN,NaN
Raw,241148932647227,657953213000000,,,-1265581155230293516,-0.6656970977783203,37.32120603672229,30.227636483089576,11.503353598162906,203,20,0.0,16399,392708362492657,35,22.2,556.4948120117188,0.7744999527931213,16,0.0,0.0,1.57542003E9,,,,0,,1,1.0,1.57542003E9,410.0,NaN,NaN
Raw,241148932647227,657953213000000,,,-1265581155230293516,-0.6656970977783203,37.32120603672229,30.227636483089576,11.503353598162906,203,24,0.0,16399,392708376270700,6,38.9,66.67200469970703,0.04310000315308571,25,3527.263873389512,9.324389888310735E-4,1.57542003E9,,,,0,,1,1.0,1.57542003E9,410.0,NaN,NaN
Raw,241148932647227,657953213000000,,,-1265581155230293516,-0.6656970977783203,37.32120603672229,30.227636483089576,11.503353598162906,203,25,0.0,16399,392708364942956,13,31.0,-682.6341552734375,0.02810000069439411,25,-38599.27148425236,0.002074201012354331,1.57542003E9,,,,0,,1,1.0,1.57542003E9,410.0,NaN,NaN
Raw,241148932647227,657953213000000,,,-1265581155230293516,-0.6656970977783203,37.32120603672229,30.227636483089576,11.503353598162906,203,32,0.0,16399,392708364292240,35,22.1,-604.6771850585938,0.7774999737739563,16,0.0,0.0,1.57542003E9,,,,0,,1,1.0,1.57542003E9,410.0,NaN,NaN
Raw,241148932647227,657953213000000,,,-1265581155230293516,-0.6656970977783203,37.32120603672229,30.227636483089576,11.503353598162906,203,14,0.0,49359,57890368179394,40,21.9,648.927734375,0.9984999895095825,16,0.0,0.0,1.59806246E9,,,,0,,3,-0.63,1.59806246E9,410.0,NaN,NaN
Raw,241148932647227,657953213000000,,,-1265581155230293516,-0.6656970977783203,37.32120603672229,30.227636483089576,11.503353598162906,203,6,0.0,49359,57890375141765,35,22.2,-110.04103088378906,0.9489999413490295,16,0.0,0.0,1.59975002E9,,,,0,,3,-0.63,1.59975002E9,410.0,NaN,NaN
Raw,241148932647227,657953213000000,,,-1265581155230293516,-0.6656970977783203,37.32120603672229,30.227636483089576,11.503353598162906,203,16,0.0,49359,57890373942778,24,25.2,-470.7724914550781,0.25279998779296875,25,-25393.85550515231,0.18720210387987432,1.60143744E9,,,,0,,3,-0.63,1.60143744E9,410.0,NaN,NaN
Raw,241148932647227,657953213000000,,,-1265581155230293516,-0.6656970977783203,37.32120603672229,30.227636483089576,11.503353598162906,203,15,0.0,49359,57890378418127,5,40.0,190.5260009765625,0.24560000002384186,25,10461.878389163543,7.298318067930613E-4,1.602E9,,,,0,,3,-0.63,1.602E9,410.0,NaN,NaN
Raw,241148932647227,657953213000000,,,-1265581155230293516,-0.6656970977783203,37.32120603672229,30.227636483089576,11.503353598162906,203,5,0.0,49359,57890372388464,11,33.3,699.2840576171875,0.23919999599456787,25,37911.75301971561,0.0016275148854291823,1.60256256E9,,,,0,,3,-0.63,1.60256256E9,410.0,NaN,NaN
Raw,241148932647227,657953213000000,,,-1265581155230293516,-0.6656970977783203,37.32120603672229,30.227636483089576,11.503353598162906,203,23,0.0,49359,57890366271777,53,19.9,483.64971923828125,1.125499963760376,16,0.0,0.0,1.60368755E9,,,,0,,3,-0.63,1.60368755E9,410.0,NaN,NaN
Raw,241148932647227,657953213000000,,,-1265581155230293516,-0.6656970977783203,37.32120603672229,30.227636483089576,11.503353598162906,203,17,0.0,49359,57890368722353,12,32.5,-651.1189575195312,0.23360000550746918,25,-36772.99193824376,0.0017753020338638554,1.60424998E9,,,,0,,3,-0.63,1.60424998E9,410.0,NaN,NaN
Raw,241148932647227,657953213000000,,,-1265581155230293516,-0.6656970977783203,37.32120603672229,30.227636483089576,11.503353598162906,203,7,0.0,49359,57890365074244,46,20.5,-702.6144409179688,1.0540000200271606,16,0.0,0.0,1.60481254E9,,,,0,,3,-0.63,1.60481254E9,410.0,NaN,NaN
Raw,241148932647227,657953213000000,,,-1265581155230293516,-0.6656970977783203,37.32120603672229,30.227636483089576,11.503353598162906,203,36,0.0,16399,392694370484099,21,26.1,-26.930395126342773,0.04170000180602074,21,-1717.1520030428321,0.005492329335005111,1.56109798E9,,,,0,,5,1.58,1.56109798E9,410.0,NaN,NaN
Raw,241148932647227,657953213000000,,,-1265581155230293516,-0.6656970977783203,37.32120603672229,30.227636483089576,11.503353598162906,203,30,0.0,16399,392694361221701,19,27.7,-537.7015991210938,0.01230000052601099,21,-30508.146700002955,0.0032646714781548623,1.56109798E9,,,,0,,5,1.58,1.56109798E9,410.0,NaN,NaN
Raw,241148932647227,657953213000000,,,-1265581155230293516,-0.6656970977783203,37.32120603672229,30.227636483089576,11.503353598162906,203,27,0.0,16399,392694362738948,17,28.5,-76.62179565429688,0.013199999928474426,17,-4444.070923046873,0.003034223768286223,1.56109798E9,,,,0,,5,1.58,1.56109798E9,410.0,NaN,NaN
Raw,241148932647227,657953213000000,,,-1265581155230293516,-0.6656970977783203,37.32120603672229,30.227636483089576,11.503353598162906,203,22,0.0,16399,392694362700114,13,31.9,459.96923828125,0.010099999606609344,17,24570.27093253457,0.0020932304434118673,1.56109798E9,,,,0,,5,1.58,1.56109798E9,410.0,NaN,NaN
Raw,241148932647227,657953213000000,,,-1265581155230293516,-0.6656970977783203,37.32120603672229,30.227636483089576,11.503353598162906,203,21,0.0,16399,392694362798072,24,25.7,-89.59107208251953,0.021299999207258224,21,-5144.4285401140205,0.1920394882785269,1.56109798E9,,,,0,,5,1.58,1.56109798E9,410.0,NaN,NaN
Raw,241148932647227,657953213000000,,,-1265581155230293516,-0.6656970977783203,37.32120603672229,30.227636483089576,11.503353598162906,203,3,0.0,23567,392708357123443,12,32.9,-323.8115234375,0.0471000038087368,25,-8659.190087984001,0.003958108324583987,1.57542003E9,,,,0,,6,0.93,1.57542003E9,410.0,NaN,NaN
Raw,241148932647227,657953213000000,,,-1265581155230293516,-0.6656970977783203,37.32120603672229,30.227636483089576,11.503353598162906,203,5,0.0,23567,392708362347175,24,25.8,213.7613067626953,0.06030000001192093,25,11835.246109890626,0.017526047264890512,1.57542003E9,,,,0,,6,0.93,1.57542003E9,410.0,NaN,NaN
Raw,241148932647227,657953213000000,,,-1265581155230293516,-0.6656970977783203,37.32120603672229,30.227636483089576,11.503353598162906,203,9,0.0,23567,392708361331454,14,30.1,596.8858032226562,0.04840000346302986,25,33556.41031688165,0.005233075867304602,1.57542003E9,,,,0,,6,0.93,1.57542003E9,410.0,NaN,NaN
Raw,241148932647227,657953213000000,,,-1265581155230293516,-0.6656970977783203,37.32120603672229,30.227636483089576,11.503353598162906,203,24,0.0,23567,392708371173340,12,32.1,-81.21350860595703,0.05010000243782997,25,-285.0869048404517,0.003958108324583987,1.57542003E9,,,,0,,6,0.93,1.57542003E9,410.0,NaN,NaN
Raw,241148932647227,657953213000000,,,-1265581155230293516,-0.6656970977783203,37.32120603672229,30.227636483089576,11.503353598162906,203,25,0.0,23567,392708355034694,17,28.3,-462.55633544921875,0.053700003772974014,25,-2108.830231922459,0.006565131413727744,1.57542003E9,,,,0,,6,0.93,1.57542003E9,410.0,NaN,NaN
Raw,241148932647227,657953213000000,,,-1265581155230293516,-0.6656970977783203,37.32120603672229,30.227636483089576,11.503353598162906,203,31,0.0,23567,392708360162112,6,39.1,383.6034240722656,0.04280000180006027,25,21499.307550545873,0.0018458486430946374,1.57542003E9,,,,0,,6,0.93,1.57542003E9,410.0,NaN,NaN
Raw,241148932647227,657953213000000,,,-1265581155230293516,-0.6656970977783203,37.32120603672229,30.227636483089576,11.503353598162906,203,33,0.0,23567,392708352264630,31,23.3,-351.9957275390625,0.6904999613761902,16,0.0,0.0,1.57542003E9,,,,0,,6,0.93,1.57542003E9,410.0,NaN,NaN
Raw,241148932647227,657953213000000,,,-1265581155230293516,-0.6656970977783203,37.32120603672229,30.227636483089576,11.503353598162906,203,24,0.0,81935,392708376278555,2,37.3,66.67529296875,0.04610000178217888,25,3161.3691280117555,0.0013505885638054542,1.17645005E9,,,,0,,1,11.89,1.17645005E9,410.0,NaN,NaN
Raw,241148932647227,657953213000000,,,-1265581155230293516,-0.6656970977783203,37.32120603672229,30.227636483089576,11.503353598162906,203,25,0.0,81935,392708364950746,8,23.9,-683.1939697265625,0.67249995470047,16,0.0,0.0,1.17645005E9,,,,0,,1,11.89,1.17645005E9,410.0,NaN,NaN
Raw,241148932647227,657953213000000,,,-1265581155230293516,-0.6656970977783203,37.32120603672229,30.227636483089576,11.503353598162906,203,32,0.0,81935,392708364300230,9,21.4,-604.32470703125,0.7774999737739563,16,0.0,0.0,1.17645005E9,,,,0,,1,11.89,1.17645005E9,410.0,NaN,NaN
Raw,241148932647227,657953213000000,,,-1265581155230293516,-0.6656970977783203,37.32120603672229,30.227636483089576,11.503353598162906,203,3,0.0,81935,392708357130544,3,33.1,-324.0184020996094,0.05100000277161598,25,-16479.126176304955,0.0022170039651624013,1.17645005E9,,,,0,,6,11.89,1.17645005E9,410.0,NaN,NaN
Raw,241148932647227,657953213000000,,,-1265581155230293516,-0.6656970977783203,37.32120603672229,30.227636483089576,11.503353598162906,203,5,0.0,81935,392708362354215,6,26.0,213.57545471191406,0.03009999915957451,25,10572.3146383707,0.007288081858568245,1.17645005E9,,,,0,,6,11.89,1.17645005E9,410.0,NaN,NaN
Raw,241148932647227,657953213000000,,,-1265581155230293516,-0.6656970977783203,37.32120603672229,30.227636483089576,11.503353598162906,203,9,0.0,81935,392708361338505,3,32.1,596.6041259765625,0.013100000098347664,25,29941.43793477249,0.0024208662868967453,1.17645005E9,,,,0,,6,11.89,1.17645005E9,410.0,NaN,NaN
Raw,241148932647227,657953213000000,,,-1265581155230293516,-0.6656970977783203,37.32120603672229,30.227636483089576,11.503353598162906,203,24,0.0,81935,392708371180409,4,30.0,-81.44255828857422,0.04570000246167183,25,-4247.346109405754,0.0032108332879374254,1.17645005E9,,,,0,,6,11.89,1.17645005E9,410.0,NaN,NaN
Raw,241148932647227,657953213000000,,,-1265581155230293516,-0.6656970977783203,37.32120603672229,30.227636483089576,11.503353598162906,203,25,0.0,81935,392708355041843,8,23.3,-462.67608642578125,0.056700002402067184,25,-23391.166059181323,0.34557229348499413,1.17645005E9,,,,0,,6,11.89,1.17645005E9,410.0,NaN,NaN
Raw,241148932647227,657953213000000,,,-1265581155230293516,-0.6656970977783203,37.32120603672229,30.227636483089576,11.503353598162906,203,31,0.0,81935,392708360169197,2,37.2,383.3337097167969,0.0071000000461936,25,19186.9332191134,0.0013505885638054542,1.17645005E9,,,,0,,6,11.89,1.17645005E9,410.0,NaN,NaN
