# 
# Header Description:
# 
# Version: v2.0.0.1 Platform: 10 Manufacturer: Google Model: Pixel 4
# 
# Raw,ElapsedRealtimeNanos,TimeNanos,LeapSecond,TimeUncertaintyNanos,FullBiasNanos,BiasNanos,BiasUncertaintyNanos,DriftNanosPerSecond,DriftUncertaintyNanosPerSecond,HardwareClockDiscontinuityCount,Svid,TimeOffsetNanos,State,ReceivedSvTimeNanos,ReceivedSvTimeUncertaintyNanos,Cn0DbHz,PseudorangeRateMetersPerSecond,PseudorangeRateUncertaintyMetersPerSecond,AccumulatedDeltaRangeState,AccumulatedDeltaRangeMeters,AccumulatedDeltaRangeUncertaintyMeters,CarrierFrequencyHz,CarrierCycles,CarrierPhase,CarrierPhaseUncertainty,MultipathIndicator,SnrInDb,ConstellationType,AgcDb,CarrierFrequencyHz,UserLatitude,UserLongitude,UserAltitude
# 
# Fix,Provider,Latitude,Longitude,Altitude,Speed,Accuracy,(UTC)TimeInMs,ElapsedRealtimeNanos
# 
# Nav,Svid,Type,Status,MessageId,Sub-messageId,Data(Bytes)
# 
Fix,gps,51.524614,-0.134181,76.761780,0.190000,3.790092,1582194847000,232104898734876
Raw,232104910572013,648909169000000,,,-1265581155274918851,0.24281835556030273,37.303547287592664,28.981173789401353,17.10156346361097,77,5,0.0,16399,383664364014988,46,20.4,723.9818115234375,0.9074999690055847,16,0.0,0.0,1.57542003E9,,,,0,,1,-2.14,1.57542003E9,304.0,NaN,NaN
Raw,232104910572013,648909169000000,,,-1265581155274918851,0.24281835556030273,37.303547287592664,28.981173789401353,17.10156346361097,77,13,0.0,16399,383664376260928,8,36.8,185.07798767089844,0.04360000044107437,25,10786.363675911996,0.001160791358090767,1.57542003E9,,,,0,,1,-2.14,1.57542003E9,304.0,NaN,NaN
Raw,232104910572013,648909169000000,,,-1265581155274918851,0.24281835556030273,37.303547287592664,28.981173789401353,17.10156346361097,77,15,0.0,16399,383664376024072,9,35.1,-155.22471618652344,0.04410000145435333,25,-9160.078333775196,0.0013320557236479321,1.57542003E9,,,,0,,1,-2.14,1.57542003E9,304.0,NaN,NaN
Raw,232104910572013,648909169000000,,,-1265581155274918851,0.24281835556030273,37.303547287592664,28.981173789401353,17.10156346361097,77,17,0.0,16399,383664360629860,61,18.9,-545.0486450195312,0.9815000295639038,16,0.0,0.0,1.57542003E9,,,,0,,1,-2.14,1.57542003E9,304.0,NaN,NaN
Raw,232104910572013,648909169000000,,,-1265581155274918851,0.24281835556030273,37.303547287592664,28.981173789401353,17.10156346361097,77,20,0.0,16399,383664366724667,17,28.2,-400.1961364746094,0.03420000150799751,21,-23500.768614528213,0.0030066398239606148,1.57542003E9,,,,0,,1,-2.14,1.57542003E9,304.0,NaN,NaN
Raw,232104910572013,648909169000000,,,-1265581155274918851,0.24281835556030273,37.303547287592664,28.981173789401353,17.10156346361097,77,24,0.0,16399,383664367453243,31,23.4,-600.8446655273438,0.12170000374317169,21,-22425.148060913125,0.19029366893311156,1.57542003E9,,,,0,,1,-2.14,1.57542003E9,304.0,NaN,NaN
Raw,232104910572013,648909169000000,,,-1265581155274918851,0.24281835556030273,37.303547287592664,28.981173789401353,17.10156346361097,77,28,0.0,16399,383664372596032,5,41.5,142.9585418701172,0.03629999980330467,25,8285.72152969571,6.850571963914755E-4,1.57542003E9,,,,0,,1,-2.14,1.57542003E9,304.0,NaN,NaN
Raw,232104910572013,648909169000000,,,-1265581155274918851,0.24281835556030273,37.303547287592664,28.981173789401353,17.10156346361097,77,30,0.0,16399,383664366808651,27,24.5,582.1845092773438,0.6754999756813049,16,0.0,0.0,1.57542003E9,,,,0,,1,-2.14,1.57542003E9,304.0,NaN,NaN
Raw,232104910572013,648909169000000,,,-1265581155274918851,0.24281835556030273,37.303547287592664,28.981173789401353,17.10156346361097,77,14,0.0,49359,48846379967128,6,39.2,-88.31051635742188,0.20229999721050262,25,-5206.863209081766,8.254288163121457E-4,1.59806246E9,,,,0,,3,-3.75,1.59806246E9,304.0,NaN,NaN
Raw,232104910572013,648909169000000,,,-1265581155274918851,0.24281835556030273,37.303547287592664,28.981173789401353,17.10156346361097,77,22,0.0,49359,48846366094291,19,27.9,-231.4649200439453,0.23480001091957092,29,-13524.74216195926,0.0031846731363860867,1.60031245E9,,,,0,,3,-3.75,1.60031245E9,304.0,NaN,NaN
Raw,232104910572013,648909169000000,,,-1265581155274918851,0.24281835556030273,37.303547287592664,28.981173789401353,17.10156346361097,77,13,0.0,49359,48846373892284,19,27.7,617.8250732421875,0.24530000984668732,25,35658.597682443855,0.0031835540173351597,1.60087501E9,,,,0,,3,-3.75,1.60087501E9,304.0,NaN,NaN
Raw,232104910572013,648909169000000,,,-1265581155274918851,0.24281835556030273,37.303547287592664,28.981173789401353,17.10156346361097,77,15,0.0,49359,48846370914952,27,24.7,-686.313232421875,0.8314999938011169,16,0.0,0.0,1.602E9,,,,0,,3,-3.75,1.602E9,304.0,NaN,NaN
Raw,232104910572013,648909169000000,,,-1265581155274918851,0.24281835556030273,37.303547287592664,28.981173789401353,17.10156346361097,77,5,0.0,49359,48846373968778,21,26.9,-596.7691040039062,0.24620001018047333,29,-34472.02516643577,0.005350221243369457,1.60256256E9,,,,0,,3,-3.75,1.60256256E9,304.0,NaN,NaN
Raw,232104910572013,648909169000000,,,-1265581155274918851,0.24281835556030273,37.303547287592664,28.981173789401353,17.10156346361097,77,3,0.0,49359,48846370838768,5,41.9,748.55859375,0.23330000042915344,25,43205.012565258476,6.725102157856068E-4,1.60481254E9,,,,0,,3,-3.75,1.60481254E9,304.0,NaN,NaN
Raw,232104910572013,648909169000000,,,-1265581155274918851,0.24281835556030273,37.303547287592664,28.981173789401353,17.10156346361097,77,4,0.0,49359,48846379752765,6,38.9,140.023193359375,0.20260000228881836,25,7942.825235627905,9.150404631835356E-4,1.60537498E9,,,,0,,3,-3.75,1.60537498E9,304.0,NaN,NaN
Raw,232104910572013,648909169000000,,,-1265581155274918851,0.24281835556030273,37.303547287592664,28.981173789401353,17.10156346361097,77,37,0.0,16399,383650365084009,7,37.8,464.87176513671875,0.026900000870227814,17,27003.540457129468,0.0010178092579723537,1.56109798E9,,,,0,,5,-1.86,1.56109798E9,304.0,NaN,NaN
Raw,232104910572013,648909169000000,,,-1265581155274918851,0.24281835556030273,37.303547287592664,28.981173789401353,17.10156346361097,77,22,0.0,16399,383650363372227,14,30.0,-432.2568359375,0.012400000356137753,17,-25082.867456141244,0.0024196975554572116,1.56109798E9,,,,0,,5,-1.86,1.56109798E9,304.0,NaN,NaN
Raw,232104910572013,648909169000000,,,-1265581155274918851,0.24281835556030273,37.303547287592664,28.981173789401353,17.10156346361097,77,20,0.0,16399,383650361942420,6,38.8,625.1842041015625,0.005600000265985727,25,36300.885391959455,9.409935037250662E-4,1.56109798E9,,,,0,,5,-1.86,1.56109798E9,304.0,NaN,NaN
Raw,232104910572013,648909169000000,,,-1265581155274918851,0.24281835556030273,37.303547287592664,28.981173789401353,17.10156346361097,77,19,0.0,16399,383650370678171,13,31.0,158.77774047851562,0.03710000216960907,25,9153.617777787538,0.0020932304434118673,1.56109798E9,,,,0,,5,-1.86,1.56109798E9,304.0,NaN,NaN
Raw,232104910572013,648909169000000,,,-1265581155274918851,0.24281835556030273,37.303547287592664,28.981173789401353,17.10156346361097,77,10,0.0,16399,383650311795287,11,33.3,169.8218231201172,0.037700001150369644,21,9939.458269972623,0.0016707435714883973,1.56109798E9,,,,0,,5,-1.86,1.56109798E9,304.0,NaN,NaN
Raw,232104910572013,648909169000000,,,-1265581155274918851,0.24281835556030273,37.303547287592664,28.981173789401353,17.10156346361097,77,1,0.0,23567,383664360092713,8,36.7,368.7947998046875,0.04360000044107437,25,21604.95451265857,0.0025499350854412276,1.57542003E9,,,,0,,6,-2.02,1.57542003E9,304.0,NaN,NaN
Raw,232104910572013,648909169000000,,,-1265581155274918851,0.24281835556030273,37.303547287592664,28.981173789401353,17.10156346361097,77,4,0.0,23567,383664358285679,10,34.7,488.84124755859375,0.047600001096725464,25,28423.51617146936,0.003311109885939926,1.57542003E9,,,,0,,6,-2.02,1.57542003E9,304.0,NaN,NaN
Raw,232104910572013,648909169000000,,,-1265581155274918851,0.24281835556030273,37.303547287592664,28.981173789401353,17.10156346361097,77,5,0.0,23567,383664358133291,24,25.6,-434.0095520019531,0.06030000001192093,21,-7603.845100669932,0.017526047264890512,1.57542003E9,,,,0,,6,-2.02,1.57542003E9,304.0,NaN,NaN
Raw,232104910572013,648909169000000,,,-1265581155274918851,0.24281835556030273,37.303547287592664,28.981173789401353,17.10156346361097,77,9,0.0,23567,383664372265330,8,36.2,30.860612869262695,0.04360000044107437,25,1784.8867382166086,0.0025499350854412276,1.57542003E9,,,,0,,6,-2.02,1.57542003E9,304.0,NaN,NaN
Raw,232104910572013,648909169000000,,,-1265581155274918851,0.24281835556030273,37.303547287592664,28.981173789401353,17.10156346361097,77,24,0.0,23567,383664361250446,19,27.1,-562.3295288085938,0.05130000039935112,21,-7602.837674957497,0.007212130206821385,1.57542003E9,,,,0,,6,-2.02,1.57542003E9,304.0,NaN,NaN
Raw,232104910572013,648909169000000,,,-1265581155274918851,0.24281835556030273,37.303547287592664,28.981173789401353,17.10156346361097,77,31,0.0,23567,383664364898316,8,36.2,-175.7287139892578,0.04360000044107437,25,-10313.638079036662,0.0025499350854412276,1.57542003E9,,,,0,,6,-2.02,1.57542003E9,304.0,NaN,NaN
Raw,232104910572013,648909169000000,,,-1265581155274918851,0.24281835556030273,37.303547287592664,28.981173789401353,17.10156346361097,77,1,0.0,81935,383664360099810,9,21.7,368.4550476074219,0.030399998649954796,29,19339.215869121163,0.34557229348499413,1.17645005E9,,,,0,,6,-1.63,1.17645005E9,304.0,NaN,NaN
Raw,232104910572013,648909169000000,,,-1265581155274918851,0.24281835556030273,37.303547287592664,28.981173789401353,17.10156346361097,77,4,0.0,81935,383664358292753,7,24.1,488.3699645996094,0.10209999978542328,29,25646.84028315412,0.0411037634920868,1.17645005E9,,,,0,,6,-1.63,1.17645005E9,304.0,NaN,NaN
Raw,232104910572013,648909169000000,,,-1265581155274918851,0.24281835556030273,37.303547287592664,28.981173789401353,17.10156346361097,77,9,0.0,81935,383664372272427,6,26.6,30.28586196899414,0.060100000351667404,25,1591.5358112768083,0.007288081858568245,1.17645005E9,,,,0,,6,-1.63,1.17645005E9,304.0,NaN,NaN
Raw,232104910572013,648909169000000,,,-1265581155274918851,0.24281835556030273,37.303547287592664,28.981173789401353,17.10156346361097,77,31,0.0,81935,383664364905406,8,23.1,-175.99766540527344,0.04020000249147415,29,-9212.561856875482,0.34557229348499413,1.17645005E9,,,,0,,6,-1.63,1.17645005E9,304.0,NaN,NaN
Fix,gps,51.524612,-0.134184,77.431641,0.200000,3.790092,1582194848000,232105907744196
Raw,232105928145135,648910169000000,,,-1265581155274918832,0.5398221015930176,31.688978197053075,22.343861423083396,10.79460671979661,77,5,0.0,16399,383665364012640,31,23.1,724.8513793945312,0.11720000207424164,19,30823.131156780677,0.19029366893311156,1.57542003E9,,,,0,,1,0.73,1.57542003E9,304.0,NaN,NaN
Raw,232105928145135,648910169000000,,,-1265581155274918832,0.5398221015930176,31.688978197053075,22.343861423083396,10.79460671979661,77,13,0.0,16399,383665376260321,9,35.5,184.8587646484375,0.04410000145435333,25,10970.368338180875,0.0013320557236479321,1.57542003E9,,,,0,,1,0.73,1.57542003E9,304.0,NaN,NaN
Raw,232105928145135,648910169000000,,,-1265581155274918832,0.5398221015930176,31.688978197053075,22.343861423083396,10.79460671979661,77,15,0.0,16399,383665376024602,6,38.1,-155.5208282470703,0.04310000315308571,25,-9316.391266174756,9.324389888310735E-4,1.57542003E9,,,,0,,1,0.73,1.57542003E9,304.0,NaN,NaN
Raw,232105928145135,648910169000000,,,-1265581155274918832,0.5398221015930176,31.688978197053075,22.343861423083396,10.79460671979661,77,20,0.0,16399,383665366726115,21,26.8,-400.7013854980469,0.5354999899864197,16,0.0,0.0,1.57542003E9,,,,0,,1,0.73,1.57542003E9,304.0,NaN,NaN
Raw,232105928145135,648910169000000,,,-1265581155274918832,0.5398221015930176,31.688978197053075,22.343861423083396,10.79460671979661,77,24,0.0,16399,383665367455231,40,21.9,-601.0806274414062,0.796999990940094,16,0.0,0.0,1.57542003E9,,,,0,,1,0.73,1.57542003E9,304.0,NaN,NaN
Raw,232105928145135,648910169000000,,,-1265581155274918832,0.5398221015930176,31.688978197053075,22.343861423083396,10.79460671979661,77,28,0.0,16399,383665372595549,4,43.5,142.84378051757812,0.036000002175569534,25,8427.72169212507,5.137929194467054E-4,1.57542003E9,,,,0,,1,0.73,1.57542003E9,304.0,NaN,NaN
Raw,232105928145135,648910169000000,,,-1265581155274918832,0.5398221015930176,31.688978197053075,22.343861423083396,10.79460671979661,77,30,0.0,16399,383665366806592,17,28.1,582.4559936523438,0.03420000150799751,19,8438.16221977486,0.0030066398239606148,1.57542003E9,,,,0,,1,0.73,1.57542003E9,304.0,NaN,NaN
Raw,232105928145135,648910169000000,,,-1265581155274918832,0.5398221015930176,31.688978197053075,22.343861423083396,10.79460671979661,77,14,0.0,49359,48847379967450,6,39.6,-88.33096313476562,0.21729999780654907,25,-5296.075654865923,8.254288163121457E-4,1.59806246E9,,,,0,,3,-0.9,1.59806246E9,304.0,NaN,NaN
Raw,232105928145135,648910169000000,,,-1265581155274918832,0.5398221015930176,31.688978197053075,22.343861423083396,10.79460671979661,77,22,0.0,49359,48847366095081,19,27.2,-231.57931518554688,0.23480001091957092,25,-13757.059100123475,0.0031846731363860867,1.60031245E9,,,,0,,3,-0.9,1.60031245E9,304.0,NaN,NaN
Raw,232105928145135,648910169000000,,,-1265581155274918832,0.5398221015930176,31.688978197053075,22.343861423083396,10.79460671979661,77,13,0.0,49359,48847373890223,13,31.9,617.5643920898438,0.24160000681877136,25,36275.36418271604,0.0020412198384807895,1.60087501E9,,,,0,,3,-0.9,1.60087501E9,304.0,NaN,NaN
Raw,232105928145135,648910169000000,,,-1265581155274918832,0.5398221015930176,31.688978197053075,22.343861423083396,10.79460671979661,77,15,0.0,49359,48847370917109,16,29.8,-686.305908203125,0.23890000581741333,19,-40277.99232663117,0.002769618214569399,1.602E9,,,,0,,3,-0.9,1.602E9,304.0,NaN,NaN
Raw,232105928145135,648910169000000,,,-1265581155274918832,0.5398221015930176,31.688978197053075,22.343861423083396,10.79460671979661,77,5,0.0,49359,48847373970782,13,31.8,-596.8980712890625,0.24160000681877136,21,-35069.79820436938,0.002039070365688371,1.60256256E9,,,,0,,3,-0.9,1.60256256E9,304.0,NaN,NaN
Raw,232105928145135,648910169000000,,,-1265581155274918832,0.5398221015930176,31.688978197053075,22.343861423083396,10.79460671979661,77,3,0.0,49359,48847370836288,5,40.1,748.4806518554688,0.23360000550746918,25,43952.643908440165,7.285527265186209E-4,1.60481254E9,,,,0,,3,-0.9,1.60481254E9,304.0,NaN,NaN
Raw,232105928145135,648910169000000,,,-1265581155274918832,0.5398221015930176,31.688978197053075,22.343861423083396,10.79460671979661,77,4,0.0,49359,48847379752303,5,40.4,140.0316162109375,0.21710000932216644,25,8081.976062934921,7.282974831186631E-4,1.60537498E9,,,,0,,3,-0.9,1.60537498E9,304.0,NaN,NaN
Raw,232105928145135,648910169000000,,,-1265581155274918832,0.5398221015930176,31.688978197053075,22.343861423083396,10.79460671979661,77,37,0.0,16399,383651365082478,5,40.3,464.7373046875,0.026100000366568565,17,27467.481051712606,7.489539839688142E-4,1.56109798E9,,,,0,,5,1.0,1.56109798E9,304.0,NaN,NaN
Raw,232105928145135,648910169000000,,,-1265581155274918832,0.5398221015930176,31.688978197053075,22.343861423083396,10.79460671979661,77,22,0.0,16399,383651363373679,10,34.4,-432.53857421875,0.025100000202655792,17,-25516.124351713446,0.001536315979199305,1.56109798E9,,,,0,,5,1.0,1.56109798E9,304.0,NaN,NaN
Raw,232105928145135,648910169000000,,,-1265581155274918832,0.5398221015930176,31.688978197053075,22.343861423083396,10.79460671979661,77,20,0.0,16399,383651361940330,6,39.7,625.2210083007812,0.0203000009059906,25,36925.228162496016,8.449737438469402E-4,1.56109798E9,,,,0,,5,1.0,1.56109798E9,304.0,NaN,NaN
Raw,232105928145135,648910169000000,,,-1265581155274918832,0.5398221015930176,31.688978197053075,22.343861423083396,10.79460671979661,77,19,0.0,16399,383651370677631,10,34.3,158.55514526367188,0.035600002855062485,25,9311.332947600595,0.001536315979199305,1.56109798E9,,,,0,,5,1.0,1.56109798E9,304.0,NaN,NaN
Raw,232105928145135,648910169000000,,,-1265581155274918832,0.5398221015930176,31.688978197053075,22.343861423083396,10.79460671979661,77,10,0.0,16399,383651311794727,12,32.9,169.5260772705078,0.038100000470876694,21,10108.074706875175,0.0018243750799829725,1.56109798E9,,,,0,,5,1.0,1.56109798E9,304.0,NaN,NaN
Raw,232105928145135,648910169000000,,,-1265581155274918832,0.5398221015930176,31.688978197053075,22.343861423083396,10.79460671979661,77,1,0.0,23567,383665360091436,11,33.1,368.36871337890625,0.04520000144839287,21,21972.475695434907,0.003596550258902148,1.57542003E9,,,,0,,6,0.88,1.57542003E9,304.0,NaN,NaN
Raw,232105928145135,648910169000000,,,-1265581155274918832,0.5398221015930176,31.688978197053075,22.343861423083396,10.79460671979661,77,4,0.0,23567,383665358284022,13,31.8,488.4627990722656,0.04910000041127205,25,28911.222158179684,0.004528989424958011,1.57542003E9,,,,0,,6,0.88,1.57542003E9,304.0,NaN,NaN
Raw,232105928145135,648910169000000,,,-1265581155274918832,0.5398221015930176,31.688978197053075,22.343861423083396,10.79460671979661,77,5,0.0,23567,383665358134707,17,28.6,-434.801513671875,0.05220000073313713,25,-8039.269410397147,0.006565131413727744,1.57542003E9,,,,0,,6,0.88,1.57542003E9,304.0,NaN,NaN
Raw,232105928145135,648910169000000,,,-1265581155274918832,0.5398221015930176,31.688978197053075,22.343861423083396,10.79460671979661,77,9,0.0,23567,383665372265253,8,36.4,30.3864803314209,0.04360000044107437,25,1814.5353661331992,0.0025499350854412276,1.57542003E9,,,,0,,6,0.88,1.57542003E9,304.0,NaN,NaN
Raw,232105928145135,648910169000000,,,-1265581155274918832,0.5398221015930176,31.688978197053075,22.343861423083396,10.79460671979661,77,24,0.0,23567,383665361252281,14,30.3,-562.9443359375,0.04840000346302986,25,-8166.2728569965075,0.005233075867304602,1.57542003E9,,,,0,,6,0.88,1.57542003E9,304.0,NaN,NaN
Raw,232105928145135,648910169000000,,,-1265581155274918832,0.5398221015930176,31.688978197053075,22.343861423083396,10.79460671979661,77,31,0.0,23567,383665364898914,9,35.7,-176.10928344726562,0.04410000145435333,25,-10490.498283793253,0.0028924638165555576,1.57542003E9,,,,0,,6,0.88,1.57542003E9,304.0,NaN,NaN
Raw,232105928145135,648910169000000,,,-1265581155274918832,0.5398221015930176,31.688978197053075,22.343861423083396,10.79460671979661,77,30,0.0,81935,383665366814545,10,20.1,584.3206787109375,1.6054999828338623,16,0.0,0.0,1.17645005E9,,,,0,,1,13.25,1.17645005E9,304.0,NaN,NaN
Raw,232105928145135,648910169000000,,,-1265581155274918832,0.5398221015930176,31.688978197053075,22.343861423083396,10.79460671979661,77,1,0.0,81935,383665360098572,2,34.8,368.46502685546875,0.024500001221895218,25,19706.847127344332,0.0020386244039789624,1.17645005E9,,,,0,,6,13.25,1.17645005E9,304.0,NaN,NaN
Raw,232105928145135,648910169000000,,,-1265581155274918832,0.5398221015930176,31.688978197053075,22.343861423083396,10.79460671979661,77,4,0.0,81935,383665358291124,4,29.2,488.57611083984375,0.058000002056360245,29,26134.5895863904,0.0037714549693657518,1.17645005E9,,,,0,,6,13.25,1.17645005E9,304.0,NaN,NaN
Raw,232105928145135,648910169000000,,,-1265581155274918832,0.5398221015930176,31.688978197053075,22.343861423083396,10.79460671979661,77,5,0.0,81935,383665358141797,14,17.3,-434.5455017089844,1.8535000085830688,16,0.0,0.0,1.17645005E9,,,,0,,6,13.25,1.17645005E9,304.0,NaN,NaN
Raw,232105928145135,648910169000000,,,-1265581155274918832,0.5398221015930176,31.688978197053075,22.343861423083396,10.79460671979661,77,9,0.0,81935,383665372272329,2,35.7,30.4245548248291,0.041600000113248825,25,1621.1786684018364,0.0017837963238157039,1.17645005E9,,,,0,,6,13.25,1.17645005E9,304.0,NaN,NaN
Raw,232105928145135,648910169000000,,,-1265581155274918832,0.5398221015930176,31.688978197053075,22.343861423083396,10.79460671979661,77,24,0.0,81935,383665361259410,8,22.7,-562.685791015625,1.4630000591278076,16,0.0,0.0,1.17645005E9,,,,0,,6,13.25,1.17645005E9,304.0,NaN,NaN
Raw,232105928145135,648910169000000,,,-1265581155274918832,0.5398221015930176,31.688978197053075,22.343861423083396,10.79460671979661,77,31,0.0,81935,383665364905970,5,28.6,-175.8535919189453,0.039100002497434616,29,-9389.391500730513,0.0040262828122019055,1.17645005E9,,,,0,,6,13.25,1.17645005E9,304.0,NaN,NaN
Fix,gps,51.524610,-0.134185,77.450195,0.000000,3.790092,1582194849000,232106903291066
Raw,232106970220395,648911169000000,,,-1265581155274918812,0.7010931968688965,30.76273060287349,21.722414681813,9.565803986611893,77,13,0.0,16399,383666376259698,8,36.2,185.39768981933594,0.04360000044107437,25,11156.195670992887,0.001160791358090767,1.57542003E9,,,,0,,1,-0.76,1.57542003E9,304.0,NaN,NaN
Raw,232106970220395,648911169000000,,,-1265581155274918812,0.7010931968688965,30.76273060287349,21.722414681813,9.565803986611893,77,15,0.0,16399,383666376025082,6,38.5,-154.8957061767578,0.04310000315308571,25,-9470.887931174113,9.324389888310735E-4,1.57542003E9,,,,0,,1,-0.76,1.57542003E9,304.0,NaN,NaN
Raw,232106970220395,648911169000000,,,-1265581155274918812,0.7010931968688965,30.76273060287349,21.722414681813,9.565803986611893,77,17,0.0,16399,383666360633493,61,18.8,-546.4282836914062,0.9934999942779541,16,0.0,0.0,1.57542003E9,,,,0,,1,-0.76,1.57542003E9,304.0,NaN,NaN
Raw,232106970220395,648911169000000,,,-1265581155274918812,0.7010931968688965,30.76273060287349,21.722414681813,9.565803986611893,77,20,0.0,16399,383666366727596,46,20.8,-399.38836669921875,0.8554999828338623,16,0.0,0.0,1.57542003E9,,,,0,,1,-0.76,1.57542003E9,304.0,NaN,NaN
Raw,232106970220395,648911169000000,,,-1265581155274918812,0.7010931968688965,30.76273060287349,21.722414681813,9.565803986611893,77,24,0.0,16399,383666367457317,53,19.9,-600.7095336914062,0.9269999861717224,16,0.0,0.0,1.57542003E9,,,,0,,1,-0.76,1.57542003E9,304.0,NaN,NaN
Raw,232106970220395,648911169000000,,,-1265581155274918812,0.7010931968688965,30.76273060287349,21.722414681813,9.565803986611893,77,28,0.0,16399,383666372595075,4,42.0,143.34259033203125,0.03610000014305115,25,8571.473730820197,5.899103906353357E-4,1.57542003E9,,,,0,,1,-0.76,1.57542003E9,304.0,NaN,NaN
Raw,232106970220395,648911169000000,,,-1265581155274918812,0.7010931968688965,30.76273060287349,21.722414681813,9.565803986611893,77,30,0.0,16399,383666366804518,21,26.3,582.967041015625,0.0357000008225441,21,9021.49037981822,0.005442398901996786,1.57542003E9,,,,0,,1,-0.76,1.57542003E9,304.0,NaN,NaN
Raw,232106970220395,648911169000000,,,-1265581155274918812,0.7010931968688965,30.76273060287349,21.722414681813,9.565803986611893,77,14,0.0,49359,48848379967729,6,39.0,-87.7663803100586,0.20229999721050262,25,-5383.462264076717,8.254288163121457E-4,1.59806246E9,,,,0,,3,-2.3,1.59806246E9,304.0,NaN,NaN
Raw,232106970220395,648911169000000,,,-1265581155274918812,0.7010931968688965,30.76273060287349,21.722414681813,9.565803986611893,77,22,0.0,49359,48848366095820,12,32.9,-231.1060791015625,0.21559999883174896,25,-13987.820578262243,0.0017796701281556596,1.60031245E9,,,,0,,3,-2.3,1.60031245E9,304.0,NaN,NaN
Raw,232106970220395,648911169000000,,,-1265581155274918812,0.7010931968688965,30.76273060287349,21.722414681813,9.565803986611893,77,13,0.0,49359,48848373888127,16,29.9,618.0726928710938,0.24340000748634338,25,36893.81364407757,0.0027715645241306536,1.60087501E9,,,,0,,3,-2.3,1.60087501E9,304.0,NaN,NaN
Raw,232106970220395,648911169000000,,,-1265581155274918812,0.7010931968688965,30.76273060287349,21.722414681813,9.565803986611893,77,15,0.0,49359,48848370919437,12,32.8,-685.6719360351562,0.23660001158714294,25,-40963.324938779944,0.0017777954178659534,1.602E9,,,,0,,3,-2.3,1.602E9,304.0,NaN,NaN
Raw,232106970220395,648911169000000,,,-1265581155274918812,0.7010931968688965,30.76273060287349,21.722414681813,9.565803986611893,77,5,0.0,49359,48848373972779,19,27.7,-596.16162109375,0.24530000984668732,29,-35665.7019526233,0.0031802016284280693,1.60256256E9,,,,0,,3,-2.3,1.60256256E9,304.0,NaN,NaN
Raw,232106970220395,648911169000000,,,-1265581155274918812,0.7010931968688965,30.76273060287349,21.722414681813,9.565803986611893,77,3,0.0,49359,48848370833805,7,37.7,749.0267333984375,0.23440000414848328,25,44702.05942114299,9.900844722691658E-4,1.60481254E9,,,,0,,3,-2.3,1.60481254E9,304.0,NaN,NaN
Raw,232106970220395,648911169000000,,,-1265581155274918812,0.7010931968688965,30.76273060287349,21.722414681813,9.565803986611893,77,4,0.0,49359,48848379751823,6,38.6,140.60821533203125,0.20260000228881836,25,8222.9582470646,9.150404631835356E-4,1.60537498E9,,,,0,,3,-2.3,1.60537498E9,304.0,NaN,NaN
Raw,232106970220395,648911169000000,,,-1265581155274918812,0.7010931968688965,30.76273060287349,21.722414681813,9.565803986611893,77,37,0.0,16399,383652365080937,6,39.0,465.1518859863281,0.011300000362098217,17,27933.05725942043,8.449737438469402E-4,1.56109798E9,,,,0,,5,-0.52,1.56109798E9,304.0,NaN,NaN
Raw,232106970220395,648911169000000,,,-1265581155274918812,0.7010931968688965,30.76273060287349,21.722414681813,9.565803986611893,77,22,0.0,16399,383652363375156,12,32.4,-431.99639892578125,0.011100000701844692,17,-25947.701274583014,0.0018243750799829725,1.56109798E9,,,,0,,5,-0.52,1.56109798E9,304.0,NaN,NaN
Raw,232106970220395,648911169000000,,,-1265581155274918812,0.7010931968688965,30.76273060287349,21.722414681813,9.565803986611893,77,20,0.0,16399,383652361938279,6,38.1,625.710205078125,0.005600000265985727,25,37551.34678254363,9.409935037250662E-4,1.56109798E9,,,,0,,5,-0.52,1.56109798E9,304.0,NaN,NaN
Raw,232106970220395,648911169000000,,,-1265581155274918812,0.7010931968688965,30.76273060287349,21.722414681813,9.565803986611893,77,19,0.0,16399,383652370677099,9,35.1,159.16078186035156,0.035100001841783524,25,9470.885371629513,0.0013442764594430532,1.56109798E9,,,,0,,5,-0.52,1.56109798E9,304.0,NaN,NaN
Raw,232106970220395,648911169000000,,,-1265581155274918812,0.7010931968688965,30.76273060287349,21.722414681813,9.565803986611893,77,10,0.0,16399,383652311794191,12,32.2,170.08639526367188,0.038100000470876694,17,10278.631698838022,0.0018243750799829725,1.56109798E9,,,,0,,5,-0.52,1.56109798E9,304.0,NaN,NaN
Raw,232106970220395,648911169000000,,,-1265581155274918812,0.7010931968688965,30.76273060287349,21.722414681813,9.565803986611893,77,1,0.0,23567,383666360090258,21,26.6,369.11376953125,0.050700001418590546,21,22341.80754790987,0.011874324619302384,1.57542003E9,,,,0,,6,-0.6,1.57542003E9,304.0,NaN,NaN
Raw,232106970220395,648911169000000,,,-1265581155274918812,0.7010931968688965,30.76273060287349,21.722414681813,9.565803986611893,77,4,0.0,23567,383666358282404,10,34.6,489.1325378417969,0.047600001096725464,25,29400.68848834138,0.003311109885939926,1.57542003E9,,,,0,,6,-0.6,1.57542003E9,304.0,NaN,NaN
Raw,232106970220395,648911169000000,,,-1265581155274918812,0.7010931968688965,30.76273060287349,21.722414681813,9.565803986611893,77,5,0.0,23567,383666358136128,14,30.0,-434.0538330078125,0.04990000277757645,25,-8473.008377476643,0.005233075867304602,1.57542003E9,,,,0,,6,-0.6,1.57542003E9,304.0,NaN,NaN
Raw,232106970220395,648911169000000,,,-1265581155274918812,0.7010931968688965,30.76273060287349,21.722414681813,9.565803986611893,77,9,0.0,23567,383666372265126,6,38.2,31.09027099609375,0.04310000315308571,25,1845.9367499264392,0.0020551716777868216,1.57542003E9,,,,0,,6,-0.6,1.57542003E9,304.0,NaN,NaN
Raw,232106970220395,648911169000000,,,-1265581155274918812,0.7010931968688965,30.76273060287349,21.722414681813,9.565803986611893,77,24,0.0,23567,383666361254227,19,27.9,-561.572021484375,0.05130000039935112,21,-8727.731765654315,0.007212130206821385,1.57542003E9,,,,0,,6,-0.6,1.57542003E9,304.0,NaN,NaN
Raw,232106970220395,648911169000000,,,-1265581155274918812,0.7010931968688965,30.76273060287349,21.722414681813,9.565803986611893,77,31,0.0,23567,383666364899520,11,33.2,-175.38121032714844,0.04520000144839287,25,-10665.569621527073,0.003596550258902148,1.57542003E9,,,,0,,6,-0.6,1.57542003E9,304.0,NaN,NaN
Raw,232106970220395,648911169000000,,,-1265581155274918812,0.7010931968688965,30.76273060287349,21.722414681813,9.565803986611893,77,30,0.0,81935,383666366812610,12,18.4,582.6770629882812,1.005500078201294,16,0.0,0.0,1.17645005E9,,,,0,,1,-0.19,1.17645005E9,304.0,NaN,NaN
Raw,232106970220395,648911169000000,,,-1265581155274918812,0.7010931968688965,30.76273060287349,21.722414681813,9.565803986611893,77,1,0.0,81935,383666360097329,3,31.0,368.541015625,0.012800000607967377,25,20076.150194783,0.0027776256465907277,1.17645005E9,,,,0,,6,-0.19,1.17645005E9,304.0,NaN,NaN
Raw,232106970220395,648911169000000,,,-1265581155274918812,0.7010931968688965,30.76273060287349,21.722414681813,9.565803986611893,77,4,0.0,81935,383666358289543,14,17.7,489.12969970703125,1.1034998893737793,16,0.0,0.0,1.17645005E9,,,,0,,6,-0.19,1.17645005E9,304.0,NaN,NaN
Raw,232106970220395,648911169000000,,,-1265581155274918812,0.7010931968688965,30.76273060287349,21.722414681813,9.565803986611893,77,9,0.0,81935,383666372272221,4,30.6,30.780475616455078,0.047200001776218414,25,1652.5871056404192,0.0032108332879374254,1.17645005E9,,,,0,,6,-0.19,1.17645005E9,304.0,NaN,NaN
Raw,232106970220395,648911169000000,,,-1265581155274918812,0.7010931968688965,30.76273060287349,21.722414681813,9.565803986611893,77,24,0.0,81935,383666361261283,10,20.7,-562.2796630859375,0.062199998646974564,27,-30470.23844081254,0.34557229348499413,1.17645005E9,,,,0,,6,-0.19,1.17645005E9,304.0,NaN,NaN
Raw,232106970220395,648911169000000,,,-1265581155274918812,0.7010931968688965,30.76273060287349,21.722414681813,9.565803986611893,77,31,0.0,81935,383666364906555,12,18.8,-175.85684204101562,0.9074999690055847,16,0.0,0.0,1.17645005E9,,,,0,,6,-0.19,1.17645005E9,304.0,NaN,NaN
Fix,gps,51.524609,-0.134183,77.823547,0.240000,3.790092,1582194850000,232107901464394
Raw,232107933683773,648912169000000,,,-1265581155274918793,0.16363191604614258,40.66156907356344,23.62170740783662,20.33699769923822,77,13,0.0,16399,383667376259095,11,33.0,179.12625122070312,0.04520000144839287,25,11339.67832924288,0.001655554942969963,1.57542003E9,,,,0,,1,-2.83,1.57542003E9,304.0,NaN,NaN
Raw,232107933683773,648912169000000,,,-1265581155274918793,0.16363191604614258,40.66156907356344,23.62170740783662,20.33699769923822,77,15,0.0,16399,383667376025653,11,33.5,-161.15206909179688,0.04520000144839287,25,-9627.709874055072,0.001655554942969963,1.57542003E9,,,,0,,1,-2.83,1.57542003E9,304.0,NaN,NaN
Raw,232107933683773,648912169000000,,,-1265581155274918793,0.16363191604614258,40.66156907356344,23.62170740783662,20.33699769923822,77,17,0.0,16399,383667360635445,24,25.4,-554.2398071289062,0.6165000200271606,16,0.0,0.0,1.57542003E9,,,,0,,1,-2.83,1.57542003E9,304.0,NaN,NaN
Raw,232107933683773,648912169000000,,,-1265581155274918793,0.16363191604614258,40.66156907356344,23.62170740783662,20.33699769923822,77,20,0.0,16399,383667366728788,46,20.9,-408.3987731933594,0.8554999828338623,16,0.0,0.0,1.57542003E9,,,,0,,1,-2.83,1.57542003E9,304.0,NaN,NaN
Raw,232107933683773,648912169000000,,,-1265581155274918793,0.16363191604614258,40.66156907356344,23.62170740783662,20.33699769923822,77,24,0.0,16399,383667367458959,61,18.7,-608.3783569335938,1.0869998931884766,16,0.0,0.0,1.57542003E9,,,,0,,1,-2.83,1.57542003E9,304.0,NaN,NaN
Raw,232107933683773,648912169000000,,,-1265581155274918793,0.16363191604614258,40.66156907356344,23.62170740783662,20.33699769923822,77,28,0.0,16399,383667372594633,8,36.1,137.020751953125,0.03760000318288803,25,8712.869643176315,0.001160791358090767,1.57542003E9,,,,0,,1,-2.83,1.57542003E9,304.0,NaN,NaN
Raw,232107933683773,648912169000000,,,-1265581155274918793,0.16363191604614258,40.66156907356344,23.62170740783662,20.33699769923822,77,30,0.0,16399,383667366802710,16,29.3,575.6098022460938,0.46549999713897705,16,0.0,0.0,1.57542003E9,,,,0,,1,-2.83,1.57542003E9,304.0,NaN,NaN
Raw,232107933683773,648912169000000,,,-1265581155274918793,0.16363191604614258,40.66156907356344,23.62170740783662,20.33699769923822,77,14,0.0,49359,48849379967993,9,35.3,-94.14942169189453,0.21860000491142273,25,-5473.145520244244,0.0013131822554185268,1.59806246E9,,,,0,,3,-5.89,1.59806246E9,304.0,NaN,NaN
Raw,232107933683773,648912169000000,,,-1265581155274918793,0.16363191604614258,40.66156907356344,23.62170740783662,20.33699769923822,77,22,0.0,49359,48849366096563,21,26.9,-238.3446807861328,0.7354999780654907,16,0.0,0.0,1.60031245E9,,,,0,,3,-5.89,1.60031245E9,304.0,NaN,NaN
Raw,232107933683773,648912169000000,,,-1265581155274918793,0.16363191604614258,40.66156907356344,23.62170740783662,20.33699769923822,77,13,0.0,49359,48849373886079,17,28.6,611.642333984375,0.24469999969005585,25,37509.85973165114,0.002958832253614959,1.60087501E9,,,,0,,3,-5.89,1.60087501E9,304.0,NaN,NaN
Raw,232107933683773,648912169000000,,,-1265581155274918793,0.16363191604614258,40.66156907356344,23.62170740783662,20.33699769923822,77,15,0.0,49359,48849370921759,19,27.2,-692.6852416992188,0.7114999890327454,16,0.0,0.0,1.602E9,,,,0,,3,-5.89,1.602E9,304.0,NaN,NaN
Raw,232107933683773,648912169000000,,,-1265581155274918793,0.16363191604614258,40.66156907356344,23.62170740783662,20.33699769923822,77,5,0.0,49359,48849373974684,46,20.1,-600.8616943359375,1.065999984741211,16,0.0,0.0,1.60256256E9,,,,0,,3,-5.89,1.60256256E9,304.0,NaN,NaN
Raw,232107933683773,648912169000000,,,-1265581155274918793,0.16363191604614258,40.66156907356344,23.62170740783662,20.33699769923822,77,3,0.0,49359,48849370831216,10,34.9,742.6400146484375,0.23560000956058502,25,45449.11988252181,0.0014944672428451689,1.60481254E9,,,,0,,3,-5.89,1.60481254E9,304.0,NaN,NaN
Raw,232107933683773,648912169000000,,,-1265581155274918793,0.16363191604614258,40.66156907356344,23.62170740783662,20.33699769923822,77,4,0.0,49359,48849379751396,10,34.6,134.2572479248047,0.2190999984741211,25,8361.662391385975,0.0014939436666010554,1.60537498E9,,,,0,,3,-5.89,1.60537498E9,304.0,NaN,NaN
Raw,232107933683773,648912169000000,,,-1265581155274918793,0.16363191604614258,40.66156907356344,23.62170740783662,20.33699769923822,77,37,0.0,16399,383653365079369,13,31.0,460.952392578125,0.39399999380111694,16,0.0,0.0,1.56109798E9,,,,0,,5,-4.65,1.56109798E9,304.0,NaN,NaN
Raw,232107933683773,648912169000000,,,-1265581155274918793,0.16363191604614258,40.66156907356344,23.62170740783662,20.33699769923822,77,22,0.0,16399,383653363376650,40,21.0,-433.5675354003906,0.8510000109672546,16,0.0,0.0,1.56109798E9,,,,0,,5,-4.65,1.56109798E9,304.0,NaN,NaN
Raw,232107933683773,648912169000000,,,-1265581155274918793,0.16363191604614258,40.66156907356344,23.62170740783662,20.33699769923822,77,20,0.0,16399,383653361936177,10,34.6,619.2412109375,0.022100001573562622,25,38175.07476638256,0.001536315979199305,1.56109798E9,,,,0,,5,-4.65,1.56109798E9,304.0,NaN,NaN
Raw,232107933683773,648912169000000,,,-1265581155274918793,0.16363191604614258,40.66156907356344,23.62170740783662,20.33699769923822,77,19,0.0,16399,383653370676567,17,28.5,154.33253479003906,0.5115000009536743,16,0.0,0.0,1.56109798E9,,,,0,,5,-4.65,1.56109798E9,304.0,NaN,NaN
Raw,232107933683773,648912169000000,,,-1265581155274918793,0.16363191604614258,40.66156907356344,23.62170740783662,20.33699769923822,77,10,0.0,16399,383653311793651,19,27.8,163.20477294921875,0.5130000114440918,16,0.0,0.0,1.56109798E9,,,,0,,5,-4.65,1.56109798E9,304.0,NaN,NaN
Raw,232107933683773,648912169000000,,,-1265581155274918793,0.16363191604614258,40.66156907356344,23.62170740783662,20.33699769923822,77,1,0.0,23567,383667360089089,27,24.5,362.4428405761719,0.640500009059906,16,0.0,0.0,1.57542003E9,,,,0,,6,-2.92,1.57542003E9,304.0,NaN,NaN
Raw,232107933683773,648912169000000,,,-1265581155274918793,0.16363191604614258,40.66156907356344,23.62170740783662,20.33699769923822,77,4,0.0,23567,383667358280763,19,27.7,483.0872497558594,0.052800003439188004,25,29887.799558932424,0.007212130206821385,1.57542003E9,,,,0,,6,-2.92,1.57542003E9,304.0,NaN,NaN
Raw,232107933683773,648912169000000,,,-1265581155274918793,0.16363191604614258,40.66156907356344,23.62170740783662,20.33699769923822,77,5,0.0,23567,383667358137574,27,24.4,-441.07220458984375,0.643500030040741,16,0.0,0.0,1.57542003E9,,,,0,,6,-2.92,1.57542003E9,304.0,NaN,NaN
Raw,232107933683773,648912169000000,,,-1265581155274918793,0.16363191604614258,40.66156907356344,23.62170740783662,20.33699769923822,77,9,0.0,23567,383667372265037,12,32.8,25.099014282226562,0.04560000076889992,25,1875.0285025565186,0.003958108324583987,1.57542003E9,,,,0,,6,-2.92,1.57542003E9,304.0,NaN,NaN
Raw,232107933683773,648912169000000,,,-1265581155274918793,0.16363191604614258,40.66156907356344,23.62170740783662,20.33699769923822,77,24,0.0,23567,383667361256075,24,25.0,-568.1641845703125,0.058800000697374344,25,-9291.802388042708,0.017526047264890512,1.57542003E9,,,,0,,6,-2.92,1.57542003E9,304.0,NaN,NaN
Raw,232107933683773,648912169000000,,,-1265581155274918793,0.16363191604614258,40.66156907356344,23.62170740783662,20.33699769923822,77,31,0.0,23567,383667364900089,11,33.3,-181.40069580078125,0.04520000144839287,25,-10842.983064425654,0.003596550258902148,1.57542003E9,,,,0,,6,-2.92,1.57542003E9,304.0,NaN,NaN
Raw,232107933683773,648912169000000,,,-1265581155274918793,0.16363191604614258,40.66156907356344,23.62170740783662,20.33699769923822,77,1,0.0,81935,383667360096116,10,20.4,363.1554260253906,0.8464999794960022,16,0.0,0.0,1.17645005E9,,,,0,,6,-4.16,1.17645005E9,304.0,NaN,NaN
Raw,232107933683773,648912169000000,,,-1265581155274918793,0.16363191604614258,40.66156907356344,23.62170740783662,20.33699769923822,77,9,0.0,81935,383667372272127,9,21.4,23.609817504882812,0.8044999837875366,16,0.0,0.0,1.17645005E9,,,,0,,6,-4.16,1.17645005E9,304.0,NaN,NaN
Fix,gps,51.524608,-0.134184,78.629272,0.190000,3.790092,1582194851000,232108889984024
Raw,232108934415695,648913169000000,,,-1265581155274918790,0.0842595100402832,54.99875987879932,10.316097023523794,29.72963291345542,77,5,0.0,16399,383668364005334,80,16.6,720.8800048828125,1.9825000762939453,16,0.0,0.0,1.57542003E9,,,,0,,1,-2.93,1.57542003E9,304.0,NaN,NaN
Raw,232108934415695,648913169000000,,,-1265581155274918790,0.0842595100402832,54.99875987879932,10.316097023523794,29.72963291345542,77,13,0.0,16399,383668376258485,10,34.2,182.21759033203125,0.044600002467632294,25,11517.234446944078,0.0015223494237726067,1.57542003E9,,,,0,,1,-2.93,1.57542003E9,304.0,NaN,NaN
Raw,232108934415695,648913169000000,,,-1265581155274918790,0.0842595100402832,54.99875987879932,10.316097023523794,29.72963291345542,77,15,0.0,16399,383668376026223,13,31.9,-158.05247497558594,0.04610000178217888,25,-9790.419945428786,0.002074201012354331,1.57542003E9,,,,0,,1,-2.93,1.57542003E9,304.0,NaN,NaN
Raw,232108934415695,648913169000000,,,-1265581155274918790,0.0842595100402832,54.99875987879932,10.316097023523794,29.72963291345542,77,17,0.0,16399,383668360637365,24,25.4,-548.9782104492188,0.6165000200271606,16,0.0,0.0,1.57542003E9,,,,0,,1,-2.93,1.57542003E9,304.0,NaN,NaN
Raw,232108934415695,648913169000000,,,-1265581155274918790,0.0842595100402832,54.99875987879932,10.316097023523794,29.72963291345542,77,20,0.0,16399,383668366730136,46,20.9,-401.348388671875,0.8554999828338623,16,0.0,0.0,1.57542003E9,,,,0,,1,-2.93,1.57542003E9,304.0,NaN,NaN
Raw,232108934415695,648913169000000,,,-1265581155274918790,0.0842595100402832,54.99875987879932,10.316097023523794,29.72963291345542,77,28,0.0,16399,383668372594187,9,35.0,140.20480346679688,0.038100000470876694,25,8848.374757177779,0.0013320557236479321,1.57542003E9,,,,0,,1,-2.93,1.57542003E9,304.0,NaN,NaN
Raw,232108934415695,648913169000000,,,-1265581155274918790,0.0842595100402832,54.99875987879932,10.316097023523794,29.72963291345542,77,30,0.0,16399,383668366800797,17,28.7,580.7858276367188,0.5055000185966492,16,0.0,0.0,1.57542003E9,,,,0,,1,-2.93,1.57542003E9,304.0,NaN,NaN
Raw,232108934415695,648913169000000,,,-1265581155274918790,0.0842595100402832,54.99875987879932,10.316097023523794,29.72963291345542,77,14,0.0,49359,48850379968346,10,34.5,-90.62498474121094,0.2190999984741211,25,-5568.604706687114,0.0015007797454374234,1.59806246E9,,,,0,,3,-6.36,1.59806246E9,304.0,NaN,NaN
Raw,232108934415695,648913169000000,,,-1265581155274918790,0.0842595100402832,54.99875987879932,10.316097023523794,29.72963291345542,77,22,0.0,49359,48850366097406,24,25.7,-233.49273681640625,0.7854999899864197,16,0.0,0.0,1.60031245E9,,,,0,,3,-6.36,1.60031245E9,304.0,NaN,NaN
Raw,232108934415695,648913169000000,,,-1265581155274918790,0.0842595100402832,54.99875987879932,10.316097023523794,29.72963291345542,77,13,0.0,49359,48850373884071,17,28.5,614.7739868164062,0.24469999969005585,25,38119.959086933675,0.002958832253614959,1.60087501E9,,,,0,,3,-6.36,1.60087501E9,304.0,NaN,NaN
Raw,232108934415695,648913169000000,,,-1265581155274918790,0.0842595100402832,54.99875987879932,10.316097023523794,29.72963291345542,77,15,0.0,49359,48850370923984,16,29.5,-688.4746704101562,0.6315000057220459,16,0.0,0.0,1.602E9,,,,0,,3,-6.36,1.602E9,304.0,NaN,NaN
Raw,232108934415695,648913169000000,,,-1265581155274918790,0.0842595100402832,54.99875987879932,10.316097023523794,29.72963291345542,77,3,0.0,49359,48850370828731,10,34.0,745.8468017578125,0.23560000956058502,25,46190.27530972975,0.0014944672428451689,1.60481254E9,,,,0,,3,-6.36,1.60481254E9,304.0,NaN,NaN
Raw,232108934415695,648913169000000,,,-1265581155274918790,0.0842595100402832,54.99875987879932,10.316097023523794,29.72963291345542,77,4,0.0,49359,48850379750930,9,35.7,137.7758026123047,0.21860000491142273,25,8494.607620641915,0.0013072006865361828,1.60537498E9,,,,0,,3,-6.36,1.60537498E9,304.0,NaN,NaN
Raw,232108934415695,648913169000000,,,-1265581155274918790,0.0842595100402832,54.99875987879932,10.316097023523794,29.72963291345542,77,37,0.0,16399,383654365077858,13,31.3,461.9325256347656,0.029600001871585846,19,28853.402580786893,0.0020932304434118673,1.56109798E9,,,,0,,5,-5.18,1.56109798E9,304.0,NaN,NaN
Raw,232108934415695,648913169000000,,,-1265581155274918790,0.0842595100402832,54.99875987879932,10.316097023523794,29.72963291345542,77,22,0.0,16399,383654363378128,31,23.0,-435.8240051269531,0.7310000061988831,16,0.0,0.0,1.56109798E9,,,,0,,5,-5.18,1.56109798E9,304.0,NaN,NaN
Raw,232108934415695,648913169000000,,,-1265581155274918790,0.0842595100402832,54.99875987879932,10.316097023523794,29.72963291345542,77,20,0.0,16399,383654361934106,10,34.0,622.6141967773438,0.022100001573562622,25,38792.935692362895,0.001536315979199305,1.56109798E9,,,,0,,5,-5.18,1.56109798E9,304.0,NaN,NaN
Raw,232108934415695,648913169000000,,,-1265581155274918790,0.0842595100402832,54.99875987879932,10.316097023523794,29.72963291345542,77,19,0.0,16399,383654370676058,21,26.6,157.60850524902344,0.04170000180602074,19,9783.27209192632,0.005492329335005111,1.56109798E9,,,,0,,5,-5.18,1.56109798E9,304.0,NaN,NaN
Raw,232108934415695,648913169000000,,,-1265581155274918790,0.0842595100402832,54.99875987879932,10.316097023523794,29.72963291345542,77,10,0.0,16399,383654311793077,19,27.7,167.26638793945312,0.5130000114440918,16,0.0,0.0,1.56109798E9,,,,0,,5,-5.18,1.56109798E9,304.0,NaN,NaN
Raw,232108934415695,648913169000000,,,-1265581155274918790,0.0842595100402832,54.99875987879932,10.316097023523794,29.72963291345542,77,1,0.0,23567,383668360087916,40,21.5,363.784423828125,0.8104999661445618,16,0.0,0.0,1.57542003E9,,,,0,,6,-3.09,1.57542003E9,304.0,NaN,NaN
Raw,232108934415695,648913169000000,,,-1265581155274918790,0.0842595100402832,54.99875987879932,10.316097023523794,29.72963291345542,77,4,0.0,23567,383668358279175,16,29.9,485.2849426269531,0.05090000107884407,25,30368.89352976628,0.006146485344343376,1.57542003E9,,,,0,,6,-3.09,1.57542003E9,304.0,NaN,NaN
Raw,232108934415695,648913169000000,,,-1265581155274918790,0.0842595100402832,54.99875987879932,10.316097023523794,29.72963291345542,77,5,0.0,23567,383668358139081,19,27.8,-437.8767395019531,0.052800003439188004,27,-9351.162625244411,0.007212130206821385,1.57542003E9,,,,0,,6,-3.09,1.57542003E9,304.0,NaN,NaN
Raw,232108934415695,648913169000000,,,-1265581155274918790,0.0842595100402832,54.99875987879932,10.316097023523794,29.72963291345542,77,9,0.0,23567,383668372264973,12,32.6,27.370336532592773,0.04560000076889992,25,1898.1495945153617,0.003958108324583987,1.57542003E9,,,,0,,6,-3.09,1.57542003E9,304.0,NaN,NaN
Raw,232108934415695,648913169000000,,,-1265581155274918790,0.0842595100402832,54.99875987879932,10.316097023523794,29.72963291345542,77,24,0.0,23567,383668361258014,27,24.3,-566.323486328125,0.6420000195503235,16,0.0,0.0,1.57542003E9,,,,0,,6,-3.09,1.57542003E9,304.0,NaN,NaN
Raw,232108934415695,648913169000000,,,-1265581155274918790,0.0842595100402832,54.99875987879932,10.316097023523794,29.72963291345542,77,31,0.0,23567,383668364900692,11,33.3,-179.13426208496094,0.04520000144839287,25,-11026.354188580159,0.003596550258902148,1.57542003E9,,,,0,,6,-3.09,1.57542003E9,304.0,NaN,NaN
Raw,232108934415695,648913169000000,,,-1265581155274918790,0.0842595100402832,54.99875987879932,10.316097023523794,29.72963291345542,77,1,0.0,81935,383668360094906,5,27.5,366.5428161621094,0.036000002175569534,27,20807.770191775002,0.25482803839368795,1.17645005E9,,,,0,,6,-1.18,1.17645005E9,304.0,NaN,NaN
Raw,232108934415695,648913169000000,,,-1265581155274918790,0.0842595100402832,54.99875987879932,10.316097023523794,29.72963291345542,77,9,0.0,81935,383668372272048,6,26.6,28.737382888793945,0.060100000351667404,27,1708.387532916795,0.007288081858568245,1.17645005E9,,,,0,,6,-1.18,1.17645005E9,304.0,NaN,NaN
Raw,232108934415695,648913169000000,,,-1265581155274918790,0.0842595100402832,54.99875987879932,10.316097023523794,29.72963291345542,77,31,0.0,81935,383668364907789,11,19.1,-178.0993194580078,1.6725000143051147,16,0.0,0.0,1.17645005E9,,,,0,,6,-1.18,1.17645005E9,304.0,NaN,NaN
Fix,gps,51.524611,-0.134188,78.310059,0.180000,3.790092,1582194852000,232109895095426
Raw,232109921329648,648914169000000,,,-1265581155274918785,0.1953577995300293,50.642465794226155,13.755782707233353,23.050743372719587,77,13,0.0,16399,383669376257871,10,34.9,183.1298370361328,0.044600002467632294,25,11702.660488970863,0.0015223494237726067,1.57542003E9,,,,0,,1,-3.04,1.57542003E9,304.0,NaN,NaN
Raw,232109921329648,648914169000000,,,-1265581155274918785,0.1953577995300293,50.642465794226155,13.755782707233353,23.050743372719587,77,15,0.0,16399,383669376026726,12,32.7,-157.08218383789062,0.04560000076889992,25,-9945.235053268852,0.001807789796734829,1.57542003E9,,,,0,,1,-3.04,1.57542003E9,304.0,NaN,NaN
Raw,232109921329648,648914169000000,,,-1265581155274918785,0.1953577995300293,50.642465794226155,13.755782707233353,23.050743372719587,77,17,0.0,16399,383669360639198,21,26.5,-549.7774658203125,0.5764999985694885,16,0.0,0.0,1.57542003E9,,,,0,,1,-3.04,1.57542003E9,304.0,NaN,NaN
Raw,232109921329648,648914169000000,,,-1265581155274918785,0.1953577995300293,50.642465794226155,13.755782707233353,23.050743372719587,77,20,0.0,16399,383669366731467,31,23.5,-402.1856689453125,0.7354999780654907,16,0.0,0.0,1.57542003E9,,,,0,,1,-3.04,1.57542003E9,304.0,NaN,NaN
Raw,232109921329648,648914169000000,,,-1265581155274918785,0.1953577995300293,50.642465794226155,13.755782707233353,23.050743372719587,77,24,0.0,16399,383669367463222,70,17.3,-601.86083984375,1.9270000457763672,16,0.0,0.0,1.57542003E9,,,,0,,1,-3.04,1.57542003E9,304.0,NaN,NaN
Raw,232109921329648,648914169000000,,,-1265581155274918785,0.1953577995300293,50.642465794226155,13.755782707233353,23.050743372719587,77,28,0.0,16399,383669372593702,7,37.1,141.01840209960938,0.03739999979734421,25,8991.740391087511,0.0010085564157135064,1.57542003E9,,,,0,,1,-3.04,1.57542003E9,304.0,NaN,NaN
Raw,232109921329648,648914169000000,,,-1265581155274918785,0.1953577995300293,50.642465794226155,13.755782707233353,23.050743372719587,77,30,0.0,16399,383669366798895,16,29.7,580.5247802734375,0.03290000185370445,19,10760.393056300865,0.00281634630106073,1.57542003E9,,,,0,,1,-3.04,1.57542003E9,304.0,NaN,NaN
Raw,232109921329648,648914169000000,,,-1265581155274918785,0.1953577995300293,50.642465794226155,13.755782707233353,23.050743372719587,77,14,0.0,49359,48851379968647,10,34.8,-89.98908996582031,0.2190999984741211,25,-5656.238513607773,0.0015007797454374234,1.59806246E9,,,,0,,3,-6.37,1.59806246E9,304.0,NaN,NaN
Raw,232109921329648,648914169000000,,,-1265581155274918785,0.1953577995300293,50.642465794226155,13.755782707233353,23.050743372719587,77,22,0.0,49359,48851366098152,17,28.2,-234.55117797851562,0.6654999852180481,16,0.0,0.0,1.60031245E9,,,,0,,3,-6.37,1.60031245E9,304.0,NaN,NaN
Raw,232109921329648,648914169000000,,,-1265581155274918785,0.1953577995300293,50.642465794226155,13.755782707233353,23.050743372719587,77,13,0.0,49359,48851373881994,16,29.7,615.5490112304688,0.24340000748634338,25,38737.89289204236,0.0027715645241306536,1.60087501E9,,,,0,,3,-6.37,1.60087501E9,304.0,NaN,NaN
Raw,232109921329648,648914169000000,,,-1265581155274918785,0.1953577995300293,50.642465794226155,13.755782707233353,23.050743372719587,77,15,0.0,49359,48851370926316,17,28.2,-687.97900390625,0.240200012922287,19,-43029.49737824613,0.0029567544367518762,1.602E9,,,,0,,3,-6.37,1.602E9,304.0,NaN,NaN
Raw,232109921329648,648914169000000,,,-1265581155274918785,0.1953577995300293,50.642465794226155,13.755782707233353,23.050743372719587,77,5,0.0,49359,48851373978759,70,17.1,-600.487548828125,2.0460000038146973,16,0.0,0.0,1.60256256E9,,,,0,,3,-6.37,1.60256256E9,304.0,NaN,NaN
Raw,232109921329648,648914169000000,,,-1265581155274918785,0.1953577995300293,50.642465794226155,13.755782707233353,23.050743372719587,77,3,0.0,49359,48851370826248,10,34.4,746.6090087890625,0.23560000956058502,25,46939.225835419165,0.0014944672428451689,1.60481254E9,,,,0,,3,-6.37,1.60481254E9,304.0,NaN,NaN
Raw,232109921329648,648914169000000,,,-1265581155274918785,0.1953577995300293,50.642465794226155,13.755782707233353,23.050743372719587,77,4,0.0,49359,48851379750437,8,36.8,138.43312072753906,0.21810001134872437,25,8635.395943130354,0.0011391319696942128,1.60537498E9,,,,0,,3,-6.37,1.60537498E9,304.0,NaN,NaN
Raw,232109921329648,648914169000000,,,-1265581155274918785,0.1953577995300293,50.642465794226155,13.755782707233353,23.050743372719587,77,37,0.0,16399,383655365076306,12,32.6,462.5411682128906,0.029100000858306885,17,29318.37106818024,0.0018243750799829725,1.56109798E9,,,,0,,5,-5.35,1.56109798E9,304.0,NaN,NaN
Raw,232109921329648,648914169000000,,,-1265581155274918785,0.1953577995300293,50.642465794226155,13.755782707233353,23.050743372719587,77,22,0.0,16399,383655363379525,40,21.6,-433.3659362792969,0.8510000109672546,16,0.0,0.0,1.56109798E9,,,,0,,5,-5.35,1.56109798E9,304.0,NaN,NaN
Raw,232109921329648,648914169000000,,,-1265581155274918785,0.1953577995300293,50.642465794226155,13.755782707233353,23.050743372719587,77,20,0.0,16399,383655361932024,10,34.8,623.2037963867188,0.022100001573562622,25,39418.512113692304,0.001536315979199305,1.56109798E9,,,,0,,5,-5.35,1.56109798E9,304.0,NaN,NaN
Raw,232109921329648,648914169000000,,,-1265581155274918785,0.1953577995300293,50.642465794226155,13.755782707233353,23.050743372719587,77,19,0.0,16399,383655370675560,19,27.0,158.51609802246094,0.040800001472234726,21,9942.57655414058,0.0032646714781548623,1.56109798E9,,,,0,,5,-5.35,1.56109798E9,304.0,NaN,NaN
Raw,232109921329648,648914169000000,,,-1265581155274918785,0.1953577995300293,50.642465794226155,13.755782707233353,23.050743372719587,77,10,0.0,16399,383655311792507,19,27.9,167.376708984375,0.04230000078678131,19,10777.862123343388,0.0032646714781548623,1.56109798E9,,,,0,,5,-5.35,1.56109798E9,304.0,NaN,NaN
Raw,232109921329648,648914169000000,,,-1265581155274918785,0.1953577995300293,50.642465794226155,13.755782707233353,23.050743372719587,77,1,0.0,23567,383669360086615,35,22.8,365.4114074707031,0.750499963760376,16,0.0,0.0,1.57542003E9,,,,0,,6,-3.13,1.57542003E9,304.0,NaN,NaN
Raw,232109921329648,648914169000000,,,-1265581155274918785,0.1953577995300293,50.642465794226155,13.755782707233353,23.050743372719587,77,4,0.0,23567,383669358277543,14,30.6,486.835693359375,0.04990000277757645,25,30857.84081800828,0.005233075867304602,1.57542003E9,,,,0,,6,-3.13,1.57542003E9,304.0,NaN,NaN
Raw,232109921329648,648914169000000,,,-1265581155274918785,0.1953577995300293,50.642465794226155,13.755782707233353,23.050743372719587,77,5,0.0,23567,383669358140527,17,28.0,-436.1987609863281,0.05220000073313713,25,-9785.357710341728,0.006565131413727744,1.57542003E9,,,,0,,6,-3.13,1.57542003E9,304.0,NaN,NaN
Raw,232109921329648,648914169000000,,,-1265581155274918785,0.1953577995300293,50.642465794226155,13.755782707233353,23.050743372719587,77,9,0.0,23567,383669372264873,11,33.5,28.993085861206055,0.04520000144839287,25,1929.192610472885,0.003596550258902148,1.57542003E9,,,,0,,6,-3.13,1.57542003E9,304.0,NaN,NaN
Raw,232109921329648,648914169000000,,,-1265581155274918785,0.1953577995300293,50.642465794226155,13.755782707233353,23.050743372719587,77,24,0.0,23567,383669361259864,19,27.1,-564.390869140625,0.05130000039935112,19,-10424.437916616116,0.007212130206821385,1.57542003E9,,,,0,,6,-3.13,1.57542003E9,304.0,NaN,NaN
Raw,232109921329648,648914169000000,,,-1265581155274918785,0.1953577995300293,50.642465794226155,13.755782707233353,23.050743372719587,77,31,0.0,23567,383669364901290,10,34.3,-177.5151824951172,0.044600002467632294,25,-11201.799230773846,0.003311109885939926,1.57542003E9,,,,0,,6,-3.13,1.57542003E9,304.0,NaN,NaN
Raw,232109921329648,648914169000000,,,-1265581155274918785,0.1953577995300293,50.642465794226155,13.755782707233353,23.050743372719587,77,1,0.0,81935,383669360093683,7,24.8,365.9034118652344,0.07510000467300415,29,21176.52463620119,0.25482803839368795,1.17645005E9,,,,0,,6,-3.99,1.17645005E9,304.0,NaN,NaN
Raw,232109921329648,648914169000000,,,-1265581155274918785,0.1953577995300293,50.642465794226155,13.755782707233353,23.050743372719587,77,9,0.0,81935,383669372271948,8,22.7,29.1905517578125,0.7444999814033508,16,0.0,0.0,1.17645005E9,,,,0,,6,-3.99,1.17645005E9,304.0,NaN,NaN
Raw,232109921329648,648914169000000,,,-1265581155274918785,0.1953577995300293,50.642465794226155,13.755782707233353,23.050743372719587,77,31,0.0,81935,383669364908356,11,19.4,-178.95298767089844,0.92249995470047,16,0.0,0.0,1.17645005E9,,,,0,,6,-3.99,1.17645005E9,304.0,NaN,NaN
Fix,gps,51.524614,-0.134188,77.900391,0.320000,3.790092,1582194853000,232110903141100
Raw,232110941816312,648915169000000,,,-1265581155274918770,0.3200364112854004,57.58559564128518,14.47791333212372,28.32244756021947,77,5,0.0,16399,383670364000892,40,21.6,717.3500366210938,0.8374999761581421,16,0.0,0.0,1.57542003E9,,,,0,,1,-3.73,1.57542003E9,304.0,NaN,NaN
Raw,232110941816312,648915169000000,,,-1265581155274918770,0.3200364112854004,57.58559564128518,14.47791333212372,28.32244756021947,77,13,0.0,16399,383670376257263,7,37.7,179.70437622070312,0.04340000078082085,25,11883.782707656235,0.0010085564157135064,1.57542003E9,,,,0,,1,-3.73,1.57542003E9,304.0,NaN,NaN
Raw,232110941816312,648915169000000,,,-1265581155274918770,0.3200364112854004,57.58559564128518,14.47791333212372,28.32244756021947,77,15,0.0,16399,383670376027206,11,33.2,-160.51348876953125,0.04520000144839287,29,-10104.299948960157,0.001655554942969963,1.57542003E9,,,,0,,1,-3.73,1.57542003E9,304.0,NaN,NaN
Raw,232110941816312,648915169000000,,,-1265581155274918770,0.3200364112854004,57.58559564128518,14.47791333212372,28.32244756021947,77,17,0.0,16399,383670360640964,61,18.4,-551.2522583007812,1.0764999389648438,16,0.0,0.0,1.57542003E9,,,,0,,1,-3.73,1.57542003E9,304.0,NaN,NaN
Raw,232110941816312,648915169000000,,,-1265581155274918770,0.3200364112854004,57.58559564128518,14.47791333212372,28.32244756021947,77,20,0.0,16399,383670366732915,24,25.1,-406.1533203125,0.6255000233650208,16,0.0,0.0,1.57542003E9,,,,0,,1,-3.73,1.57542003E9,304.0,NaN,NaN
Raw,232110941816312,648915169000000,,,-1265581155274918770,0.3200364112854004,57.58559564128518,14.47791333212372,28.32244756021947,77,24,0.0,16399,383670367465189,53,19.6,-608.3212890625,1.0069999694824219,16,0.0,0.0,1.57542003E9,,,,0,,1,-3.73,1.57542003E9,304.0,NaN,NaN
Raw,232110941816312,648915169000000,,,-1265581155274918770,0.3200364112854004,57.58559564128518,14.47791333212372,28.32244756021947,77,28,0.0,16399,383670372593211,7,37.4,137.5553436279297,0.03739999979734421,25,9130.74733391442,0.0010085564157135064,1.57542003E9,,,,0,,1,-3.73,1.57542003E9,304.0,NaN,NaN
Raw,232110941816312,648915169000000,,,-1265581155274918770,0.3200364112854004,57.58559564128518,14.47791333212372,28.32244756021947,77,30,0.0,16399,383670366796992,27,24.6,575.8286743164062,0.6754999756813049,16,0.0,0.0,1.57542003E9,,,,0,,1,-3.73,1.57542003E9,304.0,NaN,NaN
Raw,232110941816312,648915169000000,,,-1265581155274918770,0.3200364112854004,57.58559564128518,14.47791333212372,28.32244756021947,77,14,0.0,49359,48852379968970,11,33.9,-93.31015014648438,0.21970000863075256,25,-5748.044469895691,0.0016320979185651513,1.59806246E9,,,,0,,3,-7.31,1.59806246E9,304.0,NaN,NaN
Raw,232110941816312,648915169000000,,,-1265581155274918770,0.3200364112854004,57.58559564128518,14.47791333212372,28.32244756021947,77,22,0.0,49359,48852366098852,27,24.9,-234.50936889648438,0.25029999017715454,27,-14925.163675893695,0.18733370372433672,1.60031245E9,,,,0,,3,-7.31,1.60031245E9,304.0,NaN,NaN
Raw,232110941816312,648915169000000,,,-1265581155274918770,0.3200364112854004,57.58559564128518,14.47791333212372,28.32244756021947,77,13,0.0,49359,48852373879994,17,28.9,611.9457397460938,0.24469999969005585,25,39351.35351251068,0.002958832253614959,1.60087501E9,,,,0,,3,-7.31,1.60087501E9,304.0,NaN,NaN
Raw,232110941816312,648915169000000,,,-1265581155274918770,0.3200364112854004,57.58559564128518,14.47791333212372,28.32244756021947,77,15,0.0,49359,48852370928656,21,26.2,-691.0811767578125,0.24170000851154327,29,-43719.27780111244,0.005352100032671997,1.602E9,,,,0,,3,-7.31,1.602E9,304.0,NaN,NaN
Raw,232110941816312,648915169000000,,,-1265581155274918770,0.3200364112854004,57.58559564128518,14.47791333212372,28.32244756021947,77,5,0.0,49359,48852373980849,24,25.9,-605.0696411132812,0.25279998779296875,27,-38062.75003680039,0.18707067385874782,1.60256256E9,,,,0,,3,-7.31,1.60256256E9,304.0,NaN,NaN
Raw,232110941816312,648915169000000,,,-1265581155274918770,0.3200364112854004,57.58559564128518,14.47791333212372,28.32244756021947,77,3,0.0,49359,48852370823858,11,33.5,743.3482055664062,0.2362000048160553,25,47683.93934116673,0.0016252330722257222,1.60481254E9,,,,0,,3,-7.31,1.60481254E9,304.0,NaN,NaN
Raw,232110941816312,648915169000000,,,-1265581155274918770,0.3200364112854004,57.58559564128518,14.47791333212372,28.32244756021947,77,4,0.0,49359,48852379750020,9,35.5,135.1699981689453,0.21860000491142273,25,8772.0284797058,0.0013072006865361828,1.60537498E9,,,,0,,3,-7.31,1.60537498E9,304.0,NaN,NaN
Raw,232110941816312,648915169000000,,,-1265581155274918770,0.3200364112854004,57.58559564128518,14.47791333212372,28.32244756021947,77,37,0.0,16399,383656365074775,9,35.5,458.96820068359375,0.0276000015437603,17,29778.882096152058,0.0013442764594430532,1.56109798E9,,,,0,,5,-6.09,1.56109798E9,304.0,NaN,NaN
Raw,232110941816312,648915169000000,,,-1265581155274918770,0.3200364112854004,57.58559564128518,14.47791333212372,28.32244756021947,77,22,0.0,16399,383656363380977,12,32.0,-437.99407958984375,0.3709999918937683,16,0.0,0.0,1.56109798E9,,,,0,,5,-6.09,1.56109798E9,304.0,NaN,NaN
Raw,232110941816312,648915169000000,,,-1265581155274918770,0.3200364112854004,57.58559564128518,14.47791333212372,28.32244756021947,77,20,0.0,16399,383656361929959,12,32.6,619.92724609375,0.023100001737475395,25,40039.89274499505,0.0018243750799829725,1.56109798E9,,,,0,,5,-6.09,1.56109798E9,304.0,NaN,NaN
Raw,232110941816312,648915169000000,,,-1265581155274918770,0.3200364112854004,57.58559564128518,14.47791333212372,28.32244756021947,77,19,0.0,16399,383656370675030,27,24.0,154.70701599121094,0.6814999580383301,16,0.0,0.0,1.56109798E9,,,,0,,5,-6.09,1.56109798E9,304.0,NaN,NaN
Raw,232110941816312,648915169000000,,,-1265581155274918770,0.3200364112854004,57.58559564128518,14.47791333212372,28.32244756021947,77,10,0.0,16399,383656311791936,24,25.1,165.32810974121094,0.049800001084804535,21,10942.884380187556,0.1920394882785269,1.56109798E9,,,,0,,5,-6.09,1.56109798E9,304.0,NaN,NaN
Raw,232110941816312,648915169000000,,,-1265581155274918770,0.3200364112854004,57.58559564128518,14.47791333212372,28.32244756021947,77,1,0.0,23567,383670360085383,21,26.1,362.9837646484375,0.050700001418590546,19,200.11550385533636,0.011874324619302384,1.57542003E9,,,,0,,6,-3.86,1.57542003E9,304.0,NaN,NaN
