# 
# Header Description:
# 
# Version: v2.0.0.1 Platform: 10 Manufacturer: Google Model: Pixel 4
# 
# Raw,ElapsedRealtimeNanos,TimeNanos,LeapSecond,TimeUncertaintyNanos,FullBiasNanos,BiasNanos,BiasUncertaintyNanos,DriftNanosPerSecond,DriftUncertaintyNanosPerSecond,HardwareClockDiscontinuityCount,Svid,TimeOffsetNanos,State,ReceivedSvTimeNanos,ReceivedSvTimeUncertaintyNanos,Cn0DbHz,PseudorangeRateMetersPerSecond,PseudorangeRateUncertaintyMetersPerSecond,AccumulatedDeltaRangeState,AccumulatedDeltaRangeMeters,AccumulatedDeltaRangeUncertaintyMeters,CarrierFrequencyHz,CarrierCycles,CarrierPhase,CarrierPhaseUncertainty,MultipathIndicator,SnrInDb,ConstellationType,AgcDb,CarrierFrequencyHz,UserLatitude,UserLongitude,UserAltitude
# 
# Fix,Provider,Latitude,Longitude,Altitude,Speed,Accuracy,(UTC)TimeInMs,ElapsedRealtimeNanos
# 
# Nav,Svid,Type,Status,MessageId,Sub-messageId,Data(Bytes)
# 
Fix,gps,51.524550,-0.134280,72.198730,0.000000,3.790092,1582194611000,231868898659283
Raw,231868920993712,648673162000000,,,-1265581155277359014,-0.2726898193359375,44.18223034008406,-68.05870430479962,9.698977394074506,69,5,0.0,16399,383428360017067,31,23.0,689.5042724609375,0.10819999873638153,19,303.22726535124093,0.19029366893311156,1.57542003E9,,,,0,,1,0.35,1.57542003E9,303.0,NaN,NaN
Raw,231868920993712,648673162000000,,,-1265581155277359014,-0.2726898193359375,44.18223034008406,-68.05870430479962,9.698977394074506,69,13,0.0,16399,383428371832566,10,34.9,134.80670166015625,0.03710000216960907,25,1942.2921078201641,0.0015223494237726067,1.57542003E9,,,,0,,1,0.35,1.57542003E9,303.0,NaN,NaN
Raw,231868920993712,648673162000000,,,-1265581155277359014,-0.2726898193359375,44.18223034008406,-68.05870430479962,9.698977394074506,69,15,0.0,16399,383428371326936,11,33.8,-207.6508331298828,0.037700001150369644,21,-2890.8115184819812,0.001655554942969963,1.57542003E9,,,,0,,1,0.35,1.57542003E9,303.0,NaN,NaN
Raw,231868920993712,648673162000000,,,-1265581155277359014,-0.2726898193359375,44.18223034008406,-68.05870430479962,9.698977394074506,69,17,0.0,16399,383428355631997,70,17.3,-579.1207275390625,2.689000129699707,16,0.0,0.0,1.57542003E9,,,,0,,1,0.35,1.57542003E9,303.0,NaN,NaN
Raw,231868920993712,648673162000000,,,-1265581155277359014,-0.2726898193359375,44.18223034008406,-68.05870430479962,9.698977394074506,69,20,0.0,16399,383428361835009,11,33.9,-452.019287109375,0.022700000554323196,25,-6512.4509202416875,0.001655554942969963,1.57542003E9,,,,0,,1,0.35,1.57542003E9,303.0,NaN,NaN
Raw,231868920993712,648673162000000,,,-1265581155277359014,-0.2726898193359375,44.18223034008406,-68.05870430479962,9.698977394074506,69,24,0.0,16399,383428362410392,31,23.4,-639.4854125976562,0.11420000344514847,21,-4114.324642903666,0.19029366893311156,1.57542003E9,,,,0,,1,0.35,1.57542003E9,303.0,NaN,NaN
Raw,231868920993712,648673162000000,,,-1265581155277359014,-0.2726898193359375,44.18223034008406,-68.05870430479962,9.698977394074506,69,28,0.0,16399,383428368132619,11,33.4,87.92337799072266,0.03319999948143959,17,1280.843197854417,0.001655554942969963,1.57542003E9,,,,0,,1,0.35,1.57542003E9,303.0,NaN,NaN
Raw,231868920993712,648673162000000,,,-1265581155277359014,-0.2726898193359375,44.18223034008406,-68.05870430479962,9.698977394074506,69,30,0.0,16399,383428362699081,5,40.0,546.8086547851562,0.02160000056028366,25,7991.442499217422,7.42145288706399E-4,1.57542003E9,,,,0,,1,0.35,1.57542003E9,303.0,NaN,NaN
Raw,231868920993712,648673162000000,,,-1265581155277359014,-0.2726898193359375,44.18223034008406,-68.05870430479962,9.698977394074506,69,14,0.0,49359,48610375319598,17,28.9,-148.7761688232422,0.24770000576972961,25,-2116.881000616547,0.0029640397133290693,1.59806246E9,,,,0,,3,-1.05,1.59806246E9,303.0,NaN,NaN
Raw,231868920993712,648673162000000,,,-1265581155277359014,-0.2726898193359375,44.18223034008406,-68.05870430479962,9.698977394074506,69,22,0.0,49359,48610361332458,14,30.0,-295.5815124511719,0.22439999878406525,29,-4006.9303966814637,0.002360404669997281,1.60031245E9,,,,0,,3,-1.05,1.60031245E9,303.0,NaN,NaN
Raw,231868920993712,648673162000000,,,-1265581155277359014,-0.2726898193359375,44.18223034008406,-68.05870430479962,9.698977394074506,69,13,0.0,49359,48610369806597,12,32.6,572.5064697265625,0.23510000109672546,25,8137.821417535173,0.0017790447381518853,1.60087501E9,,,,0,,3,-1.05,1.60087501E9,303.0,NaN,NaN
Raw,231868920993712,648673162000000,,,-1265581155277359014,-0.2726898193359375,44.18223034008406,-68.05870430479962,9.698977394074506,69,15,0.0,49359,48610365803379,11,33.6,-729.260986328125,0.22870001196861267,29,-10359.288246878246,0.0016280864052631069,1.602E9,,,,0,,3,-1.05,1.602E9,303.0,NaN,NaN
Raw,231868920993712,648673162000000,,,-1265581155277359014,-0.2726898193359375,44.18223034008406,-68.05870430479962,9.698977394074506,69,5,0.0,49359,48610368925873,6,38.3,-644.798095703125,0.23110000789165497,25,-9161.927594446463,9.166463127793883E-4,1.60256256E9,,,,0,,3,-1.05,1.60256256E9,303.0,NaN,NaN
Raw,231868920993712,648673162000000,,,-1265581155277359014,-0.2726898193359375,44.18223034008406,-68.05870430479962,9.698977394074506,69,3,0.0,49359,48610366856372,12,32.3,703.89111328125,0.2305999994277954,25,10002.347775784643,0.0017746797095208008,1.60481254E9,,,,0,,3,-1.05,1.60481254E9,303.0,NaN,NaN
Raw,231868920993712,648673162000000,,,-1265581155277359014,-0.2726898193359375,44.18223034008406,-68.05870430479962,9.698977394074506,69,4,0.0,49359,48610375283432,21,26.9,75.94055938720703,0.2492000013589859,27,1074.349106484174,0.005340848325482146,1.60537498E9,,,,0,,3,-1.05,1.60537498E9,303.0,NaN,NaN
Raw,231868920993712,648673162000000,,,-1265581155277359014,-0.2726898193359375,44.18223034008406,-68.05870430479962,9.698977394074506,69,37,0.0,16399,383414360880229,7,37.3,425.4586486816406,0.01940000057220459,25,5281.651125262317,0.0010178092579723537,1.56109798E9,,,,0,,5,0.4,1.56109798E9,303.0,NaN,NaN
Raw,231868920993712,648673162000000,,,-1265581155277359014,-0.2726898193359375,44.18223034008406,-68.05870430479962,9.698977394074506,69,22,0.0,16399,383414358460119,8,36.7,-476.72796630859375,0.04660000279545784,25,-6949.986918723112,0.0011714408558922843,1.56109798E9,,,,0,,5,0.4,1.56109798E9,303.0,NaN,NaN
Raw,231868920993712,648673162000000,,,-1265581155277359014,-0.2726898193359375,44.18223034008406,-68.05870430479962,9.698977394074506,69,20,0.0,16399,383414357865406,53,19.9,586.1717529296875,1.691999912261963,16,0.0,0.0,1.56109798E9,,,,0,,5,0.4,1.56109798E9,303.0,NaN,NaN
Raw,231868920993712,648673162000000,,,-1265581155277359014,-0.2726898193359375,44.18223034008406,-68.05870430479962,9.698977394074506,69,10,0.0,16399,383414307362376,7,37.7,138.3927001953125,0.029900001361966133,25,2016.4488228505427,0.0010178092579723537,1.56109798E9,,,,0,,5,0.4,1.56109798E9,303.0,NaN,NaN
Raw,231868920993712,648673162000000,,,-1265581155277359014,-0.2726898193359375,44.18223034008406,-68.05870430479962,9.698977394074506,69,1,0.0,23567,383428355812016,5,41.5,326.3860778808594,0.040800001472234726,25,4741.387219092764,0.001484290577412798,1.57542003E9,,,,0,,6,0.25,1.57542003E9,303.0,NaN,NaN
Raw,231868920993712,648673162000000,,,-1265581155277359014,-0.2726898193359375,44.18223034008406,-68.05870430479962,9.698977394074506,69,4,0.0,23567,383428354101264,16,29.1,450.69091796875,0.05090000107884407,21,6549.390269358334,0.006146485344343376,1.57542003E9,,,,0,,6,0.25,1.57542003E9,303.0,NaN,NaN
Raw,231868920993712,648673162000000,,,-1265581155277359014,-0.2726898193359375,44.18223034008406,-68.05870430479962,9.698977394074506,69,5,0.0,23567,383428353222691,27,24.5,-470.310791015625,0.6420000195503235,16,0.0,0.0,1.57542003E9,,,,0,,6,0.25,1.57542003E9,303.0,NaN,NaN
Raw,231868920993712,648673162000000,,,-1265581155277359014,-0.2726898193359375,44.18223034008406,-68.05870430479962,9.698977394074506,69,9,0.0,23567,383428367717462,16,29.4,-14.425374031066895,0.046400003135204315,25,-104.82048439492647,0.006146485344343376,1.57542003E9,,,,0,,6,0.25,1.57542003E9,303.0,NaN,NaN
Raw,231868920993712,648673162000000,,,-1265581155277359014,-0.2726898193359375,44.18223034008406,-68.05870430479962,9.698977394074506,69,24,0.0,23567,383428356239555,46,20.1,-597.3604125976562,0.9404999613761902,16,0.0,0.0,1.57542003E9,,,,0,,6,0.25,1.57542003E9,303.0,NaN,NaN
Raw,231868920993712,648673162000000,,,-1265581155277359014,-0.2726898193359375,44.18223034008406,-68.05870430479962,9.698977394074506,69,31,0.0,23567,383428360187121,24,25.7,-222.80641174316406,0.05730000138282776,19,-564.4126474000097,0.017526047264890512,1.57542003E9,,,,0,,6,0.25,1.57542003E9,303.0,NaN,NaN
Raw,231868920993712,648673162000000,,,-1265581155277359014,-0.2726898193359375,44.18223034008406,-68.05870430479962,9.698977394074506,69,30,0.0,81935,383428362706914,3,33.3,546.8074951171875,0.02850000001490116,25,4032.106015972524,0.0022170039651624013,1.17645005E9,,,,0,,1,7.69,1.17645005E9,303.0,NaN,NaN
Raw,231868920993712,648673162000000,,,-1265581155277359014,-0.2726898193359375,44.18223034008406,-68.05870430479962,9.698977394074506,69,1,0.0,81935,383428355819095,4,29.9,326.4139709472656,0.05350000038743019,25,2719.4107478232763,0.0037714549693657518,1.17645005E9,,,,0,,6,7.69,1.17645005E9,303.0,NaN,NaN
Raw,231868920993712,648673162000000,,,-1265581155277359014,-0.2726898193359375,44.18223034008406,-68.05870430479962,9.698977394074506,69,4,0.0,81935,383428354108361,3,31.7,450.7735595703125,0.04880000278353691,25,3753.210824514909,0.0027776256465907277,1.17645005E9,,,,0,,6,7.69,1.17645005E9,303.0,NaN,NaN
Raw,231868920993712,648673162000000,,,-1265581155277359014,-0.2726898193359375,44.18223034008406,-68.05870430479962,9.698977394074506,69,5,0.0,81935,383428353229773,7,24.4,-470.33221435546875,0.09459999948740005,29,-3906.3412538442903,0.25482803839368795,1.17645005E9,,,,0,,6,7.69,1.17645005E9,303.0,NaN,NaN
Raw,231868920993712,648673162000000,,,-1265581155277359014,-0.2726898193359375,44.18223034008406,-68.05870430479962,9.698977394074506,69,9,0.0,81935,383428367724535,9,21.0,-14.442699432373047,0.05590000003576279,25,-114.67246085456215,0.34557229348499413,1.17645005E9,,,,0,,6,7.69,1.17645005E9,303.0,NaN,NaN
Raw,231868920993712,648673162000000,,,-1265581155277359014,-0.2726898193359375,44.18223034008406,-68.05870430479962,9.698977394074506,69,24,0.0,81935,383428356246442,9,21.0,-597.7868041992188,0.06939999759197235,29,-4446.162694331004,0.25482803839368795,1.17645005E9,,,,0,,6,7.69,1.17645005E9,303.0,NaN,NaN
Raw,231868920993712,648673162000000,,,-1265581155277359014,-0.2726898193359375,44.18223034008406,-68.05870430479962,9.698977394074506,69,31,0.0,81935,383428360194257,6,26.9,-222.6998291015625,0.042100001126527786,25,-1845.1092013067619,0.007288081858568245,1.17645005E9,,,,0,,6,7.69,1.17645005E9,303.0,NaN,NaN
Fix,gps,51.524561,-0.134274,71.853943,0.000000,3.790092,1582194612000,231869908042040
Raw,231869930031730,648674162000000,,,-1265581155277359084,-0.6657752990722656,44.68512997846119,-70.29948814675069,11.020104835662925,69,5,0.0,16399,383429360014941,19,27.8,689.9252319335938,0.025800000876188278,21,992.721297894149,0.003234992547669888,1.57542003E9,,,,0,,1,1.81,1.57542003E9,303.0,NaN,NaN
Raw,231869930031730,648674162000000,,,-1265581155277359084,-0.6657752990722656,44.68512997846119,-70.29948814675069,11.020104835662925,69,13,0.0,16399,383429371832092,9,35.7,135.23736572265625,0.03660000115633011,25,2077.0645401406246,0.0013320557236479321,1.57542003E9,,,,0,,1,1.81,1.57542003E9,303.0,NaN,NaN
Raw,231869930031730,648674162000000,,,-1265581155277359084,-0.6657752990722656,44.68512997846119,-70.29948814675069,11.020104835662925,69,15,0.0,16399,383429371327636,21,26.8,-207.18759155273438,0.04320000112056732,21,-3098.3876640221347,0.005442398901996786,1.57542003E9,,,,0,,1,1.81,1.57542003E9,303.0,NaN,NaN
Raw,231869930031730,648674162000000,,,-1265581155277359084,-0.6657752990722656,44.68512997846119,-70.29948814675069,11.020104835662925,69,17,0.0,16399,383429355634389,40,21.1,-579.2919921875,0.8689999580383301,16,0.0,0.0,1.57542003E9,,,,0,,1,1.81,1.57542003E9,303.0,NaN,NaN
Raw,231869930031730,648674162000000,,,-1265581155277359084,-0.6657752990722656,44.68512997846119,-70.29948814675069,11.020104835662925,69,20,0.0,16399,383429361836461,16,29.7,-451.6940002441406,0.02540000155568123,25,-6964.615238561574,0.00281634630106073,1.57542003E9,,,,0,,1,1.81,1.57542003E9,303.0,NaN,NaN
Raw,231869930031730,648674162000000,,,-1265581155277359084,-0.6657752990722656,44.68512997846119,-70.29948814675069,11.020104835662925,69,24,0.0,16399,383429362412526,31,23.6,-639.2322387695312,0.11420000344514847,21,-4753.640330636998,0.19029366893311156,1.57542003E9,,,,0,,1,1.81,1.57542003E9,303.0,NaN,NaN
Raw,231869930031730,648674162000000,,,-1265581155277359084,-0.6657752990722656,44.68512997846119,-70.29948814675069,11.020104835662925,69,28,0.0,16399,383429368132371,16,29.0,88.2468490600586,0.03590000048279762,21,1368.7969279470483,0.00281634630106073,1.57542003E9,,,,0,,1,1.81,1.57542003E9,303.0,NaN,NaN
Raw,231869930031730,648674162000000,,,-1265581155277359084,-0.6657752990722656,44.68512997846119,-70.29948814675069,11.020104835662925,69,30,0.0,16399,383429362697291,7,37.2,547.2805786132812,0.02240000106394291,25,8538.199378753496,0.0010085564157135064,1.57542003E9,,,,0,,1,1.81,1.57542003E9,303.0,NaN,NaN
Raw,231869930031730,648674162000000,,,-1265581155277359084,-0.6657752990722656,44.68512997846119,-70.29948814675069,11.020104835662925,69,14,0.0,49359,48611375320020,14,30.8,-148.307861328125,0.24540001153945923,25,-2265.7171813143786,0.0023637279898678486,1.59806246E9,,,,0,,3,0.44,1.59806246E9,303.0,NaN,NaN
Raw,231869930031730,648674162000000,,,-1265581155277359084,-0.6657752990722656,44.68512997846119,-70.29948814675069,11.020104835662925,69,22,0.0,49359,48611361333208,17,28.9,-295.0636291503906,0.22670000791549683,21,-4302.677929837741,0.002959872375920247,1.60031245E9,,,,0,,3,0.44,1.60031245E9,303.0,NaN,NaN
Raw,231869930031730,648674162000000,,,-1265581155277359084,-0.6657752990722656,44.68512997846119,-70.29948814675069,11.020104835662925,69,13,0.0,49359,48611369804723,12,32.9,572.9796752929688,0.23510000109672546,25,8710.277688832546,0.0017790447381518853,1.60087501E9,,,,0,,3,0.44,1.60087501E9,303.0,NaN,NaN
Raw,231869930031730,648674162000000,,,-1265581155277359084,-0.6657752990722656,44.68512997846119,-70.29948814675069,11.020104835662925,69,15,0.0,49359,48611365805812,6,38.2,-729.0032348632812,0.22660000622272491,25,-11088.679527009133,9.169682032598611E-4,1.602E9,,,,0,,3,0.44,1.602E9,303.0,NaN,NaN
Raw,231869930031730,648674162000000,,,-1265581155277359084,-0.6657752990722656,44.68512997846119,-70.29948814675069,11.020104835662925,69,5,0.0,49359,48611368927998,9,35.4,-644.481201171875,0.2321000099182129,25,-9806.882226448373,0.0013094947574310036,1.60256256E9,,,,0,,3,0.44,1.60256256E9,303.0,NaN,NaN
Raw,231869930031730,648674162000000,,,-1265581155277359084,-0.6657752990722656,44.68512997846119,-70.29948814675069,11.020104835662925,69,3,0.0,49359,48611366853981,12,32.4,704.3482666015625,0.2305999994277954,25,10706.20744679606,0.0017746797095208008,1.60481254E9,,,,0,,3,0.44,1.60481254E9,303.0,NaN,NaN
Raw,231869930031730,648674162000000,,,-1265581155277359084,-0.6657752990722656,44.68512997846119,-70.29948814675069,11.020104835662925,69,4,0.0,49359,48611375283247,31,23.3,75.18446350097656,0.3337000012397766,21,1150.188428430454,0.18674294945531777,1.60537498E9,,,,0,,3,0.44,1.60537498E9,303.0,NaN,NaN
Raw,231869930031730,648674162000000,,,-1265581155277359084,-0.6657752990722656,44.68512997846119,-70.29948814675069,11.020104835662925,69,37,0.0,16399,383415360878824,7,37.4,425.951171875,0.01940000057220459,25,5707.06063090416,0.0010178092579723537,1.56109798E9,,,,0,,5,1.68,1.56109798E9,303.0,NaN,NaN
Raw,231869930031730,648674162000000,,,-1265581155277359084,-0.6657752990722656,44.68512997846119,-70.29948814675069,11.020104835662925,69,22,0.0,16399,383415358461740,17,28.5,-476.5104675292969,0.05220000073313713,25,-7426.8514460880415,0.003034223768286223,1.56109798E9,,,,0,,5,1.68,1.56109798E9,303.0,NaN,NaN
Raw,231869930031730,648674162000000,,,-1265581155277359084,-0.6657752990722656,44.68512997846119,-70.29948814675069,11.020104835662925,69,20,0.0,16399,383415357863541,16,29.4,587.5811767578125,0.06440000236034393,19,7203.718547542087,0.0028421844273806814,1.56109798E9,,,,0,,5,1.68,1.56109798E9,303.0,NaN,NaN
Raw,231869930031730,648674162000000,,,-1265581155277359084,-0.6657752990722656,44.68512997846119,-70.29948814675069,11.020104835662925,69,10,0.0,16399,383415307361940,12,32.3,138.79486083984375,0.03210000321269035,25,2154.7628495913887,0.0018243750799829725,1.56109798E9,,,,0,,5,1.68,1.56109798E9,303.0,NaN,NaN
Raw,231869930031730,648674162000000,,,-1265581155277359084,-0.6657752990722656,44.68512997846119,-70.29948814675069,11.020104835662925,69,1,0.0,23567,383429355810939,8,36.4,326.81951904296875,0.042100001126527786,25,5067.715602370276,0.0025499350854412276,1.57542003E9,,,,0,,6,1.68,1.57542003E9,303.0,NaN,NaN
Raw,231869930031730,648674162000000,,,-1265581155277359084,-0.6657752990722656,44.68512997846119,-70.29948814675069,11.020104835662925,69,4,0.0,23567,383429354099749,14,30.8,451.2274475097656,0.04990000277757645,25,7000.179372523736,0.005233075867304602,1.57542003E9,,,,0,,6,1.68,1.57542003E9,303.0,NaN,NaN
Raw,231869930031730,648674162000000,,,-1265581155277359084,-0.6657752990722656,44.68512997846119,-70.29948814675069,11.020104835662925,69,5,0.0,23567,383429353224267,17,28.4,-470.20916748046875,0.050700001418590546,27,-6825.394908269495,0.006565131413727744,1.57542003E9,,,,0,,6,1.68,1.57542003E9,303.0,NaN,NaN
Raw,231869930031730,648674162000000,,,-1265581155277359084,-0.6657752990722656,44.68512997846119,-70.29948814675069,11.020104835662925,69,9,0.0,23567,383429367717495,16,29.6,-14.123126029968262,0.046400003135204315,25,-119.36576695460188,0.006146485344343376,1.57542003E9,,,,0,,6,1.68,1.57542003E9,303.0,NaN,NaN
Raw,231869930031730,648674162000000,,,-1265581155277359084,-0.6657752990722656,44.68512997846119,-70.29948814675069,11.020104835662925,69,24,0.0,23567,383429356241544,40,21.3,-595.8950805664062,0.8104999661445618,16,0.0,0.0,1.57542003E9,,,,0,,6,1.68,1.57542003E9,303.0,NaN,NaN
Raw,231869930031730,648674162000000,,,-1265581155277359084,-0.6657752990722656,44.68512997846119,-70.29948814675069,11.020104835662925,69,31,0.0,23567,383429360187644,35,22.2,-221.9204864501953,0.750499963760376,16,0.0,0.0,1.57542003E9,,,,0,,6,1.68,1.57542003E9,303.0,NaN,NaN
Raw,231869930031730,648674162000000,,,-1265581155277359084,-0.6657752990722656,44.68512997846119,-70.29948814675069,11.020104835662925,69,30,0.0,81935,383429362705095,3,32.4,547.291748046875,0.029600000008940697,25,4578.855279823591,0.0024208662868967453,1.17645005E9,,,,0,,1,8.21,1.17645005E9,303.0,NaN,NaN
Raw,231869930031730,648674162000000,,,-1265581155277359084,-0.6657752990722656,44.68512997846119,-70.29948814675069,11.020104835662925,69,1,0.0,81935,383429355818010,2,36.7,325.720947265625,0.04540000110864639,25,3045.7763160130075,0.0015544510042033504,1.17645005E9,,,,0,,6,8.21,1.17645005E9,303.0,NaN,NaN
Raw,231869930031730,648674162000000,,,-1265581155277359084,-0.6657752990722656,44.68512997846119,-70.29948814675069,11.020104835662925,69,4,0.0,81935,383429354106858,4,30.7,452.33251953125,0.4074999988079071,16,0.0,0.0,1.17645005E9,,,,0,,6,8.21,1.17645005E9,303.0,NaN,NaN
Raw,231869930031730,648674162000000,,,-1265581155277359084,-0.6657752990722656,44.68512997846119,-70.29948814675069,11.020104835662925,69,5,0.0,81935,383429353231332,8,23.2,-469.80096435546875,0.6859999895095825,16,0.0,0.0,1.17645005E9,,,,0,,6,8.21,1.17645005E9,303.0,NaN,NaN
Raw,231869930031730,648674162000000,,,-1265581155277359084,-0.6657752990722656,44.68512997846119,-70.29948814675069,11.020104835662925,69,9,0.0,81935,383429367724592,6,26.6,-15.255331993103027,0.05260000005364418,29,-129.2440695289731,0.007288081858568245,1.17645005E9,,,,0,,6,8.21,1.17645005E9,303.0,NaN,NaN
Raw,231869930031730,648674162000000,,,-1265581155277359084,-0.6657752990722656,44.68512997846119,-70.29948814675069,11.020104835662925,69,24,0.0,81935,383429356248620,9,21.8,-596.1447143554688,0.750499963760376,16,0.0,0.0,1.17645005E9,,,,0,,6,8.21,1.17645005E9,303.0,NaN,NaN
Raw,231869930031730,648674162000000,,,-1265581155277359084,-0.6657752990722656,44.68512997846119,-70.29948814675069,11.020104835662925,69,31,0.0,81935,383429360195003,4,30.8,-221.4200897216797,0.36649999022483826,16,0.0,0.0,1.17645005E9,,,,0,,6,8.21,1.17645005E9,303.0,NaN,NaN
Fix,gps,51.524560,-0.134269,71.337769,0.000000,3.790092,1582194613000,231870900806931
Raw,231870915754588,648675162000000,,,-1265581155277359158,-0.4563255310058594,50.70899351267144,-69.30687843841415,11.968090656590107,69,5,0.0,16399,383430360012625,24,25.6,692.3655395507812,0.018299998715519905,29,1684.706563528735,0.19029366893311156,1.57542003E9,,,,0,,1,-1.37,1.57542003E9,303.0,NaN,NaN
Raw,231870915754588,648675162000000,,,-1265581155277359158,-0.4563255310058594,50.70899351267144,-69.30687843841415,11.968090656590107,69,13,0.0,16399,383430371831606,9,35.2,137.61907958984375,0.03660000115633011,25,2214.2845587817937,0.0013320557236479321,1.57542003E9,,,,0,,1,-1.37,1.57542003E9,303.0,NaN,NaN
Raw,231870915754588,648675162000000,,,-1265581155277359158,-0.4563255310058594,50.70899351267144,-69.30687843841415,11.968090656590107,69,15,0.0,16399,383430371328330,24,25.8,-204.72933959960938,0.049800001084804535,29,-3303.7582451315857,0.19029366893311156,1.57542003E9,,,,0,,1,-1.37,1.57542003E9,303.0,NaN,NaN
Raw,231870915754588,648675162000000,,,-1265581155277359158,-0.4563255310058594,50.70899351267144,-69.30687843841415,11.968090656590107,69,20,0.0,16399,383430361837966,14,30.8,-449.2931213378906,0.024400001391768456,25,-7414.29604480265,0.002397700231676362,1.57542003E9,,,,0,,1,-1.37,1.57542003E9,303.0,NaN,NaN
Raw,231870915754588,648675162000000,,,-1265581155277359158,-0.4563255310058594,50.70899351267144,-69.30687843841415,11.968090656590107,69,28,0.0,16399,383430368132126,35,22.1,91.21726989746094,0.7985000014305115,16,0.0,0.0,1.57542003E9,,,,0,,1,-1.37,1.57542003E9,303.0,NaN,NaN
Raw,231870915754588,648675162000000,,,-1265581155277359158,-0.4563255310058594,50.70899351267144,-69.30687843841415,11.968090656590107,69,30,0.0,16399,383430362695452,6,39.1,549.5812377929688,0.021800000220537186,25,9087.421874242285,8.372921387687362E-4,1.57542003E9,,,,0,,1,-1.37,1.57542003E9,303.0,NaN,NaN
Raw,231870915754588,648675162000000,,,-1265581155277359158,-0.4563255310058594,50.70899351267144,-69.30687843841415,11.968090656590107,69,14,0.0,49359,48612375320495,11,33.4,-145.8784942626953,0.24369999766349792,25,-2412.032858414419,0.0016320979185651513,1.59806246E9,,,,0,,3,-2.66,1.59806246E9,303.0,NaN,NaN
Raw,231870915754588,648675162000000,,,-1265581155277359158,-0.4563255310058594,50.70899351267144,-69.30687843841415,11.968090656590107,69,22,0.0,49359,48612361334270,13,31.7,-292.63043212890625,0.2085999995470047,25,-4595.623376213647,0.002041937391252294,1.60031245E9,,,,0,,3,-2.66,1.60031245E9,303.0,NaN,NaN
Raw,231870915754588,648675162000000,,,-1265581155277359158,-0.4563255310058594,50.70899351267144,-69.30687843841415,11.968090656590107,69,13,0.0,49359,48612369802774,10,34.6,575.3397827148438,0.23409999907016754,25,9285.209815713193,0.001498143056722028,1.60087501E9,,,,0,,3,-2.66,1.60087501E9,303.0,NaN,NaN
Raw,231870915754588,648675162000000,,,-1265581155277359158,-0.4563255310058594,50.70899351267144,-69.30687843841415,11.968090656590107,69,15,0.0,49359,48612365808256,6,39.4,-726.6735229492188,0.22630000114440918,25,-11815.726151198049,8.234000050264612E-4,1.602E9,,,,0,,3,-2.66,1.602E9,303.0,NaN,NaN
Raw,231870915754588,648675162000000,,,-1265581155277359158,-0.4563255310058594,50.70899351267144,-69.30687843841415,11.968090656590107,69,5,0.0,49359,48612368930104,6,38.4,-642.0721435546875,0.23110000789165497,25,-10449.353507939753,9.166463127793883E-4,1.60256256E9,,,,0,,3,-2.66,1.60256256E9,303.0,NaN,NaN
Raw,231870915754588,648675162000000,,,-1265581155277359158,-0.4563255310058594,50.70899351267144,-69.30687843841415,11.968090656590107,69,21,0.0,49359,48612360058055,181,10.7,340.4842529296875,9.431500434875488,16,0.0,0.0,1.60424998E9,,,,0,,3,-2.66,1.60424998E9,303.0,NaN,NaN
Raw,231870915754588,648675162000000,,,-1265581155277359158,-0.4563255310058594,50.70899351267144,-69.30687843841415,11.968090656590107,69,3,0.0,49359,48612366851703,12,32.1,706.7008056640625,0.2305999994277954,25,11412.524250261558,0.0017746797095208008,1.60481254E9,,,,0,,3,-2.66,1.60481254E9,303.0,NaN,NaN
Raw,231870915754588,648675162000000,,,-1265581155277359158,-0.4563255310058594,50.70899351267144,-69.30687843841415,11.968090656590107,69,4,0.0,49359,48612375283210,35,22.0,79.3190689086914,1.0089999437332153,16,0.0,0.0,1.60537498E9,,,,0,,3,-2.66,1.60537498E9,303.0,NaN,NaN
Raw,231870915754588,648675162000000,,,-1265581155277359158,-0.4563255310058594,50.70899351267144,-69.30687843841415,11.968090656590107,69,37,0.0,16399,383416360877402,7,37.7,428.254150390625,0.004399999976158142,25,6134.952236191492,0.0010178092579723537,1.56109798E9,,,,0,,5,-1.54,1.56109798E9,303.0,NaN,NaN
Raw,231870915754588,648675162000000,,,-1265581155277359158,-0.4563255310058594,50.70899351267144,-69.30687843841415,11.968090656590107,69,22,0.0,16399,383416358463229,13,31.2,-474.100830078125,0.04910000041127205,25,-7901.369389822985,0.0020932304434118673,1.56109798E9,,,,0,,5,-1.54,1.56109798E9,303.0,NaN,NaN
Raw,231870915754588,648675162000000,,,-1265581155277359158,-0.4563255310058594,50.70899351267144,-69.30687843841415,11.968090656590107,69,20,0.0,16399,383416357861609,16,29.7,589.8858642578125,0.049400001764297485,17,7793.165134777686,0.0028421844273806814,1.56109798E9,,,,0,,5,-1.54,1.56109798E9,303.0,NaN,NaN
Raw,231870915754588,648675162000000,,,-1265581155277359158,-0.4563255310058594,50.70899351267144,-69.30687843841415,11.968090656590107,69,10,0.0,16399,383416307361463,10,34.3,141.1072998046875,0.03110000118613243,25,2295.514136719785,0.001536315979199305,1.56109798E9,,,,0,,5,-1.54,1.56109798E9,303.0,NaN,NaN
Raw,231870915754588,648675162000000,,,-1265581155277359158,-0.4563255310058594,50.70899351267144,-69.30687843841415,11.968090656590107,69,1,0.0,23567,383430355809828,6,39.6,329.2297668457031,0.04130000248551369,25,5396.5250335001165,0.0018458486430946374,1.57542003E9,,,,0,,6,-1.5,1.57542003E9,303.0,NaN,NaN
Raw,231870915754588,648675162000000,,,-1265581155277359158,-0.4563255310058594,50.70899351267144,-69.30687843841415,11.968090656590107,69,4,0.0,23567,383430354098228,13,31.9,453.5881042480469,0.04910000041127205,25,7453.351467976762,0.004528989424958011,1.57542003E9,,,,0,,6,-1.5,1.57542003E9,303.0,NaN,NaN
Raw,231870915754588,648675162000000,,,-1265581155277359158,-0.4563255310058594,50.70899351267144,-69.30687843841415,11.968090656590107,69,5,0.0,23567,383430353225785,46,20.0,-468.3412780761719,0.9419999718666077,16,0.0,0.0,1.57542003E9,,,,0,,6,-1.5,1.57542003E9,303.0,NaN,NaN
Raw,231870915754588,648675162000000,,,-1265581155277359158,-0.4563255310058594,50.70899351267144,-69.30687843841415,11.968090656590107,69,9,0.0,23567,383430367717558,14,30.3,-11.684823989868164,0.04540000110864639,25,-131.45773328654707,0.005233075867304602,1.57542003E9,,,,0,,6,-1.5,1.57542003E9,303.0,NaN,NaN
Raw,231870915754588,648675162000000,,,-1265581155277359158,-0.4563255310058594,50.70899351267144,-69.30687843841415,11.968090656590107,69,24,0.0,23567,383430356243608,27,24.6,-594.5916137695312,0.640500009059906,16,0.0,0.0,1.57542003E9,,,,0,,6,-1.5,1.57542003E9,303.0,NaN,NaN
Raw,231870915754588,648675162000000,,,-1265581155277359158,-0.4563255310058594,50.70899351267144,-69.30687843841415,11.968090656590107,69,31,0.0,23567,383430360188381,27,24.4,-220.52182006835938,0.640500009059906,16,0.0,0.0,1.57542003E9,,,,0,,6,-1.5,1.57542003E9,303.0,NaN,NaN
Raw,231870915754588,648675162000000,,,-1265581155277359158,-0.4563255310058594,50.70899351267144,-69.30687843841415,11.968090656590107,69,30,0.0,81935,383430362703261,3,32.7,549.5856323242188,0.029600000008940697,25,5128.1002241818405,0.0024208662868967453,1.17645005E9,,,,0,,1,1.37,1.17645005E9,303.0,NaN,NaN
Raw,231870915754588,648675162000000,,,-1265581155277359158,-0.4563255310058594,50.70899351267144,-69.30687843841415,11.968090656590107,69,1,0.0,81935,383430355816914,2,35.2,329.4550476074219,0.04610000178217888,25,3374.6044684522903,0.0017837963238157039,1.17645005E9,,,,0,,6,1.37,1.17645005E9,303.0,NaN,NaN
Raw,231870915754588,648675162000000,,,-1265581155277359158,-0.4563255310058594,50.70899351267144,-69.30687843841415,11.968090656590107,69,4,0.0,81935,383430354105351,4,30.6,453.7510681152344,0.050200000405311584,27,4657.1434362928,0.0032108332879374254,1.17645005E9,,,,0,,6,1.37,1.17645005E9,303.0,NaN,NaN
Raw,231870915754588,648675162000000,,,-1265581155277359158,-0.4563255310058594,50.70899351267144,-69.30687843841415,11.968090656590107,69,5,0.0,81935,383430353232896,8,22.5,-467.7407531738281,0.05620000138878822,27,-4851.390179538353,0.25482803839368795,1.17645005E9,,,,0,,6,1.37,1.17645005E9,303.0,NaN,NaN
Raw,231870915754588,648675162000000,,,-1265581155277359158,-0.4563255310058594,50.70899351267144,-69.30687843841415,11.968090656590107,69,9,0.0,81935,383430367724641,7,24.7,-11.41421890258789,0.08560000360012054,29,-141.3286748193645,0.0411037634920868,1.17645005E9,,,,0,,6,1.37,1.17645005E9,303.0,NaN,NaN
Raw,231870915754588,648675162000000,,,-1265581155277359158,-0.4563255310058594,50.70899351267144,-69.30687843841415,11.968090656590107,69,24,0.0,81935,383430356250606,12,18.4,-593.9786987304688,1.0205000638961792,16,0.0,0.0,1.17645005E9,,,,0,,6,1.37,1.17645005E9,303.0,NaN,NaN
Raw,231870915754588,648675162000000,,,-1265581155277359158,-0.4563255310058594,50.70899351267144,-69.30687843841415,11.968090656590107,69,31,0.0,81935,383430360195741,4,29.5,-219.65518188476562,0.01599999889731407,27,-2288.2310999312217,0.25482803839368795,1.17645005E9,,,,0,,6,1.37,1.17645005E9,303.0,NaN,NaN
Fix,gps,51.524564,-0.134263,70.660156,0.000000,3.790092,1582194614000,231871901603749
Raw,231871925307501,648676162000000,,,-1265581155277359214,-0.3356800079345703,50.8271150465589,-61.64310134625833,9.694662211435038,69,5,0.0,16399,383431360010384,21,26.6,689.9573364257812,0.02670000120997429,21,2375.9074039848097,0.005442398901996786,1.57542003E9,,,,0,,1,-0.49,1.57542003E9,303.0,NaN,NaN
Raw,231871925307501,648676162000000,,,-1265581155277359214,-0.3356800079345703,50.8271150465589,-61.64310134625833,9.694662211435038,69,13,0.0,16399,383431371831170,10,34.4,135.24819946289062,0.03710000216960907,25,2350.9262317248895,0.0015223494237726067,1.57542003E9,,,,0,,1,-0.49,1.57542003E9,303.0,NaN,NaN
Raw,231871925307501,648676162000000,,,-1265581155277359214,-0.3356800079345703,50.8271150465589,-61.64310134625833,9.694662211435038,69,15,0.0,16399,383431371329116,31,23.3,-207.2535400390625,0.12770000100135803,21,-3509.5262385385113,0.19029366893311156,1.57542003E9,,,,0,,1,-0.49,1.57542003E9,303.0,NaN,NaN
Raw,231871925307501,648676162000000,,,-1265581155277359214,-0.3356800079345703,50.8271150465589,-61.64310134625833,9.694662211435038,69,17,0.0,16399,383431355638130,70,17.7,-578.5689086914062,1.9390000104904175,16,0.0,0.0,1.57542003E9,,,,0,,1,-0.49,1.57542003E9,303.0,NaN,NaN
Raw,231871925307501,648676162000000,,,-1265581155277359214,-0.3356800079345703,50.8271150465589,-61.64310134625833,9.694662211435038,69,20,0.0,16399,383431361839431,16,29.3,-451.74700927734375,0.02540000155568123,25,-7864.566763496453,0.00281634630106073,1.57542003E9,,,,0,,1,-0.49,1.57542003E9,303.0,NaN,NaN
Raw,231871925307501,648676162000000,,,-1265581155277359214,-0.3356800079345703,50.8271150465589,-61.64310134625833,9.694662211435038,69,28,0.0,16399,383431368131850,61,18.2,90.25629425048828,1.088499903678894,16,0.0,0.0,1.57542003E9,,,,0,,1,-0.49,1.57542003E9,303.0,NaN,NaN
Raw,231871925307501,648676162000000,,,-1265581155277359214,-0.3356800079345703,50.8271150465589,-61.64310134625833,9.694662211435038,69,30,0.0,16399,383431362693621,7,37.8,547.1007080078125,0.02240000106394291,25,9636.004467116853,0.0010085564157135064,1.57542003E9,,,,0,,1,-0.49,1.57542003E9,303.0,NaN,NaN
Raw,231871925307501,648676162000000,,,-1265581155277359214,-0.3356800079345703,50.8271150465589,-61.64310134625833,9.694662211435038,69,14,0.0,49359,48613375321038,12,32.5,-148.21624755859375,0.24410000443458557,25,-2558.888416670305,0.0017821758057520194,1.59806246E9,,,,0,,3,-1.92,1.59806246E9,303.0,NaN,NaN
Raw,231871925307501,648676162000000,,,-1265581155277359214,-0.3356800079345703,50.8271150465589,-61.64310134625833,9.694662211435038,69,22,0.0,49359,48613361335303,16,29.3,-295.0299987792969,0.22540000081062317,25,-4889.207553817592,0.00277253881595763,1.60031245E9,,,,0,,3,-1.92,1.60031245E9,303.0,NaN,NaN
Raw,231871925307501,648676162000000,,,-1265581155277359214,-0.3356800079345703,50.8271150465589,-61.64310134625833,9.694662211435038,69,13,0.0,49359,48613369800846,12,32.7,572.9259033203125,0.23510000109672546,25,9859.559382586465,0.0017790447381518853,1.60087501E9,,,,0,,3,-1.92,1.60087501E9,303.0,NaN,NaN
Raw,231871925307501,648676162000000,,,-1265581155277359214,-0.3356800079345703,50.8271150465589,-61.64310134625833,9.694662211435038,69,15,0.0,49359,48613365810707,7,37.0,-729.1033325195312,0.22690001130104065,25,-12543.389803932256,9.918227095612844E-4,1.602E9,,,,0,,3,-1.92,1.602E9,303.0,NaN,NaN
Raw,231871925307501,648676162000000,,,-1265581155277359214,-0.3356800079345703,50.8271150465589,-61.64310134625833,9.694662211435038,69,5,0.0,49359,48613368932260,8,36.4,-644.4876098632812,0.23160000145435333,25,-11092.415719465907,0.0011411310885165566,1.60256256E9,,,,0,,3,-1.92,1.60256256E9,303.0,NaN,NaN
Raw,231871925307501,648676162000000,,,-1265581155277359214,-0.3356800079345703,50.8271150465589,-61.64310134625833,9.694662211435038,69,3,0.0,49359,48613366849320,12,32.0,704.263671875,0.2305999994277954,25,12118.214648627118,0.0017746797095208008,1.60481254E9,,,,0,,3,-1.92,1.60481254E9,303.0,NaN,NaN
Raw,231871925307501,648676162000000,,,-1265581155277359214,-0.3356800079345703,50.8271150465589,-61.64310134625833,9.694662211435038,69,37,0.0,16399,383417360875983,8,36.5,425.7869567871094,0.019600000232458115,25,6562.212419968766,0.0011714408558922843,1.56109798E9,,,,0,,5,-0.53,1.56109798E9,303.0,NaN,NaN
Raw,231871925307501,648676162000000,,,-1265581155277359214,-0.3356800079345703,50.8271150465589,-61.64310134625833,9.694662211435038,69,22,0.0,16399,383417358464805,17,28.2,-476.447265625,0.05220000073313713,25,-8376.441553034707,0.003034223768286223,1.56109798E9,,,,0,,5,-0.53,1.56109798E9,303.0,NaN,NaN
Raw,231871925307501,648676162000000,,,-1265581155277359214,-0.3356800079345703,50.8271150465589,-61.64310134625833,9.694662211435038,69,20,0.0,16399,383417357859605,16,29.9,587.5574951171875,0.049400001764297485,21,8382.020484114504,0.0028421844273806814,1.56109798E9,,,,0,,5,-0.53,1.56109798E9,303.0,NaN,NaN
Raw,231871925307501,648676162000000,,,-1265581155277359214,-0.3356800079345703,50.8271150465589,-61.64310134625833,9.694662211435038,69,10,0.0,16399,383417307360987,9,35.0,138.6575927734375,0.03060000203549862,25,2435.6219375581472,0.0013442764594430532,1.56109798E9,,,,0,,5,-0.53,1.56109798E9,303.0,NaN,NaN
Raw,231871925307501,648676162000000,,,-1265581155277359214,-0.3356800079345703,50.8271150465589,-61.64310134625833,9.694662211435038,69,1,0.0,23567,383431355808731,6,38.2,326.8826599121094,0.041600000113248825,25,5724.733764962624,0.0020551716777868216,1.57542003E9,,,,0,,6,-0.61,1.57542003E9,303.0,NaN,NaN
Raw,231871925307501,648676162000000,,,-1265581155277359214,-0.3356800079345703,50.8271150465589,-61.64310134625833,9.694662211435038,69,4,0.0,23567,383431354096711,13,31.7,451.2191467285156,0.04910000041127205,25,7905.864269116132,0.004528989424958011,1.57542003E9,,,,0,,6,-0.61,1.57542003E9,303.0,NaN,NaN
Raw,231871925307501,648676162000000,,,-1265581155277359214,-0.3356800079345703,50.8271150465589,-61.64310134625833,9.694662211435038,69,5,0.0,23567,383431353227407,35,22.6,-469.94927978515625,0.7519999742507935,16,0.0,0.0,1.57542003E9,,,,0,,6,-0.61,1.57542003E9,303.0,NaN,NaN
Raw,231871925307501,648676162000000,,,-1265581155277359214,-0.3356800079345703,50.8271150465589,-61.64310134625833,9.694662211435038,69,9,0.0,23567,383431367717583,13,31.0,-14.00380802154541,0.044600002467632294,25,-144.15353042921598,0.004528989424958011,1.57542003E9,,,,0,,6,-0.61,1.57542003E9,303.0,NaN,NaN
Raw,231871925307501,648676162000000,,,-1265581155277359214,-0.3356800079345703,50.8271150465589,-61.64310134625833,9.694662211435038,69,24,0.0,23567,383431356245529,31,23.1,-596.8085327148438,0.750499963760376,16,0.0,0.0,1.57542003E9,,,,0,,6,-0.61,1.57542003E9,303.0,NaN,NaN
Raw,231871925307501,648676162000000,,,-1265581155277359214,-0.3356800079345703,50.8271150465589,-61.64310134625833,9.694662211435038,69,31,0.0,23567,383431360189068,31,23.6,-222.34864807128906,0.6904999613761902,16,0.0,0.0,1.57542003E9,,,,0,,6,-0.61,1.57542003E9,303.0,NaN,NaN
Raw,231871925307501,648676162000000,,,-1265581155277359214,-0.3356800079345703,50.8271150465589,-61.64310134625833,9.694662211435038,69,30,0.0,81935,383431362701429,6,25.5,546.9381103515625,0.057500001043081284,29,5676.704545979058,0.25482803839368795,1.17645005E9,,,,0,,1,-0.58,1.17645005E9,303.0,NaN,NaN
Raw,231871925307501,648676162000000,,,-1265581155277359214,-0.3356800079345703,50.8271150465589,-61.64310134625833,9.694662211435038,69,1,0.0,81935,383431355815819,4,30.1,327.6372375488281,0.05170000344514847,25,3702.8186129622295,0.0032108332879374254,1.17645005E9,,,,0,,6,-0.58,1.17645005E9,303.0,NaN,NaN
Raw,231871925307501,648676162000000,,,-1265581155277359214,-0.3356800079345703,50.8271150465589,-61.64310134625833,9.694662211435038,69,4,0.0,81935,383431354103837,8,23.1,451.4200439453125,0.0552000030875206,29,5109.669592921271,0.34557229348499413,1.17645005E9,,,,0,,6,-0.58,1.17645005E9,303.0,NaN,NaN
Raw,231871925307501,648676162000000,,,-1265581155277359214,-0.3356800079345703,50.8271150465589,-61.64310134625833,9.694662211435038,69,9,0.0,81935,383431367724672,10,20.4,-13.570357322692871,0.08619999885559082,29,-154.03543133739566,0.34557229348499413,1.17645005E9,,,,0,,6,-0.58,1.17645005E9,303.0,NaN,NaN
Raw,231871925307501,648676162000000,,,-1265581155277359214,-0.3356800079345703,50.8271150465589,-61.64310134625833,9.694662211435038,69,31,0.0,81935,383431360196474,8,23.9,-221.87911987304688,0.03420000150799751,29,-2509.1903261849307,0.25482803839368795,1.17645005E9,,,,0,,6,-0.58,1.17645005E9,303.0,NaN,NaN
Fix,gps,51.524575,-0.134255,71.204712,0.700000,4.844451,1582194615000,231872899266296
Raw,231872910416141,648677162000000,,,-1265581155277359281,-0.15248680114746094,64.85402991529554,-69.89410592450373,27.639834337716714,69,5,0.0,16399,383432360008064,31,23.4,681.6890258789062,0.7264999747276306,16,0.0,0.0,1.57542003E9,,,,0,,1,-3.48,1.57542003E9,303.0,NaN,NaN
Raw,231872910416141,648677162000000,,,-1265581155277359281,-0.15248680114746094,64.85402991529554,-69.89410592450373,27.639834337716714,69,13,0.0,16399,383432371830693,11,33.0,126.73359680175781,0.037700001150369644,25,2481.195994313658,0.001655554942969963,1.57542003E9,,,,0,,1,-3.48,1.57542003E9,303.0,NaN,NaN
Raw,231872910416141,648677162000000,,,-1265581155277359281,-0.15248680114746094,64.85402991529554,-69.89410592450373,27.639834337716714,69,15,0.0,16399,383432371329687,31,23.4,-216.51614379882812,0.7429999709129333,16,0.0,0.0,1.57542003E9,,,,0,,1,-3.48,1.57542003E9,303.0,NaN,NaN
Raw,231872910416141,648677162000000,,,-1265581155277359281,-0.15248680114746094,64.85402991529554,-69.89410592450373,27.639834337716714,69,20,0.0,16399,383432361840981,21,26.2,-459.7209777832031,0.578000009059906,16,0.0,0.0,1.57542003E9,,,,0,,1,-3.48,1.57542003E9,303.0,NaN,NaN
Raw,231872910416141,648677162000000,,,-1265581155277359281,-0.15248680114746094,64.85402991529554,-69.89410592450373,27.639834337716714,69,28,0.0,16399,383432368131439,46,20.8,79.56178283691406,0.8585000038146973,16,0.0,0.0,1.57542003E9,,,,0,,1,-3.48,1.57542003E9,303.0,NaN,NaN
Raw,231872910416141,648677162000000,,,-1265581155277359281,-0.15248680114746094,64.85402991529554,-69.89410592450373,27.639834337716714,69,30,0.0,16399,383432362691821,8,36.5,538.5902709960938,0.022600000724196434,25,10178.147223927612,0.001160791358090767,1.57542003E9,,,,0,,1,-3.48,1.57542003E9,303.0,NaN,NaN
Raw,231872910416141,648677162000000,,,-1265581155277359281,-0.15248680114746094,64.85402991529554,-69.89410592450373,27.639834337716714,69,14,0.0,49359,48614375321484,21,26.7,-156.6438751220703,0.7489999532699585,16,0.0,0.0,1.59806246E9,,,,0,,3,-6.47,1.59806246E9,303.0,NaN,NaN
Raw,231872910416141,648677162000000,,,-1265581155277359281,-0.15248680114746094,64.85402991529554,-69.89410592450373,27.639834337716714,69,22,0.0,49359,48614361336333,21,26.4,-303.0871887207031,0.7279999852180481,16,0.0,0.0,1.60031245E9,,,,0,,3,-6.47,1.60031245E9,303.0,NaN,NaN
Raw,231872910416141,648677162000000,,,-1265581155277359281,-0.15248680114746094,64.85402991529554,-69.89410592450373,27.639834337716714,69,13,0.0,49359,48614369798936,14,30.1,564.4177856445312,0.23640000820159912,25,10427.514995914686,0.0023595752053329456,1.60087501E9,,,,0,,3,-6.47,1.60087501E9,303.0,NaN,NaN
Raw,231872910416141,648677162000000,,,-1265581155277359281,-0.15248680114746094,64.85402991529554,-69.89410592450373,27.639834337716714,69,15,0.0,49359,48614365813092,13,31.7,-737.645263671875,0.22960001230239868,25,-13277.480846880788,0.0020397864077763375,1.602E9,,,,0,,3,-6.47,1.602E9,303.0,NaN,NaN
Raw,231872910416141,648677162000000,,,-1265581155277359281,-0.15248680114746094,64.85402991529554,-69.89410592450373,27.639834337716714,69,5,0.0,49359,48614368934462,12,32.5,-652.9983520507812,0.23360000550746918,25,-11741.864725150412,0.0017771713445129138,1.60256256E9,,,,0,,3,-6.47,1.60256256E9,303.0,NaN,NaN
Raw,231872910416141,648677162000000,,,-1265581155277359281,-0.15248680114746094,64.85402991529554,-69.89410592450373,27.639834337716714,69,3,0.0,49359,48614366846941,13,31.0,695.7529907226562,0.23110000789165497,25,12817.51133283992,0.002036211542260784,1.60481254E9,,,,0,,3,-6.47,1.60481254E9,303.0,NaN,NaN
Raw,231872910416141,648677162000000,,,-1265581155277359281,-0.15248680114746094,64.85402991529554,-69.89410592450373,27.639834337716714,69,37,0.0,16399,383418360874568,10,34.2,417.2746276855469,0.020600000396370888,25,6983.044322274201,0.001536315979199305,1.56109798E9,,,,0,,5,-5.26,1.56109798E9,303.0,NaN,NaN
Raw,231872910416141,648677162000000,,,-1265581155277359281,-0.15248680114746094,64.85402991529554,-69.89410592450373,27.639834337716714,69,22,0.0,16399,383418358466365,35,22.3,-484.36199951171875,0.8134999871253967,16,0.0,0.0,1.56109798E9,,,,0,,5,-5.26,1.56109798E9,303.0,NaN,NaN
Raw,231872910416141,648677162000000,,,-1265581155277359281,-0.15248680114746094,64.85402991529554,-69.89410592450373,27.639834337716714,69,20,0.0,16399,383418357857711,27,24.4,579.37353515625,0.6919999718666077,16,0.0,0.0,1.56109798E9,,,,0,,5,-5.26,1.56109798E9,303.0,NaN,NaN
Raw,231872910416141,648677162000000,,,-1265581155277359281,-0.15248680114746094,64.85402991529554,-69.89410592450373,27.639834337716714,69,11,0.0,16399,383418350229147,80,16.8,116.72159576416016,2.6515002250671387,16,0.0,0.0,1.56109798E9,,,,0,,5,-5.26,1.56109798E9,303.0,NaN,NaN
Raw,231872910416141,648677162000000,,,-1265581155277359281,-0.15248680114746094,64.85402991529554,-69.89410592450373,27.639834337716714,69,10,0.0,16399,383418307360535,14,30.2,130.08163452148438,0.033400002866983414,25,2569.280293971511,0.0024196975554572116,1.56109798E9,,,,0,,5,-5.26,1.56109798E9,303.0,NaN,NaN
Raw,231872910416141,648677162000000,,,-1265581155277359281,-0.15248680114746094,64.85402991529554,-69.89410592450373,27.639834337716714,69,1,0.0,23567,383432355807670,9,35.1,318.43072509765625,0.04260000213980675,25,6046.54654467929,0.0028924638165555576,1.57542003E9,,,,0,,6,-4.0,1.57542003E9,303.0,NaN,NaN
Raw,231872910416141,648677162000000,,,-1265581155277359281,-0.15248680114746094,64.85402991529554,-69.89410592450373,27.639834337716714,69,4,0.0,23567,383432354095247,16,29.0,442.6929626464844,0.05090000107884407,25,8351.979687306673,0.006146485344343376,1.57542003E9,,,,0,,6,-4.0,1.57542003E9,303.0,NaN,NaN
Raw,231872910416141,648677162000000,,,-1265581155277359281,-0.15248680114746094,64.85402991529554,-69.89410592450373,27.639834337716714,69,9,0.0,23567,383432367717657,17,28.4,-22.523605346679688,0.047700002789497375,25,-163.27081492726114,0.006565131413727744,1.57542003E9,,,,0,,6,-4.0,1.57542003E9,303.0,NaN,NaN
Raw,231872910416141,648677162000000,,,-1265581155277359281,-0.15248680114746094,64.85402991529554,-69.89410592450373,27.639834337716714,69,31,0.0,23567,383432360189878,40,21.1,-231.12118530273438,0.8704999685287476,16,0.0,0.0,1.57542003E9,,,,0,,6,-4.0,1.57542003E9,303.0,NaN,NaN
Raw,231872910416141,648677162000000,,,-1265581155277359281,-0.15248680114746094,64.85402991529554,-69.89410592450373,27.639834337716714,69,1,0.0,81935,383432355814748,8,22.4,318.5350341796875,0.7489999532699585,16,0.0,0.0,1.17645005E9,,,,0,,6,-4.84,1.17645005E9,303.0,NaN,NaN
Fix,gps,51.524578,-0.134249,71.399170,0.300000,4.017431,1582194616000,231873895509573
Raw,231873916761346,648678162000000,,,-1265581155277359374,-0.016523361206054688,81.1632489785552,-80.67043872858164,41.11205085396333,69,5,0.0,16399,383433360005759,53,19.8,685.3901977539062,0.9164999723434448,16,0.0,0.0,1.57542003E9,,,,0,,1,-2.89,1.57542003E9,303.0,NaN,NaN
Raw,231873916761346,648678162000000,,,-1265581155277359374,-0.016523361206054688,81.1632489785552,-80.67043872858164,41.11205085396333,69,13,0.0,16399,383433371830304,12,32.7,130.29678344726562,0.038100000470876694,25,2609.6471704031164,0.001807789796734829,1.57542003E9,,,,0,,1,-2.89,1.57542003E9,303.0,NaN,NaN
Raw,231873916761346,648678162000000,,,-1265581155277359374,-0.016523361206054688,81.1632489785552,-80.67043872858164,41.11205085396333,69,15,0.0,16399,383433371330304,14,30.9,-212.16050720214844,0.039400000125169754,19,-3932.494878612501,0.002397700231676362,1.57542003E9,,,,0,,1,-2.89,1.57542003E9,303.0,NaN,NaN
Raw,231873916761346,648678162000000,,,-1265581155277359374,-0.016523361206054688,81.1632489785552,-80.67043872858164,41.11205085396333,69,20,0.0,16399,383433361842612,19,27.1,-456.55279541015625,0.027300000190734863,19,-8780.21996800083,0.003234992547669888,1.57542003E9,,,,0,,1,-2.89,1.57542003E9,303.0,NaN,NaN
Raw,231873916761346,648678162000000,,,-1265581155277359374,-0.016523361206054688,81.1632489785552,-80.67043872858164,41.11205085396333,69,28,0.0,16399,383433368131262,31,23.9,82.90655517578125,0.12319999933242798,19,1722.9068194841025,0.19029366893311156,1.57542003E9,,,,0,,1,-2.89,1.57542003E9,303.0,NaN,NaN
Raw,231873916761346,648678162000000,,,-1265581155277359374,-0.016523361206054688,81.1632489785552,-80.67043872858164,41.11205085396333,69,30,0.0,16399,383433362689988,8,36.6,542.1641845703125,0.022600000724196434,25,10718.463659867137,0.001160791358090767,1.57542003E9,,,,0,,1,-2.89,1.57542003E9,303.0,NaN,NaN
Raw,231873916761346,648678162000000,,,-1265581155277359374,-0.016523361206054688,81.1632489785552,-80.67043872858164,41.11205085396333,69,14,0.0,49359,48615375322043,31,23.1,-152.79763793945312,0.3337000012397766,19,-2867.5226935972996,0.18759745926927673,1.59806246E9,,,,0,,3,-6.18,1.59806246E9,303.0,NaN,NaN
Raw,231873916761346,648678162000000,,,-1265581155277359374,-0.016523361206054688,81.1632489785552,-80.67043872858164,41.11205085396333,69,22,0.0,49359,48615361337365,31,23.3,-299.76202392578125,0.8679999709129333,16,0.0,0.0,1.60031245E9,,,,0,,3,-6.18,1.60031245E9,303.0,NaN,NaN
Raw,231873916761346,648678162000000,,,-1265581155277359374,-0.016523361206054688,81.1632489785552,-80.67043872858164,41.11205085396333,69,13,0.0,49359,48615369797112,21,26.3,567.9887084960938,0.240200012922287,21,10993.555054982515,0.005355861144370204,1.60087501E9,,,,0,,3,-6.18,1.60087501E9,303.0,NaN,NaN
Raw,231873916761346,648678162000000,,,-1265581155277359374,-0.016523361206054688,81.1632489785552,-80.67043872858164,41.11205085396333,69,15,0.0,49359,48615365815597,19,27.4,-733.9724731445312,0.23330000042915344,21,-14013.414197542399,0.0031813183913669513,1.602E9,,,,0,,3,-6.18,1.602E9,303.0,NaN,NaN
Raw,231873916761346,648678162000000,,,-1265581155277359374,-0.016523361206054688,81.1632489785552,-80.67043872858164,41.11205085396333,69,5,0.0,49359,48615368936597,10,34.7,-649.40869140625,0.23260000348091125,25,-12393.13944969755,0.0014965654619530243,1.60256256E9,,,,0,,3,-6.18,1.60256256E9,303.0,NaN,NaN
Raw,231873916761346,648678162000000,,,-1265581155277359374,-0.016523361206054688,81.1632489785552,-80.67043872858164,41.11205085396333,69,3,0.0,49359,48615366844638,13,31.7,699.3576049804688,0.23110000789165497,25,13514.996051540942,0.002036211542260784,1.60481254E9,,,,0,,3,-6.18,1.60481254E9,303.0,NaN,NaN
Raw,231873916761346,648678162000000,,,-1265581155277359374,-0.016523361206054688,81.1632489785552,-80.67043872858164,41.11205085396333,69,4,0.0,49359,48615375282223,27,24.8,71.69995880126953,2.389000177383423,16,0.0,0.0,1.60537498E9,,,,0,,3,-6.18,1.60537498E9,303.0,NaN,NaN
Raw,231873916761346,648678162000000,,,-1265581155277359374,-0.016523361206054688,81.1632489785552,-80.67043872858164,41.11205085396333,69,37,0.0,16399,383419360873172,9,35.7,420.87103271484375,0.020100001245737076,25,7402.067383531683,0.0013442764594430532,1.56109798E9,,,,0,,5,-5.73,1.56109798E9,303.0,NaN,NaN
Raw,231873916761346,648678162000000,,,-1265581155277359374,-0.016523361206054688,81.1632489785552,-80.67043872858164,41.11205085396333,69,22,0.0,16399,383419358468061,24,25.5,-481.34698486328125,0.643500030040741,16,0.0,0.0,1.56109798E9,,,,0,,5,-5.73,1.56109798E9,303.0,NaN,NaN
Raw,231873916761346,648678162000000,,,-1265581155277359374,-0.016523361206054688,81.1632489785552,-80.67043872858164,41.11205085396333,69,20,0.0,16399,383419357855799,31,23.3,582.211181640625,0.13670000433921814,19,9548.04733983365,0.1920394882785269,1.56109798E9,,,,0,,5,-5.73,1.56109798E9,303.0,NaN,NaN
Raw,231873916761346,648678162000000,,,-1265581155277359374,-0.016523361206054688,81.1632489785552,-80.67043872858164,41.11205085396333,69,10,0.0,16399,383419307360107,21,26.3,133.7074432373047,0.03720000013709068,21,2700.9881687795023,0.005492329335005111,1.56109798E9,,,,0,,5,-5.73,1.56109798E9,303.0,NaN,NaN
Raw,231873916761346,648678162000000,,,-1265581155277359374,-0.016523361206054688,81.1632489785552,-80.67043872858164,41.11205085396333,69,1,0.0,23567,383433355806615,12,32.8,321.6244201660156,0.04410000145435333,25,6366.494352527206,0.003958108324583987,1.57542003E9,,,,0,,6,-3.29,1.57542003E9,303.0,NaN,NaN
Raw,231873916761346,648678162000000,,,-1265581155277359374,-0.016523361206054688,81.1632489785552,-80.67043872858164,41.11205085396333,69,4,0.0,23567,383433354093750,14,30.5,445.8977966308594,0.04990000277757645,25,8796.197437520337,0.005233075867304602,1.57542003E9,,,,0,,6,-3.29,1.57542003E9,303.0,NaN,NaN
Raw,231873916761346,648678162000000,,,-1265581155277359374,-0.016523361206054688,81.1632489785552,-80.67043872858164,41.11205085396333,69,5,0.0,23567,383433353230521,70,17.5,-477.06622314453125,1.8519999980926514,16,0.0,0.0,1.57542003E9,,,,0,,6,-3.29,1.57542003E9,303.0,NaN,NaN
Raw,231873916761346,648678162000000,,,-1265581155277359374,-0.016523361206054688,81.1632489785552,-80.67043872858164,41.11205085396333,69,9,0.0,23567,383433367717734,17,28.5,-19.2434139251709,0.047700002789497375,25,-184.2292610214395,0.006565131413727744,1.57542003E9,,,,0,,6,-3.29,1.57542003E9,303.0,NaN,NaN
Raw,231873916761346,648678162000000,,,-1265581155277359374,-0.016523361206054688,81.1632489785552,-80.67043872858164,41.11205085396333,69,24,0.0,23567,383433356249571,70,17.9,-603.5830078125,1.8504999876022339,16,0.0,0.0,1.57542003E9,,,,0,,6,-3.29,1.57542003E9,303.0,NaN,NaN
Raw,231873916761346,648678162000000,,,-1265581155277359374,-0.016523361206054688,81.1632489785552,-80.67043872858164,41.11205085396333,69,31,0.0,23567,383433360190895,19,27.1,-226.9727783203125,0.5504999756813049,16,0.0,0.0,1.57542003E9,,,,0,,6,-3.29,1.57542003E9,303.0,NaN,NaN
Raw,231873916761346,648678162000000,,,-1265581155277359374,-0.016523361206054688,81.1632489785552,-80.67043872858164,41.11205085396333,69,30,0.0,81935,383433362697822,10,20.3,541.3439331054688,1.5994999408721924,16,0.0,0.0,1.17645005E9,,,,0,,1,-4.12,1.17645005E9,303.0,NaN,NaN
Raw,231873916761346,648678162000000,,,-1265581155277359374,-0.016523361206054688,81.1632489785552,-80.67043872858164,41.11205085396333,69,1,0.0,81935,383433355813678,8,22.4,321.5929870605469,0.7489999532699585,16,0.0,0.0,1.17645005E9,,,,0,,6,-4.12,1.17645005E9,303.0,NaN,NaN
Raw,231873916761346,648678162000000,,,-1265581155277359374,-0.016523361206054688,81.1632489785552,-80.67043872858164,41.11205085396333,69,4,0.0,81935,383433354100877,16,16.6,446.1529235839844,1.9375,16,0.0,0.0,1.17645005E9,,,,0,,6,-4.12,1.17645005E9,303.0,NaN,NaN
Fix,gps,51.524579,-0.134244,71.135498,0.230000,3.821834,1582194617000,231874890891807
Raw,231874910450976,648679162000000,,,-1265581155277359463,-0.4234905242919922,70.34775626379997,-86.40823512954331,30.657341511426733,69,5,0.0,16399,383434360003211,53,19.3,686.922119140625,0.9965000152587891,16,0.0,0.0,1.57542003E9,,,,0,,1,-2.6,1.57542003E9,303.0,NaN,NaN
Raw,231874910450976,648679162000000,,,-1265581155277359463,-0.4234905242919922,70.34775626379997,-86.40823512954331,30.657341511426733,69,13,0.0,16399,383434371829880,14,30.6,133.26974487304688,0.039400000125169754,25,2741.434465777949,0.002397700231676362,1.57542003E9,,,,0,,1,-2.6,1.57542003E9,303.0,NaN,NaN
Raw,231874910450976,648679162000000,,,-1265581155277359463,-0.4234905242919922,70.34775626379997,-86.40823512954331,30.657341511426733,69,15,0.0,16399,383434371331054,11,33.6,-209.20252990722656,0.037700001150369644,17,-4143.19590291843,0.001655554942969963,1.57542003E9,,,,0,,1,-2.6,1.57542003E9,303.0,NaN,NaN
Raw,231874910450976,648679162000000,,,-1265581155277359463,-0.4234905242919922,70.34775626379997,-86.40823512954331,30.657341511426733,69,17,0.0,16399,383434355644044,92,15.7,-582.9456787109375,2.879000186920166,16,0.0,0.0,1.57542003E9,,,,0,,1,-2.6,1.57542003E9,303.0,NaN,NaN
Raw,231874910450976,648679162000000,,,-1265581155277359463,-0.4234905242919922,70.34775626379997,-86.40823512954331,30.657341511426733,69,20,0.0,16399,383434361844164,27,24.3,-454.0506286621094,0.04280000180006027,21,-9235.551907516066,0.19029366893311156,1.57542003E9,,,,0,,1,-2.6,1.57542003E9,303.0,NaN,NaN
Raw,231874910450976,648679162000000,,,-1265581155277359463,-0.4234905242919922,70.34775626379997,-86.40823512954331,30.657341511426733,69,28,0.0,16399,383434368130923,16,29.9,86.53083801269531,0.03590000048279762,21,1807.9655260825045,0.00281634630106073,1.57542003E9,,,,0,,1,-2.6,1.57542003E9,303.0,NaN,NaN
Raw,231874910450976,648679162000000,,,-1265581155277359463,-0.4234905242919922,70.34775626379997,-86.40823512954331,30.657341511426733,69,30,0.0,16399,383434362688182,8,36.9,545.025146484375,0.022600000724196434,25,11262.019392927985,0.001160791358090767,1.57542003E9,,,,0,,1,-2.6,1.57542003E9,303.0,NaN,NaN
Raw,231874910450976,648679162000000,,,-1265581155277359463,-0.4234905242919922,70.34775626379997,-86.40823512954331,30.657341511426733,69,14,0.0,49359,48616375322710,35,22.6,-151.4722900390625,0.6043000221252441,29,-3019.5540264832716,0.18759745926927673,1.59806246E9,,,,0,,3,-5.86,1.59806246E9,303.0,NaN,NaN
Raw,231874910450976,648679162000000,,,-1265581155277359463,-0.4234905242919922,70.34775626379997,-86.40823512954331,30.657341511426733,69,22,0.0,49359,48616361338254,40,21.9,-296.86773681640625,0.9879999756813049,16,0.0,0.0,1.60031245E9,,,,0,,3,-5.86,1.60031245E9,303.0,NaN,NaN
Raw,231874910450976,648679162000000,,,-1265581155277359463,-0.4234905242919922,70.34775626379997,-86.40823512954331,30.657341511426733,69,13,0.0,49359,48616369795228,31,23.3,571.675048828125,0.3246999979019165,29,11563.09134018021,0.18726787319550683,1.60087501E9,,,,0,,3,-5.86,1.60087501E9,303.0,NaN,NaN
Raw,231874910450976,648679162000000,,,-1265581155277359463,-0.4234905242919922,70.34775626379997,-86.40823512954331,30.657341511426733,69,15,0.0,49359,48616365818079,27,24.0,-730.9207153320312,0.24880000948905945,29,-14745.884028029664,0.18713636579275905,1.602E9,,,,0,,3,-5.86,1.602E9,303.0,NaN,NaN
Raw,231874910450976,648679162000000,,,-1265581155277359463,-0.4234905242919922,70.34775626379997,-86.40823512954331,30.657341511426733,69,5,0.0,49359,48616368938759,8,36.8,-646.484375,0.23160000145435333,25,-13041.106179917992,0.0011411310885165566,1.60256256E9,,,,0,,3,-5.86,1.60256256E9,303.0,NaN,NaN
Raw,231874910450976,648679162000000,,,-1265581155277359463,-0.4234905242919922,70.34775626379997,-86.40823512954331,30.657341511426733,69,3,0.0,49359,48616366842276,11,33.6,702.2633666992188,0.23020000755786896,25,14215.774862975759,0.0016252330722257222,1.60481254E9,,,,0,,3,-5.86,1.60481254E9,303.0,NaN,NaN
Raw,231874910450976,648679162000000,,,-1265581155277359463,-0.4234905242919922,70.34775626379997,-86.40823512954331,30.657341511426733,69,4,0.0,49359,48616375282041,13,31.1,74.73226165771484,0.24459999799728394,27,1528.5412373330257,0.002035498169654846,1.60537498E9,,,,0,,3,-5.86,1.60537498E9,303.0,NaN,NaN
Raw,231874910450976,648679162000000,,,-1265581155277359463,-0.4234905242919922,70.34775626379997,-86.40823512954331,30.657341511426733,69,37,0.0,16399,383420360871763,7,37.0,423.748779296875,0.01940000057220459,25,7824.3352359658265,0.0010178092579723537,1.56109798E9,,,,0,,5,-5.34,1.56109798E9,303.0,NaN,NaN
Raw,231874910450976,648679162000000,,,-1265581155277359463,-0.4234905242919922,70.34775626379997,-86.40823512954331,30.657341511426733,69,22,0.0,16399,383420358469561,19,27.6,-478.55242919921875,0.052800003439188004,19,-9822.505139513241,0.0032646714781548623,1.56109798E9,,,,0,,5,-5.34,1.56109798E9,303.0,NaN,NaN
Raw,231874910450976,648679162000000,,,-1265581155277359463,-0.4234905242919922,70.34775626379997,-86.40823512954331,30.657341511426733,69,20,0.0,16399,383420357853843,31,23.9,584.9465942382812,0.13670000433921814,21,10131.686962054058,0.1920394882785269,1.56109798E9,,,,0,,5,-5.34,1.56109798E9,303.0,NaN,NaN
Raw,231874910450976,648679162000000,,,-1265581155277359463,-0.4234905242919922,70.34775626379997,-86.40823512954331,30.657341511426733,69,10,0.0,16399,383420307359628,19,27.4,136.4858856201172,0.03629999980330467,21,2836.1017537745033,0.0032646714781548623,1.56109798E9,,,,0,,5,-5.34,1.56109798E9,303.0,NaN,NaN
Raw,231874910450976,648679162000000,,,-1265581155277359463,-0.4234905242919922,70.34775626379997,-86.40823512954331,30.657341511426733,69,1,0.0,23567,383434355805536,16,29.5,324.5400085449219,0.046400003135204315,25,6689.71768764636,0.006146485344343376,1.57542003E9,,,,0,,6,-3.01,1.57542003E9,303.0,NaN,NaN
Raw,231874910450976,648679162000000,,,-1265581155277359463,-0.4234905242919922,70.34775626379997,-86.40823512954331,30.657341511426733,69,4,0.0,23567,383434354092279,12,32.3,448.8040771484375,0.048600003123283386,25,9243.715893850533,0.003958108324583987,1.57542003E9,,,,0,,6,-3.01,1.57542003E9,303.0,NaN,NaN
Raw,231874910450976,648679162000000,,,-1265581155277359463,-0.4234905242919922,70.34775626379997,-86.40823512954331,30.657341511426733,69,9,0.0,23567,383434367717795,19,27.5,-16.397077560424805,0.04830000177025795,25,-201.90838228819757,0.007212130206821385,1.57542003E9,,,,0,,6,-3.01,1.57542003E9,303.0,NaN,NaN
Raw,231874910450976,648679162000000,,,-1265581155277359463,-0.4234905242919922,70.34775626379997,-86.40823512954331,30.657341511426733,69,31,0.0,23567,383434360191656,14,30.0,-224.57891845703125,0.04690000042319298,27,-348.533326669212,0.005233075867304602,1.57542003E9,,,,0,,6,-3.01,1.57542003E9,303.0,NaN,NaN
Raw,231874910450976,648679162000000,,,-1265581155277359463,-0.4234905242919922,70.34775626379997,-86.40823512954331,30.657341511426733,69,30,0.0,81935,383434362696004,7,24.6,544.5675048828125,0.6195000410079956,16,0.0,0.0,1.17645005E9,,,,0,,1,-2.01,1.17645005E9,303.0,NaN,NaN
