# 
# Header Description:
# 
# Version: v2.0.0.1 Platform: 9 Manufacturer: samsung Model: SM-G973F
# 
# Raw,ElapsedRealtimeNanos,TimeNanos,LeapSecond,TimeUncertaintyNanos,FullBiasNanos,BiasNanos,BiasUncertaintyNanos,DriftNanosPerSecond,DriftUncertaintyNanosPerSecond,HardwareClockDiscontinuityCount,Svid,TimeOffsetNanos,State,ReceivedSvTimeNanos,ReceivedSvTimeUncertaintyNanos,Cn0DbHz,PseudorangeRateMetersPerSecond,PseudorangeRateUncertaintyMetersPerSecond,AccumulatedDeltaRangeState,AccumulatedDeltaRangeMeters,AccumulatedDeltaRangeUncertaintyMeters,CarrierFrequencyHz,CarrierCycles,CarrierPhase,CarrierPhaseUncertainty,MultipathIndicator,SnrInDb,ConstellationType,AgcDb,CarrierFrequencyHz,UserLatitude,UserLongitude,UserAltitude
# 
# Fix,Provider,Latitude,Longitude,Altitude,Speed,Accuracy,(UTC)TimeInMs,ElapsedRealtimeNanos
# 
# Nav,Svid,Type,Status,MessageId,Sub-messageId,Data(Bytes)
# 
Fix,gps,51.524748,-0.134398,80.917433,0.000000,6.000000,1581413383000,1188631186855687
Raw,1188631190916610,10767000000,,,-1265448590233346618,0.0,22.148886106646266,,,27,5,0.0,16431,207000931345812,14,42.616661071777344,242.71240605408596,0.0023909069132059813,25,2531.281983611948,0.0011954534566029906,1.57542003E9,,,,0,,1,34.6890754699707,1.57542003E9,25.0,NaN,NaN
Raw,1188631190916610,10767000000,,,-1265448590233346618,0.0,22.148886106646266,,,27,7,0.0,16431,207000925143352,14,45.481815338134766,473.10677896895237,0.001812106347642839,25,4959.725058634847,9.060531738214195E-4,1.57542003E9,,,,0,,1,34.6890754699707,1.57542003E9,25.0,NaN,NaN
Raw,1188631190916610,10767000000,,,-1265448590233346618,0.0,22.148886106646266,,,27,8,0.0,16397,207000916207139,54,26.493263244628906,-290.98036994421113,1.296022021293708,20,-2746.1125258634656,3.4028234663852886E38,1.57542003E9,,,,0,,1,34.6890754699707,1.57542003E9,25.0,NaN,NaN
Raw,1188631190916610,10767000000,,,-1265448590233346618,0.0,22.148886106646266,,,27,13,0.0,16431,207000930737216,13,43.58963394165039,-356.2554806186732,0.002137538744136691,25,-3737.9988369907046,0.0010687693720683455,1.57542003E9,,,,0,,1,34.6890754699707,1.57542003E9,25.0,NaN,NaN
Raw,1188631190916610,10767000000,,,-1265448590233346618,0.0,22.148886106646266,,,27,15,0.0,16384,207000923946004,1000000000,15.837038040161133,-615.0050447855479,2.99792458E8,20,-5773.3674853323155,3.4028234663852886E38,1.57542003E9,,,,1,,1,34.6890754699707,1.57542003E9,25.0,NaN,NaN
Raw,1188631190916610,10767000000,,,-1265448590233346618,0.0,22.148886106646266,,,27,21,0.0,16385,207000917047242,77,22.24508285522461,-187.7522776893361,1.1762255149809242,20,-1765.4404052080158,3.4028234663852886E38,1.57542003E9,,,,1,,1,34.6890754699707,1.57542003E9,25.0,NaN,NaN
Raw,1188631190916610,10767000000,,,-1265448590233346618,0.0,22.148886106646266,,,27,27,0.0,16384,207000916400956,1000000000,16.745391845703125,-10.025356716338209,2.99792458E8,20,-75.58197989052272,3.4028234663852886E38,1.57542003E9,,,,1,,1,34.6890754699707,1.57542003E9,25.0,NaN,NaN
Raw,1188631190916610,10767000000,,,-1265448590233346618,0.0,22.148886106646266,,,27,28,0.0,16431,207000924797693,11,48.17734146118164,-520.5136407504506,0.001328640035353601,25,-5477.396597808137,6.643200176768005E-4,1.57542003E9,,,,0,,1,34.6890754699707,1.57542003E9,25.0,NaN,NaN
Raw,1188631190916610,10767000000,,,-1265448590233346618,0.0,22.148886106646266,,,27,30,0.0,16431,207000931536028,12,46.940765380859375,160.80178064361075,0.001531920279376209,25,1680.849949545147,7.659601396881044E-4,1.57542003E9,,,,0,,1,34.6890754699707,1.57542003E9,25.0,NaN,NaN
Raw,1188631190916610,10767000000,,,-1265448590233346618,0.0,22.148886106646266,,,27,2,0.0,32867,936592876,34,40.90541076660156,64.88902943376138,0.002867275383323431,25,667.7400025253097,0.0014336376916617155,1.59975002E9,,,,0,,3,49.67959976196289,1.59975002E9,25.0,NaN,NaN
Raw,1188631190916610,10767000000,,,-1265448590233346618,0.0,22.148886106646266,,,27,12,0.0,32867,935827508,33,42.33606719970703,-166.81878030849134,0.002429286018013954,25,-1740.8216708944492,0.001214643009006977,1.60143744E9,,,,0,,3,49.67959976196289,1.60143744E9,25.0,NaN,NaN
Raw,1188631190916610,10767000000,,,-1265448590233346618,0.0,22.148886106646266,,,27,11,0.0,32867,930124305,69,32.069297790527344,556.5334974537382,0.007466006558388472,25,6266.505696251788,0.003733003279194236,1.602E9,,,,0,,3,49.67959976196289,1.602E9,25.0,NaN,NaN
Raw,1188631190916610,10767000000,,,-1265448590233346618,0.0,22.148886106646266,,,27,1,0.0,32867,923846782,33,42.299720764160156,702.7748807946627,0.002437760354951024,25,6887.197179794655,0.001218880177475512,1.60256256E9,,,,0,,3,49.67959976196289,1.60256256E9,25.0,NaN,NaN
Raw,1188631190916610,10767000000,,,-1265448590233346618,0.0,22.148886106646266,,,27,3,0.0,32769,381338,138,23.56548309326172,-597.7783397957455,1.115649540164652,28,-6207.5314424735325,3.4028234663852886E38,1.60481254E9,,,,0,,3,49.67959976196289,1.60481254E9,25.0,NaN,NaN
Raw,1188631190916610,10767000000,,,-1265448590233346618,0.0,22.148886106646266,,,27,7,0.0,16385,206986866390903,63,24.685077667236328,128.4225428068952,1.0645848340063724,20,732.7209253782567,3.4028234663852886E38,1.56109798E9,,,,0,,5,49.77452850341797,1.56109798E9,25.0,NaN,NaN
Raw,1188631190916610,10767000000,,,-1265448590233346618,0.0,22.148886106646266,,,27,10,0.0,16385,206986870410098,12,36.565982818603516,18.159314504583506,0.004565480165183544,17,185.51991555456476,0.09830248323773001,1.56109798E9,,,,0,,5,49.77452850341797,1.56109798E9,25.0,NaN,NaN
Raw,1188631190916610,10767000000,,,-1265448590233346618,0.0,22.148886106646266,,,27,27,0.0,85026,207000919286667,18,39.702083587646484,-364.5603081214276,0.003344194730743766,25,-4114.918511623107,0.001672097365371883,1.57542003E9,,,,0,,6,34.6890754699707,1.57542003E9,25.0,NaN,NaN
Raw,1188631190916610,10767000000,,,-1265448590233346618,0.0,22.148886106646266,,,27,30,0.0,85026,207000921333097,26,35.433101654052734,200.97595231367086,0.005154236685484648,25,2154.2284973209166,0.002577118342742324,1.57542003E9,,,,0,,6,34.6890754699707,1.57542003E9,25.0,NaN,NaN
Fix,gps,51.524751,-0.134396,80.740589,0.000000,6.000000,1581413384000,1188632208075609
Raw,1188632222405456,11767000000,,,-1265448590233346659,0.0,20.98167771467548,,,27,5,0.0,16431,207001931345000,15,42.268310546875,242.82729836728686,0.002488743979483843,25,2774.1092819792348,0.0012443719897419214,1.57542003E9,,,,0,,1,35.604225158691406,1.57542003E9,25.0,NaN,NaN
Raw,1188632222405456,11767000000,,,-1265448590233346659,0.0,20.98167771467548,,,27,7,0.0,16431,207001925141769,13,45.936256408691406,473.15147732798505,0.001719735679216683,25,5432.876535962832,8.598678396083415E-4,1.57542003E9,,,,0,,1,35.604225158691406,1.57542003E9,25.0,NaN,NaN
Raw,1188632222405456,11767000000,,,-1265448590233346659,0.0,20.98167771467548,,,27,8,0.0,16397,207001916208119,56,26.005290985107422,-291.7771496128014,1.006982220685226,20,-3038.280105184708,3.4028234663852886E38,1.57542003E9,,,,0,,1,35.604225158691406,1.57542003E9,25.0,NaN,NaN
Raw,1188632222405456,11767000000,,,-1265448590233346659,0.0,20.98167771467548,,,27,13,0.0,16431,207001930738411,15,42.43814468383789,-356.14891597990527,0.0024405543226748705,25,-4094.14775297061,0.0012202771613374352,1.57542003E9,,,,0,,1,35.604225158691406,1.57542003E9,25.0,NaN,NaN
Raw,1188632222405456,11767000000,,,-1265448590233346659,0.0,20.98167771467548,,,27,15,0.0,16384,207001923948059,1000000000,16.045032501220703,-615.3057202169921,2.99792458E8,20,-6387.902339564411,3.4028234663852886E38,1.57542003E9,,,,1,,1,35.604225158691406,1.57542003E9,25.0,NaN,NaN
Raw,1188632222405456,11767000000,,,-1265448590233346659,0.0,20.98167771467548,,,27,21,0.0,16385,207001917047852,96,19.416513442993164,-187.39221357740087,1.3034231066083937,20,-1954.3783190198565,3.4028234663852886E38,1.57542003E9,,,,1,,1,35.604225158691406,1.57542003E9,25.0,NaN,NaN
Raw,1188632222405456,11767000000,,,-1265448590233346659,0.0,20.98167771467548,,,27,27,0.0,16384,207001916400989,1000000000,16.13277816772461,-9.839704250274629,2.99792458E8,20,-85.04218724548124,3.4028234663852886E38,1.57542003E9,,,,1,,1,35.604225158691406,1.57542003E9,25.0,NaN,NaN
Raw,1188632222405456,11767000000,,,-1265448590233346659,0.0,20.98167771467548,,,27,28,0.0,16431,207001924799447,12,47.58951950073242,-520.4401301622502,0.0014216686831787229,25,-5997.836727970387,7.108343415893614E-4,1.57542003E9,,,,0,,1,35.604225158691406,1.57542003E9,25.0,NaN,NaN
Raw,1188632222405456,11767000000,,,-1265448590233346659,0.0,20.98167771467548,,,27,30,0.0,16431,207001931535496,13,46.84001922607422,160.89694497455025,0.0015497923595830798,25,1841.7468945196972,7.748961797915399E-4,1.57542003E9,,,,0,,1,35.604225158691406,1.57542003E9,25.0,NaN,NaN
Raw,1188632222405456,11767000000,,,-1265448590233346659,0.0,20.98167771467548,,,27,2,0.0,32867,1936592691,37,39.67948532104492,65.02091132324733,0.003301913850009442,25,732.760913848557,0.0016509569250047207,1.59975002E9,,,,0,,3,50.92256164550781,1.59975002E9,25.0,NaN,NaN
Raw,1188632222405456,11767000000,,,-1265448590233346659,0.0,20.98167771467548,,,27,12,0.0,32867,1935828090,33,41.902862548828125,-166.6628428659469,0.0025535186287015676,25,-1907.484513760396,0.0012767593143507838,1.60143744E9,,,,0,,3,50.92256164550781,1.60143744E9,25.0,NaN,NaN
Raw,1188632222405456,11767000000,,,-1265448590233346659,0.0,20.98167771467548,,,27,11,0.0,32867,1930122471,81,30.086740493774414,556.0084829568457,0.8401137147419715,28,6822.964763540508,3.4028234663852886E38,1.602E9,,,,0,,3,50.92256164550781,1.602E9,25.0,NaN,NaN
Raw,1188632222405456,11767000000,,,-1265448590233346659,0.0,20.98167771467548,,,27,1,0.0,32867,1923844422,33,43.995174407958984,702.795345250227,0.0020054797641932964,25,7589.992525044882,0.0010027398820966482,1.60256256E9,,,,0,,3,50.92256164550781,1.60256256E9,25.0,NaN,NaN
Raw,1188632222405456,11767000000,,,-1265448590233346659,0.0,20.98167771467548,,,27,3,0.0,32769,383359,109,26.531095504760742,-597.300912744774,0.9822896806363435,28,-6805.138771179189,3.4028234663852886E38,1.60481254E9,,,,0,,3,50.92256164550781,1.60481254E9,25.0,NaN,NaN
Raw,1188632222405456,11767000000,,,-1265448590233346659,0.0,20.98167771467548,,,27,7,0.0,16385,206987866390480,31,24.625377655029297,128.31680198553317,1.0672694265632248,20,861.6341338306491,3.4028234663852886E38,1.56109798E9,,,,0,,5,51.483131408691406,1.56109798E9,25.0,NaN,NaN
Raw,1188632222405456,11767000000,,,-1265448590233346659,0.0,20.98167771467548,,,27,10,0.0,16385,206987870410034,11,36.85335922241211,18.17390076563356,0.0044169011525809765,17,203.69381632019832,0.09822819373142873,1.56109798E9,,,,1,,5,51.483131408691406,1.56109798E9,25.0,NaN,NaN
Raw,1188632222405456,11767000000,,,-1265448590233346659,0.0,20.98167771467548,,,27,27,0.0,85026,207001919287878,17,40.37870407104492,-364.49332248416977,0.0030935744289308786,25,-4479.411834107277,0.0015467872144654393,1.57542003E9,,,,0,,6,35.604225158691406,1.57542003E9,25.0,NaN,NaN
Raw,1188632222405456,11767000000,,,-1265448590233346659,0.0,20.98167771467548,,,27,30,0.0,85026,207001921332461,24,36.5869255065918,200.86436855087413,0.0045130811631679535,25,2355.0928658717908,0.0022565405815839767,1.57542003E9,,,,0,,6,35.604225158691406,1.57542003E9,25.0,NaN,NaN
Fix,gps,51.524753,-0.134396,80.442519,0.000000,6.000000,1581413385000,1188633187937532
Raw,1188633216570916,12767000000,,,-1265448590233346700,0.0,19.984369499329365,,,27,5,0.0,16431,207002931344190,16,41.496551513671875,242.98638189783924,0.0027199953328818083,25,3017.095663877074,0.0013599976664409041,1.57542003E9,,,,0,,1,35.95880126953125,1.57542003E9,25.0,NaN,NaN
Raw,1188633216570916,12767000000,,,-1265448590233346700,0.0,19.984369499329365,,,27,7,0.0,16431,207002925140195,14,45.86085510253906,473.2362932412734,0.0017347298562526703,25,5906.112829204106,8.673649281263351E-4,1.57542003E9,,,,0,,1,35.95880126953125,1.57542003E9,25.0,NaN,NaN
Raw,1188633216570916,12767000000,,,-1265448590233346700,0.0,19.984369499329365,,,27,8,0.0,16397,207002916209157,53,26.856231689453125,-291.74841810195267,0.9687166085953258,20,-3330.613231683565,3.4028234663852886E38,1.57542003E9,,,,1,,1,35.95880126953125,1.57542003E9,25.0,NaN,NaN
Raw,1188633216570916,12767000000,,,-1265448590233346700,0.0,19.984369499329365,,,27,13,0.0,16431,207002930739589,15,41.955711364746094,-356.0578510269261,0.0025799430441111326,25,-4450.205603997536,0.0012899715220555663,1.57542003E9,,,,0,,1,35.95880126953125,1.57542003E9,25.0,NaN,NaN
Raw,1188633216570916,12767000000,,,-1265448590233346700,0.0,19.984369499329365,,,27,15,0.0,16384,207002923950110,1000000000,17.67988395690918,-615.1863634542492,2.99792458E8,20,-7003.29878405446,3.4028234663852886E38,1.57542003E9,,,,1,,1,35.95880126953125,1.57542003E9,25.0,NaN,NaN
Raw,1188633216570916,12767000000,,,-1265448590233346700,0.0,19.984369499329365,,,27,21,0.0,16419,207002917048462,92,19.98980712890625,-187.3348016793882,1.2776429234791866,20,-2142.8366451063143,3.4028234663852886E38,1.57542003E9,,,,1,,1,35.95880126953125,1.57542003E9,25.0,NaN,NaN
Raw,1188633216570916,12767000000,,,-1265448590233346700,0.0,19.984369499329365,,,27,27,0.0,16384,207002916401024,1000000000,15.472288131713867,-9.654051784211049,2.99792458E8,20,-95.13643776780393,3.4028234663852886E38,1.57542003E9,,,,1,,1,35.95880126953125,1.57542003E9,25.0,NaN,NaN
Raw,1188633216570916,12767000000,,,-1265448590233346700,0.0,19.984369499329365,,,27,28,0.0,16431,207002924801172,13,46.51622009277344,-520.3440474932704,0.0016086575342342257,25,-6518.1807754636575,8.043287671171129E-4,1.57542003E9,,,,0,,1,35.95880126953125,1.57542003E9,25.0,NaN,NaN
Raw,1188633216570916,12767000000,,,-1265448590233346700,0.0,19.984369499329365,,,27,30,0.0,16431,207002931534957,13,46.57618713378906,161.02047646700657,0.0015975895803421734,25,2002.7673709867038,7.987947901710868E-4,1.57542003E9,,,,0,,1,35.95880126953125,1.57542003E9,25.0,NaN,NaN
Raw,1188633216570916,12767000000,,,-1265448590233346700,0.0,19.984369499329365,,,27,2,0.0,32867,936592458,37,39.85655212402344,65.15159844386619,0.0032352835405617952,25,797.9125122924232,0.0016176417702808976,1.59975002E9,,,,0,,3,51.483131408691406,1.59975002E9,25.0,NaN,NaN
Raw,1188633216570916,12767000000,,,-1265448590233346700,0.0,19.984369499329365,,,27,12,0.0,32867,935828637,33,41.09848403930664,-166.46459789081973,0.0028012883849442005,25,-2073.949111651216,0.0014006441924721003,1.60143744E9,,,,0,,3,51.483131408691406,1.60143744E9,25.0,NaN,NaN
Raw,1188633216570916,12767000000,,,-1265448590233346700,0.0,19.984369499329365,,,27,11,0.0,32866,930120683,1000000000,25.926462173461914,556.5846128019073,2.99792458E8,28,7378.497451684407,3.4028234663852886E38,1.602E9,,,,0,,3,51.483131408691406,1.602E9,25.0,NaN,NaN
Raw,1188633216570916,12767000000,,,-1265448590233346700,0.0,19.984369499329365,,,27,1,0.0,32867,923842148,33,42.22332000732422,702.8827100913013,0.0024592974223196507,25,8292.875235136184,0.0012296487111598253,1.60256256E9,,,,0,,3,51.483131408691406,1.60256256E9,25.0,NaN,NaN
Raw,1188633216570916,12767000000,,,-1265448590233346700,0.0,19.984369499329365,,,27,3,0.0,32769,385582,99,27.70986557006836,-597.2482212669897,0.9292821413216679,28,-7402.783542954565,3.4028234663852886E38,1.60481254E9,,,,0,,3,51.483131408691406,1.60481254E9,25.0,NaN,NaN
Raw,1188633216570916,12767000000,,,-1265448590233346700,0.0,19.984369499329365,,,27,7,0.0,16385,206988866390052,33,24.046890258789062,128.32678814529436,1.0932832609080472,20,990.6005092436393,3.4028234663852886E38,1.56109798E9,,,,0,,5,50.755516052246094,1.56109798E9,25.0,NaN,NaN
Raw,1188633216570916,12767000000,,,-1265448590233346700,0.0,19.984369499329365,,,27,10,0.0,16385,206988870409990,11,36.750457763671875,18.23380517127589,0.004469539504498243,17,221.9276214914742,0.09825451290738736,1.56109798E9,,,,0,,5,50.755516052246094,1.56109798E9,25.0,NaN,NaN
Raw,1188633216570916,12767000000,,,-1265448590233346700,0.0,19.984369499329365,,,27,27,0.0,85026,207002919289094,18,39.86699295043945,-364.3817181143995,0.0032813006546348333,25,-4843.793552221677,0.0016406503273174167,1.57542003E9,,,,0,,6,35.95880126953125,1.57542003E9,25.0,NaN,NaN
Raw,1188633216570916,12767000000,,,-1265448590233346700,0.0,19.984369499329365,,,27,30,0.0,85026,207002921331774,25,35.889404296875,201.17277552752694,0.004890454933047295,25,2556.2656413993177,0.0024452274665236473,1.57542003E9,,,,0,,6,35.95880126953125,1.57542003E9,25.0,NaN,NaN
Raw,1188634186568300,13767000000,,,-1265448590233346740,0.0,19.16087900385929,,,27,5,0.0,16431,207003931343379,17,40.734580993652344,243.05264899926487,0.0029693858232349157,25,3260.148312876339,0.0014846929116174579,1.57542003E9,,,,0,,1,35.818702697753906,1.57542003E9,25.0,NaN,NaN
Raw,1188634186568300,13767000000,,,-1265448590233346740,0.0,19.16087900385929,,,27,7,0.0,16431,207003925138622,15,44.80146408081055,473.26309740936,0.001959752757102251,25,6379.375926613466,9.798763785511255E-4,1.57542003E9,,,,0,,1,35.818702697753906,1.57542003E9,25.0,NaN,NaN
Raw,1188634186568300,13767000000,,,-1265448590233346740,0.0,19.16087900385929,,,27,8,0.0,16397,207003916210154,56,26.13304901123047,-291.2972345425037,1.0012374628767913,20,-3621.827807026187,3.4028234663852886E38,1.57542003E9,,,,1,,1,35.818702697753906,1.57542003E9,25.0,NaN,NaN
Raw,1188634186568300,13767000000,,,-1265448590233346740,0.0,19.16087900385929,,,27,13,0.0,16431,207003930740776,15,42.454551696777344,-356.03267335924465,0.0024359484668821096,25,-4806.238277356781,0.0012179742334410548,1.57542003E9,,,,0,,1,35.818702697753906,1.57542003E9,25.0,NaN,NaN
Raw,1188634186568300,13767000000,,,-1265448590233346740,0.0,19.16087900385929,,,27,15,0.0,16384,207003923951810,1000000000,17.480731964111328,-615.4091945549953,2.99792458E8,20,-7618.3986067543,3.4028234663852886E38,1.57542003E9,,,,0,,1,35.818702697753906,1.57542003E9,25.0,NaN,NaN
Raw,1188634186568300,13767000000,,,-1265448590233346740,0.0,19.16087900385929,,,27,21,0.0,16419,207003917048937,93,19.789207458496094,-187.23637154495032,1.2866635911516848,20,-2329.32294876702,3.4028234663852886E38,1.57542003E9,,,,1,,1,35.818702697753906,1.57542003E9,25.0,NaN,NaN
Raw,1188634186568300,13767000000,,,-1265448590233346740,0.0,19.16087900385929,,,27,27,0.0,16384,207003916401058,1000000000,14.630796432495117,-9.839704250274629,2.99792458E8,20,-104.67335664979268,3.4028234663852886E38,1.57542003E9,,,,1,,1,35.818702697753906,1.57542003E9,25.0,NaN,NaN
Raw,1188634186568300,13767000000,,,-1265448590233346740,0.0,19.16087900385929,,,27,28,0.0,16431,207003924802918,14,45.79277038574219,-520.3022323154346,0.001748380484059453,25,-7038.483007779092,8.741902420297265E-4,1.57542003E9,,,,0,,1,35.818702697753906,1.57542003E9,25.0,NaN,NaN
Raw,1188634186568300,13767000000,,,-1265448590233346740,0.0,19.16087900385929,,,27,30,0.0,16431,207003931534420,15,44.66484451293945,161.0944342007972,0.0019908209796994925,25,2163.861805187501,9.954104898497462E-4,1.57542003E9,,,,0,,1,35.818702697753906,1.57542003E9,25.0,NaN,NaN
Raw,1188634186568300,13767000000,,,-1265448590233346740,0.0,19.16087900385929,,,27,2,0.0,32867,1936592269,41,38.45942687988281,65.26848861470762,0.0037998687475919724,25,863.1810009071309,0.0018999343737959862,1.59975002E9,,,,0,,3,50.92256164550781,1.59975002E9,25.0,NaN,NaN
Raw,1188634186568300,13767000000,,,-1265448590233346740,0.0,19.16087900385929,,,27,12,0.0,32867,1935829189,37,39.911006927490234,-166.32515329992611,0.0032116759102791548,25,-2240.274264951142,0.0016058379551395774,1.60143744E9,,,,0,,3,50.92256164550781,1.60143744E9,25.0,NaN,NaN
Raw,1188634186568300,13767000000,,,-1265448590233346740,0.0,19.16087900385929,,,27,11,0.0,32867,1930118835,88,29.15606117248535,556.3716935779466,0.010441197082400322,25,7934.869145262353,0.005220598541200161,1.602E9,,,,0,,3,50.92256164550781,1.602E9,25.0,NaN,NaN
Raw,1188634186568300,13767000000,,,-1265448590233346740,0.0,19.16087900385929,,,27,1,0.0,32867,1923839760,33,41.791202545166016,702.889093162883,0.002584740286692977,25,8995.764328299067,0.0012923701433464885,1.60256256E9,,,,0,,3,50.92256164550781,1.60256256E9,25.0,NaN,NaN
Raw,1188634186568300,13767000000,,,-1265448590233346740,0.0,19.16087900385929,,,27,3,0.0,32803,10387565,107,26.73686981201172,-598.281056029457,0.978148662168822,28,-8000.422623916462,3.4028234663852886E38,1.60481254E9,,,,0,,3,50.92256164550781,1.60481254E9,25.0,NaN,NaN
Raw,1188634186568300,13767000000,,,-1265448590233346740,0.0,19.16087900385929,,,27,7,0.0,16385,206989866389625,37,22.654468536376953,128.48133504439704,1.1558987911645584,20,1119.5712631115457,3.4028234663852886E38,1.56109798E9,,,,0,,5,50.755516052246094,1.56109798E9,25.0,NaN,NaN
Raw,1188634186568300,13767000000,,,-1265448590233346740,0.0,19.16087900385929,,,27,10,0.0,16385,206989870409934,12,36.590980529785156,18.23852230156848,0.004552359692752361,17,240.1661437930427,0.09829592300151442,1.56109798E9,,,,0,,5,50.755516052246094,1.56109798E9,25.0,NaN,NaN
Raw,1188634186568300,13767000000,,,-1265448590233346740,0.0,19.16087900385929,,,27,27,0.0,85026,207003919290296,19,39.14861297607422,-364.3320286832932,0.003564224811270833,25,-5208.12558090497,0.0017821124056354165,1.57542003E9,,,,0,,6,35.818702697753906,1.57542003E9,25.0,NaN,NaN
Raw,1188634186568300,13767000000,,,-1265448590233346740,0.0,19.16087900385929,,,27,30,0.0,85026,207003921331109,28,34.38713836669922,201.03738291745276,0.005813833326101303,25,2757.3030243167705,0.0029069166630506516,1.57542003E9,,,,0,,6,35.818702697753906,1.57542003E9,25.0,NaN,NaN
Fix,gps,51.524754,-0.134396,80.042103,0.000000,6.000000,1581413386000,1188634184150647
Fix,gps,51.524754,-0.134395,79.912191,0.000000,6.000000,1581413387000,1188635191138915
Raw,1188635201950915,14767000000,,,-1265448590233346781,0.0,18.491725079364343,,,27,5,0.0,16431,207004931342605,19,39.55595397949219,243.13703789520787,0.003400932066142559,25,3503.2853507715467,0.0017004660330712795,1.57542003E9,,,,0,,1,34.6890754699707,1.57542003E9,25.0,NaN,NaN
Raw,1188635201950915,14767000000,,,-1265448590233346781,0.0,18.491725079364343,,,27,7,0.0,16431,207004925137047,13,46.36480712890625,473.3038388181604,0.0016369449440389872,25,6852.679765431626,8.184724720194936E-4,1.57542003E9,,,,0,,1,34.6890754699707,1.57542003E9,25.0,NaN,NaN
Raw,1188635201950915,14767000000,,,-1265448590233346781,0.0,18.491725079364343,,,27,8,0.0,16431,207004916211109,67,23.892282485961914,-290.11061973620554,1.102002378721076,20,-3912.879705858464,3.4028234663852886E38,1.57542003E9,,,,1,,1,34.6890754699707,1.57542003E9,25.0,NaN,NaN
Raw,1188635201950915,14767000000,,,-1265448590233346781,0.0,18.491725079364343,,,27,13,0.0,16431,207004930741965,17,40.565643310546875,-356.02500953865723,0.003027705242857337,25,-5162.263286895438,0.0015138526214286685,1.57542003E9,,,,0,,1,34.6890754699707,1.57542003E9,25.0,NaN,NaN
Raw,1188635201950915,14767000000,,,-1265448590233346781,0.0,18.491725079364343,,,27,15,0.0,16384,207004923953871,1000000000,17.45035743713379,-614.8747134718046,2.99792458E8,20,-8233.372413182418,3.4028234663852886E38,1.57542003E9,,,,1,,1,34.6890754699707,1.57542003E9,25.0,NaN,NaN
Raw,1188635201950915,14767000000,,,-1265448590233346781,0.0,18.491725079364343,,,27,21,0.0,16419,207004917049633,95,19.557693481445312,-187.23930263621128,1.297074716542637,20,-2514.1035390908123,3.4028234663852886E38,1.57542003E9,,,,1,,1,34.6890754699707,1.57542003E9,25.0,NaN,NaN
Raw,1188635201950915,14767000000,,,-1265448590233346781,0.0,18.491725079364343,,,27,27,0.0,16384,207004916401091,1000000000,13.790399551391602,-9.468399318147469,2.99792458E8,20,-113.92358417439975,3.4028234663852886E38,1.57542003E9,,,,1,,1,34.6890754699707,1.57542003E9,25.0,NaN,NaN
Raw,1188635201950915,14767000000,,,-1265448590233346781,0.0,18.491725079364343,,,27,28,0.0,16431,207004924804655,12,47.706520080566406,-520.2501207019623,0.00140264758374542,25,-7558.733128481054,7.0132379187271E-4,1.57542003E9,,,,0,,1,34.6890754699707,1.57542003E9,25.0,NaN,NaN
Raw,1188635201950915,14767000000,,,-1265448590233346781,0.0,18.491725079364343,,,27,30,0.0,16431,207004931533882,12,47.321014404296875,161.16993026443697,0.0014663030160591006,25,2325.031735451938,7.331515080295503E-4,1.57542003E9,,,,0,,1,34.6890754699707,1.57542003E9,25.0,NaN,NaN
Raw,1188635201950915,14767000000,,,-1265448590233346781,0.0,18.491725079364343,,,27,2,0.0,32867,936592031,33,43.026832580566406,65.37696904362747,0.0022459407337009907,25,928.5579699507583,0.0011229703668504953,1.59975002E9,,,,0,,3,51.483131408691406,1.59975002E9,25.0,NaN,NaN
Raw,1188635201950915,14767000000,,,-1265448590233346781,0.0,18.491725079364343,,,27,12,0.0,32867,935829762,33,42.513729095458984,-166.18125738532672,0.0023801026400178675,25,-2406.4555223364687,0.0011900513200089335,1.60143744E9,,,,0,,3,51.483131408691406,1.60143744E9,25.0,NaN,NaN
Raw,1188635201950915,14767000000,,,-1265448590233346781,0.0,18.491725079364343,,,27,11,0.0,32867,930116920,107,26.67848014831543,556.9689265816585,0.9756141123014275,28,8491.762287621119,3.4028234663852886E38,1.602E9,,,,0,,3,51.483131408691406,1.602E9,25.0,NaN,NaN
Raw,1188635201950915,14767000000,,,-1265448590233346781,0.0,18.491725079364343,,,27,1,0.0,32867,923837425,33,43.18455505371094,702.9065962265777,0.00220165541395545,25,9698.670924525644,0.001100827706977725,1.60256256E9,,,,0,,3,51.483131408691406,1.60256256E9,25.0,NaN,NaN
Raw,1188635201950915,14767000000,,,-1265448590233346781,0.0,18.491725079364343,,,27,3,0.0,32803,10389565,110,26.38739013671875,-597.8908119022708,0.9887530989928646,28,-8597.904967232593,3.4028234663852886E38,1.60481254E9,,,,0,,3,51.483131408691406,1.60481254E9,25.0,NaN,NaN
Raw,1188635201950915,14767000000,,,-1265448590233346781,0.0,18.491725079364343,,,27,7,0.0,16385,206990866389197,28,26.068645477294922,128.40398490931852,1.017089666063176,20,1248.538433152025,3.4028234663852886E38,1.56109798E9,,,,0,,5,52.642974853515625,1.56109798E9,25.0,NaN,NaN
Raw,1188635201950915,14767000000,,,-1265448590233346781,0.0,18.491725079364343,,,27,10,0.0,16385,206990870409874,11,37.80290985107422,18.240294288129235,0.003959497436881065,17,258.4064380811719,0.09799949187357877,1.56109798E9,,,,0,,5,52.642974853515625,1.56109798E9,25.0,NaN,NaN
Raw,1188635201950915,14767000000,,,-1265448590233346781,0.0,18.491725079364343,,,27,27,0.0,85026,207004919291515,13,43.92696762084961,-364.27560674588403,0.002056114375591278,25,-5572.401187650854,0.001028057187795639,1.57542003E9,,,,0,,6,34.6890754699707,1.57542003E9,25.0,NaN,NaN
Raw,1188635201950915,14767000000,,,-1265448590233346781,0.0,18.491725079364343,,,27,30,0.0,85026,207004921330442,28,34.514556884765625,201.2831409337632,0.005729169584810734,25,2958.5861652505337,0.002864584792405367,1.57542003E9,,,,0,,6,34.6890754699707,1.57542003E9,25.0,NaN,NaN
Raw,1188636193066453,15767000000,,,-1265448590233346819,0.0,17.936844762216456,,,27,5,0.0,16431,207005931341775,20,38.57798767089844,243.25526460734136,0.0038062413223087783,25,3746.540615378888,0.0019031206611543894,1.57542003E9,,,,0,,1,35.95880126953125,1.57542003E9,25.0,NaN,NaN
Raw,1188636193066453,15767000000,,,-1265448590233346819,0.0,17.936844762216456,,,27,7,0.0,16431,207005925135456,13,46.672271728515625,473.34402895492525,0.0015800136607140303,25,7326.023794386551,7.900068303570151E-4,1.57542003E9,,,,0,,1,35.95880126953125,1.57542003E9,25.0,NaN,NaN
Raw,1188636193066453,15767000000,,,-1265448590233346819,0.0,17.936844762216456,,,27,8,0.0,16431,207005916212064,70,23.43501091003418,-290.06866423222596,1.1225656161468667,20,-4204.228411328482,3.4028234663852886E38,1.57542003E9,,,,0,,1,35.95880126953125,1.57542003E9,25.0,NaN,NaN
Raw,1188636193066453,15767000000,,,-1265448590233346819,0.0,17.936844762216456,,,27,13,0.0,16431,207005930743147,19,39.59629440307617,-355.9240170099575,0.0033851738553494215,25,-5518.187303905395,0.0016925869276747108,1.57542003E9,,,,0,,1,35.95880126953125,1.57542003E9,25.0,NaN,NaN
Raw,1188636193066453,15767000000,,,-1265448590233346819,0.0,17.936844762216456,,,27,15,0.0,16384,207005923955960,1000000000,18.800823211669922,-615.1118592042903,2.99792458E8,20,-8847.935535985916,3.4028234663852886E38,1.57542003E9,,,,0,,1,35.95880126953125,1.57542003E9,25.0,NaN,NaN
Raw,1188636193066453,15767000000,,,-1265448590233346819,0.0,17.936844762216456,,,27,21,0.0,16419,207005917050250,100,18.98383331298828,-187.0713783729234,1.322880594648832,20,-2701.3089994249353,3.4028234663852886E38,1.57542003E9,,,,1,,1,35.95880126953125,1.57542003E9,25.0,NaN,NaN
Raw,1188636193066453,15767000000,,,-1265448590233346819,0.0,17.936844762216456,,,27,27,0.0,16384,207005916401121,1000000000,12.930185317993164,-9.282747917160656,2.99792458E8,20,-123.58076724429648,3.4028234663852886E38,1.57542003E9,,,,1,,1,35.95880126953125,1.57542003E9,25.0,NaN,NaN
Raw,1188636193066453,15767000000,,,-1265448590233346819,0.0,17.936844762216456,,,27,28,0.0,16431,207005924806389,13,46.610015869140625,-520.1954188842592,0.0015913788229227066,25,-8078.9285473653135,7.956894114613533E-4,1.57542003E9,,,,0,,1,35.95880126953125,1.57542003E9,25.0,NaN,NaN
Raw,1188636193066453,15767000000,,,-1265448590233346819,0.0,17.936844762216456,,,27,30,0.0,16431,207005931533340,11,48.562889099121094,161.26059777364117,0.0012709544971585272,25,2486.292333225579,6.354772485792637E-4,1.57542003E9,,,,0,,1,35.95880126953125,1.57542003E9,25.0,NaN,NaN
Raw,1188636193066453,15767000000,,,-1265448590233346819,0.0,17.936844762216456,,,27,2,0.0,32867,1936591802,33,44.78973388671875,65.49091377928482,0.0018333833431825042,25,994.0488837300431,9.166916715912521E-4,1.59975002E9,,,,0,,3,49.36371612548828,1.59975002E9,25.0,NaN,NaN
Raw,1188636193066453,15767000000,,,-1265448590233346819,0.0,17.936844762216456,,,27,12,0.0,32867,1935830333,33,43.32349395751953,-166.0291324611144,0.0021682402584701777,25,-2572.484654797583,0.0010841201292350888,1.60143744E9,,,,0,,3,49.36371612548828,1.60143744E9,25.0,NaN,NaN
Raw,1188636193066453,15767000000,,,-1265448590233346819,0.0,17.936844762216456,,,27,11,0.0,32867,1930115368,124,25.929325103759766,556.9447962024403,299.7942636132925,28,9048.530904597783,3.4028234663852886E38,1.602E9,,,,0,,3,49.36371612548828,1.602E9,25.0,NaN,NaN
Raw,1188636193066453,15767000000,,,-1265448590233346819,0.0,17.936844762216456,,,27,1,0.0,32867,1923835064,33,43.650760650634766,702.9420179334829,0.002086599124595523,25,10401.612942459127,0.0010432995622977614,1.60256256E9,,,,0,,3,49.36371612548828,1.60256256E9,25.0,NaN,NaN
Raw,1188636193066453,15767000000,,,-1265448590233346819,0.0,17.936844762216456,,,27,3,0.0,32803,10391271,75,31.11062240600586,-597.4864870614675,0.008322625420987606,25,-9195.39145429406,0.004161312710493803,1.60481254E9,,,,0,,3,49.36371612548828,1.60481254E9,25.0,NaN,NaN
Raw,1188636193066453,15767000000,,,-1265448590233346819,0.0,17.936844762216456,,,27,7,0.0,16385,206991866388786,23,28.51712417602539,128.99996578766968,0.011532657779753208,17,1377.5383989396946,0.10178607204501484,1.56109798E9,,,,1,,5,51.483131408691406,1.56109798E9,25.0,NaN,NaN
Raw,1188636193066453,15767000000,,,-1265448590233346819,0.0,17.936844762216456,,,27,10,0.0,16385,206991870409810,9,39.48486328125,18.273710126129913,0.0034603395033627753,17,276.68014820730184,0.09774991290681963,1.56109798E9,,,,0,,5,51.483131408691406,1.56109798E9,25.0,NaN,NaN
Raw,1188636193066453,15767000000,,,-1265448590233346819,0.0,17.936844762216456,,,27,27,0.0,85026,207005919292738,12,44.504234313964844,-364.21483466489826,0.0019239065004512668,25,-5936.616022315752,9.619532502256334E-4,1.57542003E9,,,,0,,6,35.95880126953125,1.57542003E9,25.0,NaN,NaN
Raw,1188636193066453,15767000000,,,-1265448590233346819,0.0,17.936844762216456,,,27,30,0.0,85026,207005921329779,31,33.47876739501953,201.17842980556816,0.0064547741785645485,25,3159.764595056102,0.0032273870892822742,1.57542003E9,,,,0,,6,35.95880126953125,1.57542003E9,25.0,NaN,NaN
Fix,gps,51.524751,-0.134392,80.222235,0.000000,6.000000,1581413388000,1188636205133145
Raw,1188637202123529,16767000000,,,-1265448590233346858,0.0,17.319956558891032,,,27,5,0.0,16431,207006931340936,20,38.858428955078125,243.3714324331704,0.0036853125784546137,25,3989.9120478120585,0.0018426562892273068,1.57542003E9,,,,0,,1,36.164798736572266,1.57542003E9,25.0,NaN,NaN
Raw,1188637202123529,16767000000,,,-1265448590233346858,0.0,17.319956558891032,,,27,7,0.0,16431,207006925133889,12,47.34638214111328,473.4077435753534,0.0014620269648730755,25,7799.431537961905,7.310134824365377E-4,1.57542003E9,,,,0,,1,36.164798736572266,1.57542003E9,25.0,NaN,NaN
Raw,1188637202123529,16767000000,,,-1265448590233346858,0.0,17.319956558891032,,,27,8,0.0,16431,207006916213003,57,25.925865173339844,-290.2505282202317,1.0105547544287146,20,-4495.164095214404,3.4028234663852886E38,1.57542003E9,,,,1,,1,36.164798736572266,1.57542003E9,25.0,NaN,NaN
Raw,1188637202123529,16767000000,,,-1265448590233346858,0.0,17.319956558891032,,,27,13,0.0,16431,207006930744322,16,41.587257385253906,-355.8472967449907,0.0026917383074760437,25,-5874.034600650386,0.0013458691537380219,1.57542003E9,,,,0,,1,36.164798736572266,1.57542003E9,25.0,NaN,NaN
Raw,1188637202123529,16767000000,,,-1265448590233346858,0.0,17.319956558891032,,,27,15,0.0,16384,207006923958123,1000000000,24.50937271118164,-614.6458156937974,2.99792458E8,20,-9462.880953163824,3.4028234663852886E38,1.57542003E9,,,,0,,1,36.164798736572266,1.57542003E9,25.0,NaN,NaN
Raw,1188637202123529,16767000000,,,-1265448590233346858,0.0,17.319956558891032,,,27,21,0.0,16419,207006917050864,99,19.131256103515625,-187.06716918954282,1.3162514237205496,20,-2887.7865498680358,3.4028234663852886E38,1.57542003E9,,,,1,,1,36.164798736572266,1.57542003E9,25.0,NaN,NaN
Raw,1188637202123529,16767000000,,,-1265448590233346858,0.0,17.319956558891032,,,27,27,0.0,16384,207006916401152,1000000000,12.069961547851562,-9.097095451097076,2.99792458E8,20,-132.7197785267347,3.4028234663852886E38,1.57542003E9,,,,1,,1,36.164798736572266,1.57542003E9,25.0,NaN,NaN
Raw,1188637202123529,16767000000,,,-1265448590233346858,0.0,17.319956558891032,,,27,28,0.0,16431,207006924808121,11,47.96154022216797,-520.1109439548845,0.001362063689157367,25,-8599.039491320198,6.810318445786834E-4,1.57542003E9,,,,0,,1,36.164798736572266,1.57542003E9,25.0,NaN,NaN
Raw,1188637202123529,16767000000,,,-1265448590233346858,0.0,17.319956558891032,,,27,30,0.0,16431,207006931532801,12,46.88673782348633,161.3739031806458,0.0015414784429594874,25,2647.666236406225,7.707392214797437E-4,1.57542003E9,,,,0,,1,36.164798736572266,1.57542003E9,25.0,NaN,NaN
Raw,1188637202123529,16767000000,,,-1265448590233346858,0.0,17.319956558891032,,,27,2,0.0,32867,936591605,33,43.668983459472656,65.62742503977552,0.0020858871284872293,25,1059.6763087698187,0.0010429435642436147,1.59975002E9,,,,0,,3,51.86248779296875,1.59975002E9,25.0,NaN,NaN
Raw,1188637202123529,16767000000,,,-1265448590233346858,0.0,17.319956558891032,,,27,12,0.0,32867,935830897,36,40.12529754638672,-165.87336618318477,0.003133409423753619,25,-2738.358020980768,0.0015667047118768096,1.60143744E9,,,,0,,3,51.86248779296875,1.60143744E9,25.0,NaN,NaN
Raw,1188637202123529,16767000000,,,-1265448590233346858,0.0,17.319956558891032,,,27,11,0.0,32867,930113181,88,29.161975860595703,557.152075943457,0.010434089228510857,25,9605.68298054124,0.005217044614255428,1.602E9,,,,0,,3,51.86248779296875,1.602E9,25.0,NaN,NaN
Raw,1188637202123529,16767000000,,,-1265448590233346858,0.0,17.319956558891032,,,27,1,0.0,32867,923832733,33,42.520782470703125,703.0076900907078,0.0023765005171298976,25,11104.620632549835,0.001188250258564949,1.60256256E9,,,,0,,3,51.86248779296875,1.60256256E9,25.0,NaN,NaN
Raw,1188637202123529,16767000000,,,-1265448590233346858,0.0,17.319956558891032,,,27,3,0.0,32803,10393314,69,32.179107666015625,-597.4006608712716,0.00735929561778903,25,-9792.792115165332,0.003679647808894515,1.60481254E9,,,,0,,3,51.86248779296875,1.60481254E9,25.0,NaN,NaN
Raw,1188637202123529,16767000000,,,-1265448590233346858,0.0,17.319956558891032,,,27,7,0.0,16385,206992866388393,22,28.762393951416016,129.19520061688144,0.8812320018159117,20,1506.5848936502014,3.4028234663852886E38,1.56109798E9,,,,0,,5,52.0823974609375,1.56109798E9,25.0,NaN,NaN
Raw,1188637202123529,16767000000,,,-1265448590233346858,0.0,17.319956558891032,,,27,10,0.0,16385,206992870409765,8,41.1763801574707,18.311244240085333,0.0028480186592787504,17,294.99139244738717,0.09744375248477762,1.56109798E9,,,,0,,5,52.0823974609375,1.56109798E9,25.0,NaN,NaN
Raw,1188637202123529,16767000000,,,-1265448590233346858,0.0,17.319956558891032,,,27,27,0.0,85026,207006919293947,11,45.63071823120117,-364.11735413792485,0.001689895521849394,25,-6300.733376453677,8.449477609246969E-4,1.57542003E9,,,,0,,6,36.164798736572266,1.57542003E9,25.0,NaN,NaN
Raw,1188637202123529,16767000000,,,-1265448590233346858,0.0,17.319956558891032,,,27,30,0.0,85026,207006921329117,38,30.742958068847656,201.42148144077828,0.0088444659486413,25,3361.18607649688,0.00442223297432065,1.57542003E9,,,,0,,6,36.164798736572266,1.57542003E9,25.0,NaN,NaN
Fix,gps,51.524749,-0.134391,80.289750,0.000000,6.000000,1581413389000,1188637200802144
Fix,gps,51.524746,-0.134388,80.574958,0.000000,6.000000,1581413390000,1188638199930336
Raw,1188638215790451,17767000000,,,-1265448590233346896,0.0,16.940936237516386,,,27,5,0.0,16431,207007931340104,19,39.18644332885742,243.51256566324173,0.0035487348213791847,25,4233.4246134753,0.0017743674106895924,1.57542003E9,,,,0,,1,36.299468994140625,1.57542003E9,25.0,NaN,NaN
Raw,1188638215790451,17767000000,,,-1265448590233346896,0.0,16.940936237516386,,,27,7,0.0,16431,207007925132298,13,46.08500671386719,473.4458169185664,0.0016905352240428329,25,8272.877354880471,8.452676120214164E-4,1.57542003E9,,,,0,,1,36.299468994140625,1.57542003E9,25.0,NaN,NaN
Raw,1188638215790451,17767000000,,,-1265448590233346896,0.0,16.940936237516386,,,27,8,0.0,16431,207007916213967,48,28.004697799682617,-290.83803006359176,0.012122284621000292,17,-4786.002125277996,0.10120797870968258,1.57542003E9,,,,1,,1,36.299468994140625,1.57542003E9,25.0,NaN,NaN
Raw,1188638215790451,17767000000,,,-1265448590233346896,0.0,16.940936237516386,,,27,13,0.0,16431,207007930745500,20,38.90675735473633,-355.7849433108413,0.0036648637615144253,25,-6229.819543961227,0.0018324318807572126,1.57542003E9,,,,0,,1,36.299468994140625,1.57542003E9,25.0,NaN,NaN
Raw,1188638215790451,17767000000,,,-1265448590233346896,0.0,16.940936237516386,,,27,15,0.0,16385,207007923960172,55,26.320308685302734,-615.2926325536873,0.9906132555652736,20,-10077.757070548621,3.4028234663852886E38,1.57542003E9,,,,0,,1,36.299468994140625,1.57542003E9,25.0,NaN,NaN
Raw,1188638215790451,17767000000,,,-1265448590233346896,0.0,16.940936237516386,,,27,21,0.0,16419,207007917051477,103,18.57622718811035,-186.7553147123591,1.341210565797506,20,-3074.967431699206,3.4028234663852886E38,1.57542003E9,,,,1,,1,36.299468994140625,1.57542003E9,25.0,NaN,NaN
Raw,1188638215790451,17767000000,,,-1265448590233346896,0.0,16.940936237516386,,,27,27,0.0,16384,207007916401182,1000000000,13.408271789550781,-9.104245311429501,2.99792458E8,20,-141.80281766763179,3.4028234663852886E38,1.57542003E9,,,,1,,1,36.299468994140625,1.57542003E9,25.0,NaN,NaN
Raw,1188638215790451,17767000000,,,-1265448590233346896,0.0,16.940936237516386,,,27,28,0.0,16431,207007924809857,12,47.58533477783203,-520.0396548242643,0.0014223541365936399,25,-9119.079146144462,7.111770682968199E-4,1.57542003E9,,,,0,,1,36.299468994140625,1.57542003E9,25.0,NaN,NaN
Raw,1188638215790451,17767000000,,,-1265448590233346896,0.0,16.940936237516386,,,27,30,0.0,16431,207007931532275,12,46.9947509765625,161.46812093080916,0.0015224283561110497,25,2809.134357337034,7.612141780555248E-4,1.57542003E9,,,,0,,1,36.299468994140625,1.57542003E9,25.0,NaN,NaN
Raw,1188638215790451,17767000000,,,-1265448590233346896,0.0,16.940936237516386,,,27,2,0.0,32867,1936591399,33,44.2774658203125,65.71933379757729,0.001944763003848493,25,1125.395642567396,9.723815019242465E-4,1.59975002E9,,,,0,,3,52.642974853515625,1.59975002E9,25.0,NaN,NaN
Raw,1188638215790451,17767000000,,,-1265448590233346896,0.0,16.940936237516386,,,27,12,0.0,32867,1935831468,37,39.68320846557617,-165.70286170541567,0.0032970206812024117,25,-2904.0608826861835,0.0016485103406012058,1.60143744E9,,,,0,,3,52.642974853515625,1.60143744E9,25.0,NaN,NaN
Raw,1188638215790451,17767000000,,,-1265448590233346896,0.0,16.940936237516386,,,27,11,0.0,32867,1930111306,72,31.593523025512695,557.2726909146568,0.00788637064397335,25,10162.955671455897,0.003943185321986675,1.602E9,,,,0,,3,52.642974853515625,1.602E9,25.0,NaN,NaN
Raw,1188638215790451,17767000000,,,-1265448590233346896,0.0,16.940936237516386,,,27,1,0.0,32867,1923830353,33,42.00516891479492,703.0370520485776,0.0025218462105840445,25,11807.657684598413,0.0012609231052920222,1.60256256E9,,,,0,,3,52.642974853515625,1.60256256E9,25.0,NaN,NaN
Raw,1188638215790451,17767000000,,,-1265448590233346896,0.0,16.940936237516386,,,27,3,0.0,32867,1930395364,57,34.384422302246094,-597.3815723484913,0.00570913590490818,25,-10390.173687513823,0.00285456795245409,1.60481254E9,,,,0,,3,52.642974853515625,1.60481254E9,25.0,NaN,NaN
Raw,1188638215790451,17767000000,,,-1265448590233346896,0.0,16.940936237516386,,,27,7,0.0,16385,206993866387969,22,28.68218231201172,128.97611006573868,0.8848390839870084,20,1635.5712222746872,3.4028234663852886E38,1.56109798E9,,,,0,,5,50.755516052246094,1.56109798E9,25.0,NaN,NaN
Raw,1188638215790451,17767000000,,,-1265448590233346896,0.0,16.940936237516386,,,27,10,0.0,16385,206993870409689,9,39.78458023071289,18.31174545318197,0.0033429733011871576,17,313.30313790056914,0.09769122980573182,1.56109798E9,,,,0,,5,50.755516052246094,1.56109798E9,25.0,NaN,NaN
Raw,1188638215790451,17767000000,,,-1265448590233346896,0.0,16.940936237516386,,,27,27,0.0,85026,207007919295148,13,46.29530715942383,-364.0556526093378,0.0016500952187925575,25,-6664.789029063015,8.250476093962789E-4,1.57542003E9,,,,0,,6,36.299468994140625,1.57542003E9,25.0,NaN,NaN
Raw,1188638215790451,17767000000,,,-1265448590233346896,0.0,16.940936237516386,,,27,30,0.0,85026,207007921328432,41,30.057209014892578,201.4925735005668,0.00957103818655014,25,3562.678649997447,0.00478551909327507,1.57542003E9,,,,0,,6,36.299468994140625,1.57542003E9,25.0,NaN,NaN
Fix,gps,51.524745,-0.134384,80.596587,0.000000,6.000000,1581413391000,1188639198419335
Raw,1188639216382143,18767000000,,,-1265448590233346936,0.0,16.687412497578034,,,27,5,0.0,16431,207008931339312,20,38.70961380004883,243.63795616820335,0.0037489961832761765,25,4477.062569643504,0.0018744980916380882,1.57542003E9,,,,0,,1,36.299468994140625,1.57542003E9,25.0,NaN,NaN
Raw,1188639216382143,18767000000,,,-1265448590233346936,0.0,16.687412497578034,,,27,7,0.0,16431,207008925130706,15,44.49449157714844,473.5325924868558,0.0020302520133554935,25,8746.409947367327,0.0010151260066777468,1.57542003E9,,,,0,,1,36.299468994140625,1.57542003E9,25.0,NaN,NaN
Raw,1188639216382143,18767000000,,,-1265448590233346936,0.0,16.687412497578034,,,27,8,0.0,16431,207008916214919,55,26.24443817138672,-291.0575326257788,0.9962292056522792,20,-5076.503258889778,3.4028234663852886E38,1.57542003E9,,,,1,,1,36.299468994140625,1.57542003E9,25.0,NaN,NaN
Raw,1188639216382143,18767000000,,,-1265448590233346936,0.0,16.687412497578034,,,27,13,0.0,16431,207008930746720,22,37.65901565551758,-355.6552631530785,0.004231018479913473,25,-6585.474807114306,0.0021155092399567366,1.57542003E9,,,,0,,1,36.299468994140625,1.57542003E9,25.0,NaN,NaN
Raw,1188639216382143,18767000000,,,-1265448590233346936,0.0,16.687412497578034,,,27,15,0.0,16385,207008923962311,61,25.122304916381836,-614.415077463138,1.0444863028871945,20,-10692.582839972747,3.4028234663852886E38,1.57542003E9,,,,0,,1,36.299468994140625,1.57542003E9,25.0,NaN,NaN
Raw,1188639216382143,18767000000,,,-1265448590233346936,0.0,16.687412497578034,,,27,21,0.0,16419,207008917052193,111,17.716018676757812,-187.11524249446825,1.3798932220087252,20,-3261.659886167918,3.4028234663852886E38,1.57542003E9,,,,1,,1,36.299468994140625,1.57542003E9,25.0,NaN,NaN
Raw,1188639216382143,18767000000,,,-1265448590233346936,0.0,16.687412497578034,,,27,27,0.0,16384,207008916401208,1000000000,12.828567504882812,-9.516564219674798,2.99792458E8,20,-150.0763850396852,3.4028234663852886E38,1.57542003E9,,,,1,,1,36.299468994140625,1.57542003E9,25.0,NaN,NaN
Raw,1188639216382143,18767000000,,,-1265448590233346936,0.0,16.687412497578034,,,27,28,0.0,16431,207008924811613,14,45.802040100097656,-519.9640200566027,0.0017465153941884637,25,-9639.043166201065,8.732576970942318E-4,1.57542003E9,,,,0,,1,36.299468994140625,1.57542003E9,25.0,NaN,NaN
Raw,1188639216382143,18767000000,,,-1265448590233346936,0.0,16.687412497578034,,,27,30,0.0,16431,207008931531723,13,46.435325622558594,161.59445817074175,0.0016237085219472647,25,2970.728815507776,8.118542609736323E-4,1.57542003E9,,,,0,,1,36.299468994140625,1.57542003E9,25.0,NaN,NaN
Raw,1188639216382143,18767000000,,,-1265448590233346936,0.0,16.687412497578034,,,27,2,0.0,32867,936591166,33,44.23240661621094,65.86717124300026,0.00195487798191607,25,1191.2628138103962,9.77438990958035E-4,1.59975002E9,,,,0,,3,50.755516052246094,1.59975002E9,25.0,NaN,NaN
Raw,1188639216382143,18767000000,,,-1265448590233346936,0.0,16.687412497578034,,,27,13,0.0,32768,44990926615414,1000000000,19.119434356689453,-800.1355635893233,2.99792458E8,30,-3818.102242222918,3.4028234663852886E38,1.60087501E9,,,,0,,3,50.755516052246094,1.60087501E9,25.0,NaN,NaN
Raw,1188639216382143,18767000000,,,-1265448590233346936,0.0,16.687412497578034,,,27,12,0.0,32867,935831990,37,39.76646041870117,-165.52573002947702,0.003265571082010865,25,-3069.5866127156605,0.0016327855410054326,1.60143744E9,,,,0,,3,50.755516052246094,1.60143744E9,25.0,NaN,NaN
Raw,1188639216382143,18767000000,,,-1265448590233346936,0.0,16.687412497578034,,,27,11,0.0,32867,930109750,76,30.91504669189453,557.3397052145065,0.008527093566954136,25,10720.295376670403,0.004263546783477068,1.602E9,,,,0,,3,50.755516052246094,1.602E9,25.0,NaN,NaN
Raw,1188639216382143,18767000000,,,-1265448590233346936,0.0,16.687412497578034,,,27,1,0.0,32867,923828026,33,42.93365478515625,703.092469719586,0.0022661795374006037,25,12510.750154317999,0.0011330897687003016,1.60256256E9,,,,0,,3,50.755516052246094,1.60256256E9,25.0,NaN,NaN
Raw,1188639216382143,18767000000,,,-1265448590233346936,0.0,16.687412497578034,,,27,3,0.0,32867,930397385,56,34.79077911376953,-597.2858013778676,0.005448192823678255,25,-10987.45948889169,0.0027240964118391275,1.60481254E9,,,,0,,3,50.755516052246094,1.60481254E9,25.0,NaN,NaN
Raw,1188639216382143,18767000000,,,-1265448590233346936,0.0,16.687412497578034,,,27,7,0.0,16385,206994866387528,24,28.052711486816406,129.05760121928472,0.9131455626386709,20,1764.624884090645,3.4028234663852886E38,1.56109798E9,,,,0,,5,52.77764129638672,1.56109798E9,25.0,NaN,NaN
Raw,1188639216382143,18767000000,,,-1265448590233346936,0.0,16.687412497578034,,,27,10,0.0,16385,206994870409607,11,37.573951721191406,18.373007955885438,0.004311856348067522,17,331.6761458564546,0.098175671329172,1.56109798E9,,,,0,,5,52.77764129638672,1.56109798E9,25.0,NaN,NaN
Raw,1188639216382143,18767000000,,,-1265448590233346936,0.0,16.687412497578034,,,27,27,0.0,85026,207008919296378,12,44.67115020751953,-363.96300941578374,0.001887288293801248,25,-7028.752038478799,9.43644146900624E-4,1.57542003E9,,,,0,,6,36.299468994140625,1.57542003E9,25.0,NaN,NaN
Raw,1188639216382143,18767000000,,,-1265448590233346936,0.0,16.687412497578034,,,27,30,0.0,85026,207008921327731,35,31.83249855041504,201.57282038871153,0.007801793981343508,25,3764.2514703861584,0.003900896990671754,1.57542003E9,,,,0,,6,36.299468994140625,1.57542003E9,25.0,NaN,NaN
Fix,gps,51.524743,-0.134382,80.761997,0.000000,6.000000,1581413392000,1188640194371988
Raw,1188640211289142,19767000000,,,-1265448590233346974,0.0,16.35585600412243,,,27,5,0.0,16431,207009931338508,18,39.86787033081055,243.72280134904304,0.003280969802290201,25,4720.785370992547,0.0016404849011451006,1.57542003E9,,,,0,,1,36.164798736572266,1.57542003E9,25.0,NaN,NaN
Raw,1188640211289142,19767000000,,,-1265448590233346974,0.0,16.35585600412243,,,27,7,0.0,16431,207009925129117,14,45.51408386230469,473.5516074595452,0.00180538697168231,25,9219.961554826872,9.02693485841155E-4,1.57542003E9,,,,0,,1,36.164798736572266,1.57542003E9,25.0,NaN,NaN
Raw,1188640211289142,19767000000,,,-1265448590233346974,0.0,16.35585600412243,,,27,8,0.0,16431,207009916215882,56,26.18398666381836,-291.41492126487697,0.9989478806656544,20,-5367.31963704037,3.4028234663852886E38,1.57542003E9,,,,1,,1,36.164798736572266,1.57542003E9,25.0,NaN,NaN
Raw,1188640211289142,19767000000,,,-1265448590233346974,0.0,16.35585600412243,,,27,13,0.0,16431,207009930747895,19,39.09959411621094,-355.65633889809754,0.00358439702540636,25,-6941.131146012403,0.0017921985127031803,1.57542003E9,,,,0,,1,36.164798736572266,1.57542003E9,25.0,NaN,NaN
Raw,1188640211289142,19767000000,,,-1265448590233346974,0.0,16.35585600412243,,,27,15,0.0,16385,207009923964358,54,26.47013282775879,-614.8376317591078,1.2442799263120374,20,-11307.376254662422,3.4028234663852886E38,1.57542003E9,,,,0,,1,36.164798736572266,1.57542003E9,25.0,NaN,NaN
Raw,1188640211289142,19767000000,,,-1265448590233346974,0.0,16.35585600412243,,,27,21,0.0,16419,207009917052773,118,16.94087791442871,-187.0020035326712,1.4147506550136422,20,-3448.3672599500574,3.4028234663852886E38,1.57542003E9,,,,1,,1,36.164798736572266,1.57542003E9,25.0,NaN,NaN
Raw,1188640211289142,19767000000,,,-1265448590233346974,0.0,16.35585600412243,,,27,27,0.0,16384,207009916401238,1000000000,12.71429443359375,-8.911443517571879,2.99792458E8,20,-158.31373452214893,3.4028234663852886E38,1.57542003E9,,,,1,,1,36.164798736572266,1.57542003E9,25.0,NaN,NaN
Raw,1188640211289142,19767000000,,,-1265448590233346974,0.0,16.35585600412243,,,27,28,0.0,16431,207009924813330,13,46.726898193359375,-519.9154651577446,0.0015701077645644546,25,-10158.95863135881,7.850538822822273E-4,1.57542003E9,,,,0,,1,36.164798736572266,1.57542003E9,25.0,NaN,NaN
Raw,1188640211289142,19767000000,,,-1265448590233346974,0.0,16.35585600412243,,,27,30,0.0,16431,207009931531192,12,46.884246826171875,161.65363883500186,0.0015419210540130734,25,3132.3824543427777,7.709605270065367E-4,1.57542003E9,,,,0,,1,36.164798736572266,1.57542003E9,25.0,NaN,NaN
Raw,1188640211289142,19767000000,,,-1265448590233346974,0.0,16.35585600412243,,,27,2,0.0,32867,1936590938,33,44.236629486083984,65.96155857420331,0.0019539278000593185,25,1257.2243723845995,9.769639000296593E-4,1.59975002E9,,,,0,,3,50.755516052246094,1.59975002E9,25.0,NaN,NaN
Raw,1188640211289142,19767000000,,,-1265448590233346974,0.0,16.35585600412243,,,27,13,0.0,32769,617871,411,18.936431884765625,-800.451916950768,1.3231358136689657,28,-4618.936148454823,3.4028234663852886E38,1.60087501E9,,,,0,,3,50.755516052246094,1.60087501E9,25.0,NaN,NaN
Raw,1188640211289142,19767000000,,,-1265448590233346974,0.0,16.35585600412243,,,27,12,0.0,32867,1935832517,38,39.36650848388672,-165.40082027611243,0.0034194537438452244,25,-3234.987432991773,0.0017097268719226122,1.60143744E9,,,,0,,3,50.755516052246094,1.60143744E9,25.0,NaN,NaN
Raw,1188640211289142,19767000000,,,-1265448590233346974,0.0,16.35585600412243,,,27,11,0.0,32867,1930107841,68,32.32267379760742,557.4419147891749,0.007251361850649118,25,11277.737291459578,0.003625680925324559,1.602E9,,,,0,,3,50.755516052246094,1.602E9,25.0,NaN,NaN
Raw,1188640211289142,19767000000,,,-1265448590233346974,0.0,16.35585600412243,,,27,1,0.0,32867,1923825664,33,43.975563049316406,703.1229178237136,0.002010013209655881,25,13213.873072141712,0.0010050066048279405,1.60256256E9,,,,0,,3,50.755516052246094,1.60256256E9,25.0,NaN,NaN
Raw,1188640211289142,19767000000,,,-1265448590233346974,0.0,16.35585600412243,,,27,3,0.0,32867,1930399395,53,35.30829620361328,-597.2391704486745,0.005133065395057201,25,-11584.698659340365,0.0025665326975286007,1.60481254E9,,,,0,,3,50.755516052246094,1.60481254E9,25.0,NaN,NaN
Raw,1188640211289142,19767000000,,,-1265448590233346974,0.0,16.35585600412243,,,27,7,0.0,16385,206995866387097,25,27.28989028930664,128.68653699450675,1.111385904734406,20,1893.7011231153208,3.4028234663852886E38,1.56109798E9,,,,0,,5,51.86248779296875,1.56109798E9,25.0,NaN,NaN
Raw,1188640211289142,19767000000,,,-1265448590233346974,0.0,16.35585600412243,,,27,10,0.0,81967,206995870409543,11,37.39796447753906,18.371894876532338,0.004400111269205809,25,350.0480407329869,0.0022000556346029043,1.56109798E9,,,,0,,5,51.86248779296875,1.56109798E9,25.0,NaN,NaN
Raw,1188640211289142,19767000000,,,-1265448590233346974,0.0,16.35585600412243,,,27,27,0.0,85026,207009919297572,11,45.44757080078125,-363.89635711060964,0.0017259065061807632,25,-7392.648395589408,8.629532530903816E-4,1.57542003E9,,,,0,,6,36.164798736572266,1.57542003E9,25.0,NaN,NaN
Raw,1188640211289142,19767000000,,,-1265448590233346974,0.0,16.35585600412243,,,27,30,0.0,85026,207009921327080,38,30.90732765197754,201.59312618285276,0.008678668178617954,25,3965.844596569011,0.004339334089308977,1.57542003E9,,,,1,,6,36.164798736572266,1.57542003E9,25.0,NaN,NaN
Fix,gps,51.524743,-0.134380,80.754924,0.000000,6.000000,1581413393000,1188641198005065
Raw,1188641206308834,20767000000,,,-1265448590233347013,0.0,16.001473419233356,,,27,5,0.0,16431,207010931337697,17,40.443138122558594,243.8828555187001,0.0030707097612321377,25,4964.668226511247,0.0015353548806160688,1.57542003E9,,,,0,,1,35.818702697753906,1.57542003E9,25.0,NaN,NaN
Raw,1188641206308834,20767000000,,,-1265448590233347013,0.0,16.001473419233356,,,27,7,0.0,16431,207010925127533,14,45.406089782714844,473.5924135232435,0.0018279739888384938,25,9693.553968350116,9.139869944192469E-4,1.57542003E9,,,,0,,1,35.818702697753906,1.57542003E9,25.0,NaN,NaN
Raw,1188641206308834,20767000000,,,-1265448590233347013,0.0,16.001473419233356,,,27,8,0.0,16431,207010916216809,63,24.73273468017578,-290.68722673565844,1.0642091281770467,20,-5659.052873760976,3.4028234663852886E38,1.57542003E9,,,,1,,1,35.818702697753906,1.57542003E9,25.0,NaN,NaN
Raw,1188641206308834,20767000000,,,-1265448590233347013,0.0,16.001473419233356,,,27,13,0.0,16431,207010930749064,19,39.53438186645508,-355.5661259900371,0.003409389173611998,25,-7296.6972720024405,0.0017046945868059993,1.57542003E9,,,,0,,1,35.818702697753906,1.57542003E9,25.0,NaN,NaN
Raw,1188641206308834,20767000000,,,-1265448590233347013,0.0,16.001473419233356,,,27,15,0.0,16385,207010923966383,55,26.313007354736328,-615.1428742397261,0.9909426305552635,20,-11922.139642704626,3.4028234663852886E38,1.57542003E9,,,,0,,1,35.818702697753906,1.57542003E9,25.0,NaN,NaN
Raw,1188641206308834,20767000000,,,-1265448590233347013,0.0,16.001473419233356,,,27,21,0.0,16418,207010917053541,1000000000,16.578067779541016,-186.4870857795246,2.99792458E8,20,-3634.752395067376,3.4028234663852886E38,1.57542003E9,,,,1,,1,35.818702697753906,1.57542003E9,25.0,NaN,NaN
Raw,1188641206308834,20767000000,,,-1265448590233347013,0.0,16.001473419233356,,,27,27,0.0,16384,207010916401264,1000000000,12.0,-8.725791584046682,2.99792458E8,20,-166.8675083502381,3.4028234663852886E38,1.57542003E9,,,,1,,1,35.818702697753906,1.57542003E9,25.0,NaN,NaN
Raw,1188641206308834,20767000000,,,-1265448590233347013,0.0,16.001473419233356,,,27,28,0.0,16431,207010924815050,11,47.92411804199219,-519.8257686229226,0.0013679447583854198,25,-10678.784399981732,6.839723791927099E-4,1.57542003E9,,,,0,,1,35.818702697753906,1.57542003E9,25.0,NaN,NaN
Raw,1188641206308834,20767000000,,,-1265448590233347013,0.0,16.001473419233356,,,27,30,0.0,16431,207010931530658,13,46.71297073364258,161.76931891259756,0.0015726278070360422,25,3294.1517732553752,7.863139035180211E-4,1.57542003E9,,,,0,,1,35.818702697753906,1.57542003E9,25.0,NaN,NaN
Raw,1188641206308834,20767000000,,,-1265448590233347013,0.0,16.001473419233356,,,27,2,0.0,32867,936590687,33,43.89608383178711,66.09731609502182,0.002032056450843811,25,1323.3216884796213,0.0010160282254219055,1.59975002E9,,,,0,,3,51.483131408691406,1.59975002E9,25.0,NaN,NaN
Raw,1188641206308834,20767000000,,,-1265448590233347013,0.0,16.001473419233356,,,27,13,0.0,32769,620528,205,18.70175552368164,-800.5814984504677,1.3336893930774156,28,-5419.564503938698,3.4028234663852886E38,1.60087501E9,,,,0,,3,51.483131408691406,1.60087501E9,25.0,NaN,NaN
Raw,1188641206308834,20767000000,,,-1265448590233347013,0.0,16.001473419233356,,,27,12,0.0,32867,935833074,39,39.09971237182617,-165.21899202414352,0.003526114858686924,25,-3400.2064250159165,0.001763057429343462,1.60143744E9,,,,0,,3,51.483131408691406,1.60143744E9,25.0,NaN,NaN
Raw,1188641206308834,20767000000,,,-1265448590233347013,0.0,16.001473419233356,,,27,11,0.0,32867,930105913,70,31.874248504638672,557.5364205981805,0.007635559421032667,25,11835.273712057759,0.0038177797105163336,1.602E9,,,,0,,3,51.483131408691406,1.602E9,25.0,NaN,NaN
Raw,1188641206308834,20767000000,,,-1265448590233347013,0.0,16.001473419233356,,,27,1,0.0,32867,923823321,33,43.74285888671875,703.1798364320694,0.002064591273665428,25,13917.052908573782,0.001032295636832714,1.60256256E9,,,,0,,3,51.483131408691406,1.60256256E9,25.0,NaN,NaN
Raw,1188641206308834,20767000000,,,-1265448590233347013,0.0,16.001473419233356,,,27,3,0.0,32867,930401388,49,36.282623291015625,-597.152514975367,0.0045883916318416595,25,-12181.851174315732,0.0022941958159208298,1.60481254E9,,,,0,,3,51.483131408691406,1.60481254E9,25.0,NaN,NaN
Raw,1188641206308834,20767000000,,,-1265448590233347013,0.0,16.001473419233356,,,27,7,0.0,16385,206996866386687,28,26.193105697631836,128.74237257890525,0.9967697321111957,20,2022.7655522746718,3.4028234663852886E38,1.56109798E9,,,,0,,5,51.326629638671875,1.56109798E9,25.0,NaN,NaN
Raw,1188641206308834,20767000000,,,-1265448590233347013,0.0,16.001473419233356,,,27,10,0.0,81967,206996870409504,11,37.309967041015625,18.405699702087873,0.004444916266947985,25,368.4537404350748,0.0022224581334739923,1.56109798E9,,,,0,,5,51.326629638671875,1.56109798E9,25.0,NaN,NaN
Raw,1188641206308834,20767000000,,,-1265448590233347013,0.0,16.001473419233356,,,27,27,0.0,85026,207010919298784,12,45.205955505371094,-363.80631914245896,0.00177458964753896,25,-7756.454714731867,8.8729482376948E-4,1.57542003E9,,,,0,,6,35.818702697753906,1.57542003E9,25.0,NaN,NaN
Raw,1188641206308834,20767000000,,,-1265448590233347013,0.0,16.001473419233356,,,27,30,0.0,85026,207010921326410,37,31.19940185546875,201.69818351968433,0.008391687646508217,25,4167.5427800886955,0.004195843823254108,1.57542003E9,,,,1,,6,35.818702697753906,1.57542003E9,25.0,NaN,NaN
Fix,gps,51.524745,-0.134378,80.661767,0.000000,6.000000,1581413394000,1188642194122833
Raw,1188642222318910,21767000000,,,-1265448590233347053,0.0,15.50385953619952,,,27,5,0.0,16431,207011931336880,13,43.451934814453125,243.95271288012373,0.002171696163713932,25,5208.6209393913705,0.001085848081856966,1.57542003E9,,,,0,,1,35.818702697753906,1.57542003E9,25.0,NaN,NaN
Raw,1188642222318910,21767000000,,,-1265448590233347053,0.0,15.50385953619952,,,27,7,0.0,16431,207011925125981,15,42.5369987487793,473.70938290406957,0.002274937927722931,25,10167.263351254185,0.0011374689638614655,1.57542003E9,,,,0,,1,35.818702697753906,1.57542003E9,25.0,NaN,NaN
Raw,1188642222318910,21767000000,,,-1265448590233347053,0.0,15.50385953619952,,,27,8,0.0,16431,207011916217775,58,25.564952850341797,-290.86670495170756,1.0267854592709367,20,-5949.513578183718,3.4028234663852886E38,1.57542003E9,,,,1,,1,35.818702697753906,1.57542003E9,25.0,NaN,NaN
Raw,1188642222318910,21767000000,,,-1265448590233347053,0.0,15.50385953619952,,,27,13,0.0,16431,207011930750289,12,44.529136657714844,-355.5260355253977,0.0019183985423296692,25,-7652.223307527838,9.591992711648345E-4,1.57542003E9,,,,0,,1,35.818702697753906,1.57542003E9,25.0,NaN,NaN
Raw,1188642222318910,21767000000,,,-1265448590233347053,0.0,15.50385953619952,,,27,15,0.0,16419,207011923968432,61,25.031269073486328,-613.9910917039942,1.0485812567845718,20,-12536.44581527793,3.4028234663852886E38,1.57542003E9,,,,0,,1,35.818702697753906,1.57542003E9,25.0,NaN,NaN
Raw,1188642222318910,21767000000,,,-1265448590233347053,0.0,15.50385953619952,,,27,21,0.0,16419,207011917053983,125,16.199552536010742,-186.34712617181367,1.4480872915308245,20,-3821.8311276420177,3.4028234663852886E38,1.57542003E9,,,,1,,1,35.818702697753906,1.57542003E9,25.0,NaN,NaN
