# 
# Header Description:
# 
# Version: v2.0.0.1 Platform: 10 Manufacturer: Google Model: Pixel 4
# 
# Raw,ElapsedRealtimeNanos,TimeNanos,LeapSecond,TimeUncertaintyNanos,FullBiasNanos,BiasNanos,BiasUncertaintyNanos,DriftNanosPerSecond,DriftUncertaintyNanosPerSecond,HardwareClockDiscontinuityCount,Svid,TimeOffsetNanos,State,ReceivedSvTimeNanos,ReceivedSvTimeUncertaintyNanos,Cn0DbHz,PseudorangeRateMetersPerSecond,PseudorangeRateUncertaintyMetersPerSecond,AccumulatedDeltaRangeState,AccumulatedDeltaRangeMeters,AccumulatedDeltaRangeUncertaintyMeters,CarrierFrequencyHz,CarrierCycles,CarrierPhase,CarrierPhaseUncertainty,MultipathIndicator,SnrInDb,ConstellationType,AgcDb,CarrierFrequencyHz,UserLatitude,UserLongitude,UserAltitude
# 
# Fix,Provider,Latitude,Longitude,Altitude,Speed,Accuracy,(UTC)TimeInMs,ElapsedRealtimeNanos
# 
# Nav,Svid,Type,Status,MessageId,Sub-messageId,Data(Bytes)
# 
Fix,gps,51.524731,-0.134160,77.630493,0.000000,3.790092,1582204258000,241515913855452
Raw,241515926648526,658320219000000,,,-1265581155228064206,-0.05629682540893555,32.70908200647682,-83.44320681171483,12.54780037240862,209,10,0.0,16399,393075368750289,46,20.3,270.511962890625,0.9284999966621399,16,0.0,0.0,1.57542003E9,,,,0,,1,-0.07,1.57542003E9,414.0,NaN,NaN
Raw,241515926648526,658320219000000,,,-1265581155228064206,-0.05629682540893555,32.70908200647682,-83.44320681171483,12.54780037240862,209,12,0.0,16399,393075378267425,16,29.4,-405.6011047363281,0.05090000107884407,25,-11183.681019662063,0.00281634630106073,1.57542003E9,,,,0,,1,-0.07,1.57542003E9,414.0,NaN,NaN
Raw,241515926648526,658320219000000,,,-1265581155228064206,-0.05629682540893555,32.70908200647682,-83.44320681171483,12.54780037240862,209,15,0.0,16399,393075368928235,21,26.2,671.6978149414062,0.038700003176927567,21,5681.235429061178,0.005442398901996786,1.57542003E9,,,,0,,1,-0.07,1.57542003E9,414.0,NaN,NaN
Raw,241515926648526,658320219000000,,,-1265581155228064206,-0.05629682540893555,32.70908200647682,-83.44320681171483,12.54780037240862,209,17,0.0,16399,393075369578967,4,42.1,295.5072937011719,0.03160000219941139,25,14926.131920078979,5.899103906353357E-4,1.57542003E9,,,,0,,1,-0.07,1.57542003E9,414.0,NaN,NaN
Raw,241515926648526,658320219000000,,,-1265581155228064206,-0.05629682540893555,32.70908200647682,-83.44320681171483,12.54780037240862,209,19,0.0,16399,393075373857561,8,36.6,-15.194649696350098,0.039100002497434616,25,-1108.7512303976598,0.001160791358090767,1.57542003E9,,,,0,,1,-0.07,1.57542003E9,414.0,NaN,NaN
Raw,241515926648526,658320219000000,,,-1265581155228064206,-0.05629682540893555,32.70908200647682,-83.44320681171483,12.54780037240862,209,20,0.0,16399,393075365583308,31,23.2,537.4273681640625,0.7339999675750732,16,0.0,0.0,1.57542003E9,,,,0,,1,-0.07,1.57542003E9,414.0,NaN,NaN
Raw,241515926648526,658320219000000,,,-1265581155228064206,-0.05629682540893555,32.70908200647682,-83.44320681171483,12.54780037240862,209,24,0.0,16399,393075379949875,8,36.3,66.33914184570312,0.003100000089034438,25,2991.1741001963555,0.001160791358090767,1.57542003E9,,,,0,,1,-0.07,1.57542003E9,414.0,NaN,NaN
Raw,241515926648526,658320219000000,,,-1265581155228064206,-0.05629682540893555,32.70908200647682,-83.44320681171483,12.54780037240862,209,32,0.0,16399,393075368801702,10,34.9,-618.0052490234375,0.032600000500679016,25,-27267.368882226707,0.0015223494237726067,1.57542003E9,,,,0,,1,-0.07,1.57542003E9,414.0,NaN,NaN
Raw,241515926648526,658320219000000,,,-1265581155228064206,-0.05629682540893555,32.70908200647682,-83.44320681171483,12.54780037240862,209,14,0.0,49359,58257371161814,19,27.9,622.4202270507812,0.7129999995231628,16,0.0,0.0,1.59806246E9,,,,0,,3,-2.5,1.59806246E9,414.0,NaN,NaN
Raw,241515926648526,658320219000000,,,-1265581155228064206,-0.05629682540893555,32.70908200647682,-83.44320681171483,12.54780037240862,209,6,0.0,49359,58257379018989,13,31.0,-79.9840087890625,0.25060001015663147,25,-3752.648170664497,0.002042655285247825,1.59975002E9,,,,0,,3,-2.5,1.59975002E9,414.0,NaN,NaN
Raw,241515926648526,658320219000000,,,-1265581155228064206,-0.05629682540893555,32.70908200647682,-83.44320681171483,12.54780037240862,209,16,0.0,49359,58257378285297,16,29.1,-479.2044677734375,0.250900000333786,25,-21020.791216207053,0.0027705911382589986,1.60143744E9,,,,0,,3,-2.5,1.60143744E9,414.0,NaN,NaN
Raw,241515926648526,658320219000000,,,-1265581155228064206,-0.05629682540893555,32.70908200647682,-83.44320681171483,12.54780037240862,209,15,0.0,49359,58257381946686,11,33.3,188.39334106445312,0.2076999992132187,25,9108.484276574656,0.0016280864052631069,1.602E9,,,,0,,3,-2.5,1.602E9,414.0,NaN,NaN
Raw,241515926648526,658320219000000,,,-1265581155228064206,-0.05629682540893555,32.70908200647682,-83.44320681171483,12.54780037240862,209,23,0.0,49359,58257369432793,27,24.5,496.6981201171875,0.8299999833106995,16,0.0,0.0,1.60368755E9,,,,0,,3,-2.5,1.60368755E9,414.0,NaN,NaN
Raw,241515926648526,658320219000000,,,-1265581155228064206,-0.05629682540893555,32.70908200647682,-83.44320681171483,12.54780037240862,209,17,0.0,49359,58257373280149,13,31.2,-650.2864990234375,0.24160000681877136,25,-29844.021587044663,0.0020369255775898407,1.60424998E9,,,,0,,3,-2.5,1.60424998E9,414.0,NaN,NaN
Raw,241515926648526,658320219000000,,,-1265581155228064206,-0.05629682540893555,32.70908200647682,-83.44320681171483,12.54780037240862,209,7,0.0,49359,58257369697782,35,22.5,-706.0237426757812,0.9399999976158142,16,0.0,0.0,1.60481254E9,,,,0,,3,-2.5,1.60481254E9,414.0,NaN,NaN
Raw,241515926648526,658320219000000,,,-1265581155228064206,-0.05629682540893555,32.70908200647682,-83.44320681171483,12.54780037240862,209,36,0.0,16399,393061374283825,7,37.1,-36.90241622924805,0.040400002151727676,25,-1857.7699043170046,0.0010178092579723537,1.56109798E9,,,,0,,5,0.51,1.56109798E9,414.0,NaN,NaN
Raw,241515926648526,658320219000000,,,-1265581155228064206,-0.05629682540893555,32.70908200647682,-83.44320681171483,12.54780037240862,209,30,0.0,16399,393061365649302,9,35.8,-551.604248046875,0.0276000015437603,25,-24625.751916204124,0.0013442764594430532,1.56109798E9,,,,0,,5,0.51,1.56109798E9,414.0,NaN,NaN
Raw,241515926648526,658320219000000,,,-1265581155228064206,-0.05629682540893555,32.70908200647682,-83.44320681171483,12.54780037240862,209,27,0.0,16399,393061366589031,5,40.0,-69.51549530029297,0.0276000015437603,25,-3751.413674828027,7.489539839688142E-4,1.56109798E9,,,,0,,5,0.51,1.56109798E9,414.0,NaN,NaN
Raw,241515926648526,658320219000000,,,-1265581155228064206,-0.05629682540893555,32.70908200647682,-83.44320681171483,12.54780037240862,209,22,0.0,16399,393061365901907,21,26.1,452.8819580078125,0.03420000150799751,29,22214.77768573018,0.005492329335005111,1.56109798E9,,,,0,,5,0.51,1.56109798E9,414.0,NaN,NaN
Raw,241515926648526,658320219000000,,,-1265581155228064206,-0.05629682540893555,32.70908200647682,-83.44320681171483,12.54780037240862,209,21,0.0,16399,393061366664257,8,36.0,-82.59474182128906,0.028600001707673073,25,-3973.2121922414967,0.0011714408558922843,1.56109798E9,,,,0,,5,0.51,1.56109798E9,414.0,NaN,NaN
Raw,241515926648526,658320219000000,,,-1265581155228064206,-0.05629682540893555,32.70908200647682,-83.44320681171483,12.54780037240862,209,8,0.0,16399,393061311911798,46,20.1,-344.7300720214844,0.902999997138977,16,0.0,0.0,1.56109798E9,,,,0,,5,0.51,1.56109798E9,414.0,NaN,NaN
Raw,241515926648526,658320219000000,,,-1265581155228064206,-0.05629682540893555,32.70908200647682,-83.44320681171483,12.54780037240862,209,3,0.0,23567,393075361285136,6,39.2,-330.8206787109375,0.04430000111460686,25,-14589.97051894645,0.0018458486430946374,1.57542003E9,,,,0,,6,-0.84,1.57542003E9,414.0,NaN,NaN
Raw,241515926648526,658320219000000,,,-1265581155228064206,-0.05629682540893555,32.70908200647682,-83.44320681171483,12.54780037240862,209,5,0.0,23567,393075365847569,16,29.7,211.4825439453125,0.049400001764297485,25,2662.0781864355276,0.006146485344343376,1.57542003E9,,,,0,,6,-0.84,1.57542003E9,414.0,NaN,NaN
Raw,241515926648526,658320219000000,,,-1265581155228064206,-0.05629682540893555,32.70908200647682,-83.44320681171483,12.54780037240862,209,24,0.0,23567,393075375041244,17,28.1,-93.69912719726562,0.053700003772974014,25,-4325.343474694915,0.006565131413727744,1.57542003E9,,,,0,,6,-0.84,1.57542003E9,414.0,NaN,NaN
Raw,241515926648526,658320219000000,,,-1265581155228064206,-0.05629682540893555,32.70908200647682,-83.44320681171483,12.54780037240862,209,31,0.0,23567,393075363466866,21,26.0,361.23089599609375,0.04920000210404396,21,18311.926312085085,0.011874324619302384,1.57542003E9,,,,0,,6,-0.84,1.57542003E9,414.0,NaN,NaN
Raw,241515926648526,658320219000000,,,-1265581155228064206,-0.05629682540893555,32.70908200647682,-83.44320681171483,12.54780037240862,209,10,0.0,81935,393075368758351,8,22.2,272.0461120605469,0.048700001090765,27,3722.0749488480924,0.25482803839368795,1.17645005E9,,,,0,,1,-1.67,1.17645005E9,414.0,NaN,NaN
Raw,241515926648526,658320219000000,,,-1265581155228064206,-0.05629682540893555,32.70908200647682,-83.44320681171483,12.54780037240862,209,24,0.0,81935,393075379957720,2,37.5,66.3394546508789,0.00559999980032444,25,2732.5541379205524,0.0013505885638054542,1.17645005E9,,,,0,,1,-1.67,1.17645005E9,414.0,NaN,NaN
Raw,241515926648526,658320219000000,,,-1265581155228064206,-0.05629682540893555,32.70908200647682,-83.44320681171483,12.54780037240862,209,25,0.0,81935,393075369558413,11,19.2,-699.6484985351562,0.16339999437332153,27,-30885.86740073996,0.25482803839368795,1.17645005E9,,,,0,,1,-1.67,1.17645005E9,414.0,NaN,NaN
Raw,241515926648526,658320219000000,,,-1265581155228064206,-0.05629682540893555,32.70908200647682,-83.44320681171483,12.54780037240862,209,32,0.0,81935,393075368809593,11,19.9,-619.6016235351562,0.9284999966621399,16,0.0,0.0,1.17645005E9,,,,0,,1,-1.67,1.17645005E9,414.0,NaN,NaN
Raw,241515926648526,658320219000000,,,-1265581155228064206,-0.05629682540893555,32.70908200647682,-83.44320681171483,12.54780037240862,209,3,0.0,81935,393075361292241,2,38.2,-331.7783508300781,0.00800000037997961,25,-14550.427936113481,0.0012486574029382824,1.17645005E9,,,,0,,6,-1.67,1.17645005E9,414.0,NaN,NaN
Raw,241515926648526,658320219000000,,,-1265581155228064206,-0.05629682540893555,32.70908200647682,-83.44320681171483,12.54780037240862,209,5,0.0,81935,393075365854644,3,32.7,210.7574005126953,0.0340999998152256,25,9232.090707169787,0.0024208662868967453,1.17645005E9,,,,0,,6,-1.67,1.17645005E9,414.0,NaN,NaN
Raw,241515926648526,658320219000000,,,-1265581155228064206,-0.05629682540893555,32.70908200647682,-83.44320681171483,12.54780037240862,209,24,0.0,81935,393075375048306,5,28.6,-94.32256317138672,0.05560000240802765,25,-4230.550841294199,0.0040262828122019055,1.17645005E9,,,,0,,6,-1.67,1.17645005E9,414.0,NaN,NaN
Raw,241515926648526,658320219000000,,,-1265581155228064206,-0.05629682540893555,32.70908200647682,-83.44320681171483,12.54780037240862,209,25,0.0,81935,393075359383084,12,18.9,-484.1190490722656,0.060600001364946365,27,-6536.150184978438,0.25482803839368795,1.17645005E9,,,,0,,6,-1.67,1.17645005E9,414.0,NaN,NaN
Raw,241515926648526,658320219000000,,,-1265581155228064206,-0.05629682540893555,32.70908200647682,-83.44320681171483,12.54780037240862,209,31,0.0,81935,393075363473946,2,37.9,360.5424499511719,0.026600001379847527,25,15884.817289083052,0.0013505885638054542,1.17645005E9,,,,0,,6,-1.67,1.17645005E9,414.0,NaN,NaN
Fix,gps,51.524729,-0.134159,77.654480,0.000000,3.790092,1582204259000,241516924226855
Raw,241516953129410,658321219000000,,,-1265581155228064286,-0.2915992736816406,35.42794001987204,-83.2958002999952,13.532872428504676,209,12,0.0,16399,393076378268798,14,30.5,-404.8827819824219,0.04990000277757645,25,-11589.833225100972,0.002397700231676362,1.57542003E9,,,,0,,1,-0.25,1.57542003E9,414.0,NaN,NaN
Raw,241516953129410,658321219000000,,,-1265581155228064286,-0.2915992736816406,35.42794001987204,-83.2958002999952,13.532872428504676,209,17,0.0,16399,393076369577974,4,43.1,296.3243408203125,0.03150000050663948,25,15221.158765507214,5.137929194467054E-4,1.57542003E9,,,,0,,1,-0.25,1.57542003E9,414.0,NaN,NaN
Raw,241516953129410,658321219000000,,,-1265581155228064286,-0.2915992736816406,35.42794001987204,-83.2958002999952,13.532872428504676,209,19,0.0,16399,393076373857605,6,39.7,-14.324135780334473,0.03830000013113022,25,-1124.4032276601617,8.372921387687362E-4,1.57542003E9,,,,0,,1,-0.25,1.57542003E9,414.0,NaN,NaN
Raw,241516953129410,658321219000000,,,-1265581155228064286,-0.2915992736816406,35.42794001987204,-83.2958002999952,13.532872428504676,209,20,0.0,16399,393076365581535,40,21.2,538.0553588867188,0.8539999723434448,16,0.0,0.0,1.57542003E9,,,,0,,1,-0.25,1.57542003E9,414.0,NaN,NaN
Raw,241516953129410,658321219000000,,,-1265581155228064286,-0.2915992736816406,35.42794001987204,-83.2958002999952,13.532872428504676,209,24,0.0,16399,393076379949668,6,39.2,67.3447036743164,0.002300000051036477,25,3057.2137973182594,8.372921387687362E-4,1.57542003E9,,,,0,,1,-0.25,1.57542003E9,414.0,NaN,NaN
Raw,241516953129410,658321219000000,,,-1265581155228064286,-0.2915992736816406,35.42794001987204,-83.2958002999952,13.532872428504676,209,32,0.0,16399,393076368803768,10,34.6,-617.2413330078125,0.032600000500679016,25,-27885.907586978017,0.0015223494237726067,1.57542003E9,,,,0,,1,-0.25,1.57542003E9,414.0,NaN,NaN
Raw,241516953129410,658321219000000,,,-1265581155228064286,-0.2915992736816406,35.42794001987204,-83.2958002999952,13.532872428504676,209,14,0.0,49359,58258371159783,19,27.2,622.8798217773438,0.7129999995231628,16,0.0,0.0,1.59806246E9,,,,0,,3,-2.48,1.59806246E9,414.0,NaN,NaN
Raw,241516953129410,658321219000000,,,-1265581155228064286,-0.2915992736816406,35.42794001987204,-83.2958002999952,13.532872428504676,209,6,0.0,49359,58258379019243,12,32.6,-79.15442657470703,0.2501000165939331,25,-3833.1207664440813,0.0017802958155565083,1.59975002E9,,,,0,,3,-2.48,1.59975002E9,414.0,NaN,NaN
Raw,241516953129410,658321219000000,,,-1265581155228064286,-0.2915992736816406,35.42794001987204,-83.2958002999952,13.532872428504676,209,16,0.0,49359,58258378286911,14,30.6,-478.47015380859375,0.24990001320838928,25,-21500.52391258096,0.002358746511954898,1.60143744E9,,,,0,,3,-2.48,1.60143744E9,414.0,NaN,NaN
Raw,241516953129410,658321219000000,,,-1265581155228064286,-0.2915992736816406,35.42794001987204,-83.2958002999952,13.532872428504676,209,15,0.0,49359,58258381946002,9,35.8,189.3884735107422,0.2215999960899353,25,9296.576168355186,0.001309954600983276,1.602E9,,,,0,,3,-2.48,1.602E9,414.0,NaN,NaN
Raw,241516953129410,658321219000000,,,-1265581155228064286,-0.2915992736816406,35.42794001987204,-83.2958002999952,13.532872428504676,209,5,0.0,49359,58258375289931,92,15.7,699.8594970703125,2.2290000915527344,16,0.0,0.0,1.60256256E9,,,,0,,3,-2.48,1.60256256E9,414.0,NaN,NaN
Raw,241516953129410,658321219000000,,,-1265581155228064286,-0.2915992736816406,35.42794001987204,-83.2958002999952,13.532872428504676,209,23,0.0,49359,58258369431230,16,29.4,497.9412841796875,0.6299999952316284,16,0.0,0.0,1.60368755E9,,,,0,,3,-2.48,1.60368755E9,414.0,NaN,NaN
Raw,241516953129410,658321219000000,,,-1265581155228064286,-0.2915992736816406,35.42794001987204,-83.2958002999952,13.532872428504676,209,17,0.0,49359,58258373282301,13,31.1,-649.4711303710938,0.24160000681877136,25,-30494.788219509395,0.0020369255775898407,1.60424998E9,,,,0,,3,-2.48,1.60424998E9,414.0,NaN,NaN
Raw,241516953129410,658321219000000,,,-1265581155228064286,-0.2915992736816406,35.42794001987204,-83.2958002999952,13.532872428504676,209,7,0.0,49359,58258369699944,53,19.5,-705.2110595703125,1.1299999952316284,16,0.0,0.0,1.60481254E9,,,,0,,3,-2.48,1.60481254E9,414.0,NaN,NaN
Raw,241516953129410,658321219000000,,,-1265581155228064286,-0.2915992736816406,35.42794001987204,-83.2958002999952,13.532872428504676,209,36,0.0,16399,393062374283952,6,39.9,-36.16482162475586,0.0398000031709671,25,-1895.2083154775578,8.449737438469402E-4,1.56109798E9,,,,0,,5,0.55,1.56109798E9,414.0,NaN,NaN
Raw,241516953129410,658321219000000,,,-1265581155228064286,-0.2915992736816406,35.42794001987204,-83.2958002999952,13.532872428504676,209,30,0.0,16399,393062365651139,6,38.6,-550.796142578125,0.026600001379847527,25,-25177.82669300474,9.409935037250662E-4,1.56109798E9,,,,0,,5,0.55,1.56109798E9,414.0,NaN,NaN
Raw,241516953129410,658321219000000,,,-1265581155228064286,-0.2915992736816406,35.42794001987204,-83.2958002999952,13.532872428504676,209,27,0.0,16399,393062366589269,5,40.0,-68.67053985595703,0.0276000015437603,25,-3821.390314963873,7.489539839688142E-4,1.56109798E9,,,,0,,5,0.55,1.56109798E9,414.0,NaN,NaN
Raw,241516953129410,658321219000000,,,-1265581155228064286,-0.2915992736816406,35.42794001987204,-83.2958002999952,13.532872428504676,209,22,0.0,16399,393062365900370,35,22.7,453.5860595703125,0.38929998874664307,21,22667.143748607534,0.1920394882785269,1.56109798E9,,,,0,,5,0.55,1.56109798E9,414.0,NaN,NaN
Raw,241516953129410,658321219000000,,,-1265581155228064286,-0.2915992736816406,35.42794001987204,-83.2958002999952,13.532872428504676,209,21,0.0,16399,393062366664521,8,36.8,-81.79256439208984,0.028600001707673073,25,-4056.3073518156766,0.0011714408558922843,1.56109798E9,,,,0,,5,0.55,1.56109798E9,414.0,NaN,NaN
Raw,241516953129410,658321219000000,,,-1265581155228064286,-0.2915992736816406,35.42794001987204,-83.2958002999952,13.532872428504676,209,8,0.0,16399,393062311912885,35,22.6,-342.9498291015625,0.3982999920845032,19,-500.195530797019,0.1920394882785269,1.56109798E9,,,,0,,5,0.55,1.56109798E9,414.0,NaN,NaN
Raw,241516953129410,658321219000000,,,-1265581155228064286,-0.2915992736816406,35.42794001987204,-83.2958002999952,13.532872428504676,209,5,0.0,17167,393062311234788,27,24.1,-32.483482360839844,5.097599983215332,16,0.0,0.0,1.56109798E9,,,,0,,5,0.55,1.56109798E9,414.0,NaN,NaN
Raw,241516953129410,658321219000000,,,-1265581155228064286,-0.2915992736816406,35.42794001987204,-83.2958002999952,13.532872428504676,209,3,0.0,23567,393076361286245,6,39.7,-330.2956848144531,0.04430000111460686,25,-14921.508585474512,0.0018458486430946374,1.57542003E9,,,,0,,6,-0.95,1.57542003E9,414.0,NaN,NaN
Raw,241516953129410,658321219000000,,,-1265581155228064286,-0.2915992736816406,35.42794001987204,-83.2958002999952,13.532872428504676,209,5,0.0,23567,393076365846877,13,31.8,212.07489013671875,0.047600001096725464,25,2872.9143260172627,0.004528989424958011,1.57542003E9,,,,0,,6,-0.95,1.57542003E9,414.0,NaN,NaN
Raw,241516953129410,658321219000000,,,-1265581155228064286,-0.2915992736816406,35.42794001987204,-83.2958002999952,13.532872428504676,209,9,0.0,23567,393076364374327,70,17.4,572.4224243164062,1.8504999876022339,16,0.0,0.0,1.57542003E9,,,,0,,6,-0.95,1.57542003E9,414.0,NaN,NaN
Raw,241516953129410,658321219000000,,,-1265581155228064286,-0.2915992736816406,35.42794001987204,-83.2958002999952,13.532872428504676,209,24,0.0,23567,393076375041571,14,30.5,-93.19019317626953,0.05140000209212303,25,-4419.7794209010135,0.005233075867304602,1.57542003E9,,,,0,,6,-0.95,1.57542003E9,414.0,NaN,NaN
Raw,241516953129410,658321219000000,,,-1265581155228064286,-0.2915992736816406,35.42794001987204,-83.2958002999952,13.532872428504676,209,31,0.0,23567,393076363465640,16,29.8,361.8284912109375,0.046400003135204315,25,18672.65950130876,0.006146485344343376,1.57542003E9,,,,0,,6,-0.95,1.57542003E9,414.0,NaN,NaN
Raw,241516953129410,658321219000000,,,-1265581155228064286,-0.2915992736816406,35.42794001987204,-83.2958002999952,13.532872428504676,209,33,0.0,23567,393076356462507,80,16.7,-358.8748474121094,4.190500259399414,16,0.0,0.0,1.57542003E9,,,,0,,6,-0.95,1.57542003E9,414.0,NaN,NaN
Raw,241516953129410,658321219000000,,,-1265581155228064286,-0.2915992736816406,35.42794001987204,-83.2958002999952,13.532872428504676,209,10,0.0,81935,393076368757463,8,22.3,271.927001953125,0.7384999990463257,16,0.0,0.0,1.17645005E9,,,,0,,1,-1.05,1.17645005E9,414.0,NaN,NaN
Raw,241516953129410,658321219000000,,,-1265581155228064286,-0.2915992736816406,35.42794001987204,-83.2958002999952,13.532872428504676,209,24,0.0,81935,393076379957492,2,38.2,67.35767364501953,0.004999999888241291,25,2798.585668502913,0.0012486574029382824,1.17645005E9,,,,0,,1,-1.05,1.17645005E9,414.0,NaN,NaN
Raw,241516953129410,658321219000000,,,-1265581155228064286,-0.2915992736816406,35.42794001987204,-83.2958002999952,13.532872428504676,209,25,0.0,81935,393076369560753,11,19.0,-699.1207275390625,1.0099999904632568,16,0.0,0.0,1.17645005E9,,,,0,,1,-1.05,1.17645005E9,414.0,NaN,NaN
Raw,241516953129410,658321219000000,,,-1265581155228064286,-0.2915992736816406,35.42794001987204,-83.2958002999952,13.532872428504676,209,32,0.0,81935,393076368811643,6,25.3,-616.5692138671875,0.5885000228881836,16,0.0,0.0,1.17645005E9,,,,0,,1,-1.05,1.17645005E9,414.0,NaN,NaN
Raw,241516953129410,658321219000000,,,-1265581155228064286,-0.2915992736816406,35.42794001987204,-83.2958002999952,13.532872428504676,209,3,0.0,81935,393076361293342,2,39.6,-330.2218933105469,0.007499999832361937,25,-14881.9414881262,0.001121243362856653,1.17645005E9,,,,0,,6,-1.05,1.17645005E9,414.0,NaN,NaN
Raw,241516953129410,658321219000000,,,-1265581155228064286,-0.2915992736816406,35.42794001987204,-83.2958002999952,13.532872428504676,209,5,0.0,81935,393076365853938,2,34.0,212.1394500732422,0.03200000151991844,25,9442.946656324355,0.0020386244039789624,1.17645005E9,,,,0,,6,-1.05,1.17645005E9,414.0,NaN,NaN
Raw,241516953129410,658321219000000,,,-1265581155228064286,-0.2915992736816406,35.42794001987204,-83.2958002999952,13.532872428504676,209,9,0.0,81935,393076364381389,16,16.2,572.2800903320312,1.9225000143051147,16,0.0,0.0,1.17645005E9,,,,0,,6,-1.05,1.17645005E9,414.0,NaN,NaN
Raw,241516953129410,658321219000000,,,-1265581155228064286,-0.2915992736816406,35.42794001987204,-83.2958002999952,13.532872428504676,209,24,0.0,81935,393076375048618,5,28.5,-93.1613540649414,0.05560000240802765,25,-4324.982102485275,0.0040262828122019055,1.17645005E9,,,,0,,6,-1.05,1.17645005E9,414.0,NaN,NaN
Raw,241516953129410,658321219000000,,,-1265581155228064286,-0.2915992736816406,35.42794001987204,-83.2958002999952,13.532872428504676,209,25,0.0,81935,393076359384496,6,25.0,-484.8868103027344,0.6050000190734863,16,0.0,0.0,1.17645005E9,,,,0,,6,-1.05,1.17645005E9,414.0,NaN,NaN
Raw,241516953129410,658321219000000,,,-1265581155228064286,-0.2915992736816406,35.42794001987204,-83.2958002999952,13.532872428504676,209,31,0.0,81935,393076363472737,2,38.0,361.9082336425781,0.026000000536441803,25,16245.445612137195,0.0012486574029382824,1.17645005E9,,,,0,,6,-1.05,1.17645005E9,414.0,NaN,NaN
Fix,gps,51.524729,-0.134159,77.649536,0.000000,3.790092,1582204260000,241517926238309
Raw,241517950548780,658322219000000,,,-1265581155228064370,-0.9674477577209473,35.36120493663475,-81.22624315966743,14.483982899743406,209,12,0.0,16399,393077378270098,13,31.3,-403.9437561035156,0.04910000041127205,25,-11994.066905398056,0.002074201012354331,1.57542003E9,,,,0,,1,-0.27,1.57542003E9,414.0,NaN,NaN
Raw,241517950548780,658322219000000,,,-1265581155228064370,-0.9674477577209473,35.36120493663475,-81.22624315966743,14.483982899743406,209,15,0.0,16399,393077368923802,16,29.3,673.3379516601562,0.008899999782443047,19,302.2765791691307,0.00281634630106073,1.57542003E9,,,,0,,1,-0.27,1.57542003E9,414.0,NaN,NaN
Raw,241517950548780,658322219000000,,,-1265581155228064370,-0.9674477577209473,35.36120493663475,-81.22624315966743,14.483982899743406,209,17,0.0,16399,393077369577004,4,44.6,297.2230224609375,0.031300000846385956,25,15518.102871898036,4.947635405729984E-4,1.57542003E9,,,,0,,1,-0.27,1.57542003E9,414.0,NaN,NaN
Raw,241517950548780,658322219000000,,,-1265581155228064370,-0.9674477577209473,35.36120493663475,-81.22624315966743,14.483982899743406,209,19,0.0,16399,393077373857642,4,42.6,-13.394327163696289,0.03760000318288803,25,-1138.0877241536566,5.899103906353357E-4,1.57542003E9,,,,0,,1,-0.27,1.57542003E9,414.0,NaN,NaN
Raw,241517950548780,658322219000000,,,-1265581155228064370,-0.9674477577209473,35.36120493663475,-81.22624315966743,14.483982899743406,209,20,0.0,16399,393077365579751,24,25.2,539.0259399414062,0.040800001472234726,19,27850.3735161726,0.19029366893311156,1.57542003E9,,,,0,,1,-0.27,1.57542003E9,414.0,NaN,NaN
Raw,241517950548780,658322219000000,,,-1265581155228064370,-0.9674477577209473,35.36120493663475,-81.22624315966743,14.483982899743406,209,24,0.0,16399,393077379949439,5,41.6,68.20020294189453,0.01680000126361847,25,3125.1366822151986,6.850571963914755E-4,1.57542003E9,,,,0,,1,-0.27,1.57542003E9,414.0,NaN,NaN
Raw,241517950548780,658322219000000,,,-1265581155228064370,-0.9674477577209473,35.36120493663475,-81.22624315966743,14.483982899743406,209,32,0.0,16399,393077368805812,9,35.0,-616.4276123046875,0.032099999487400055,25,-28502.567018304726,0.0013320557236479321,1.57542003E9,,,,0,,1,-0.27,1.57542003E9,414.0,NaN,NaN
Raw,241517950548780,658322219000000,,,-1265581155228064370,-0.9674477577209473,35.36120493663475,-81.22624315966743,14.483982899743406,209,14,0.0,49359,58259371157730,40,21.3,623.9678955078125,1.003000020980835,16,0.0,0.0,1.59806246E9,,,,0,,3,-2.38,1.59806246E9,414.0,NaN,NaN
Raw,241517950548780,658322219000000,,,-1265581155228064370,-0.9674477577209473,35.36120493663475,-81.22624315966743,14.483982899743406,209,6,0.0,49359,58259379019505,8,36.4,-78.16754150390625,0.2630999982357025,25,-3911.5940166782075,0.0011431373278440271,1.59975002E9,,,,0,,3,-2.38,1.59975002E9,414.0,NaN,NaN
Raw,241517950548780,658322219000000,,,-1265581155228064370,-0.9674477577209473,35.36120493663475,-81.22624315966743,14.483982899743406,209,16,0.0,49359,58259378288433,11,33.9,-477.5977478027344,0.24819999933242798,25,-21978.36462116836,0.0016286583266290422,1.60143744E9,,,,0,,3,-2.38,1.60143744E9,414.0,NaN,NaN
Raw,241517950548780,658322219000000,,,-1265581155228064370,-0.9674477577209473,35.36120493663475,-81.22624315966743,14.483982899743406,209,15,0.0,49359,58259381945339,7,37.8,190.24029541015625,0.22089999914169312,25,9486.553731663045,9.918227095612844E-4,1.602E9,,,,0,,3,-2.38,1.602E9,414.0,NaN,NaN
Raw,241517950548780,658322219000000,,,-1265581155228064370,-0.9674477577209473,35.36120493663475,-81.22624315966743,14.483982899743406,209,5,0.0,49359,58259375287644,40,21.0,701.552490234375,1.0089999437332153,16,0.0,0.0,1.60256256E9,,,,0,,3,-2.38,1.60256256E9,414.0,NaN,NaN
Raw,241517950548780,658322219000000,,,-1265581155228064370,-0.9674477577209473,35.36120493663475,-81.22624315966743,14.483982899743406,209,23,0.0,49359,58259369429490,17,28.6,498.6227722167969,0.2387000024318695,19,22402.593315406502,0.002953643059565574,1.60368755E9,,,,0,,3,-2.38,1.60368755E9,414.0,NaN,NaN
Raw,241517950548780,658322219000000,,,-1265581155228064370,-0.9674477577209473,35.36120493663475,-81.22624315966743,14.483982899743406,209,17,0.0,49359,58259373284585,14,30.3,-648.5680541992188,0.24240000545978546,25,-31143.638462088144,0.0023546111973743247,1.60424998E9,,,,0,,3,-2.38,1.60424998E9,414.0,NaN,NaN
Raw,241517950548780,658322219000000,,,-1265581155228064370,-0.9674477577209473,35.36120493663475,-81.22624315966743,14.483982899743406,209,36,0.0,16399,393063374284083,5,40.9,-35.31264114379883,0.03960000351071358,25,-1930.7790017816287,7.489539839688142E-4,1.56109798E9,,,,0,,5,0.55,1.56109798E9,414.0,NaN,NaN
Raw,241517950548780,658322219000000,,,-1265581155228064370,-0.9674477577209473,35.36120493663475,-81.22624315966743,14.483982899743406,209,30,0.0,16399,393063365652982,5,40.3,-549.9571533203125,0.026100000366568565,25,-25728.04017633744,7.489539839688142E-4,1.56109798E9,,,,0,,5,0.55,1.56109798E9,414.0,NaN,NaN
Raw,241517950548780,658322219000000,,,-1265581155228064370,-0.9674477577209473,35.36120493663475,-81.22624315966743,14.483982899743406,209,27,0.0,16399,393063366589511,5,41.3,-67.77093505859375,0.027300002053380013,25,-3889.444812628955,6.913421459270097E-4,1.56109798E9,,,,0,,5,0.55,1.56109798E9,414.0,NaN,NaN
Raw,241517950548780,658322219000000,,,-1265581155228064370,-0.9674477577209473,35.36120493663475,-81.22624315966743,14.483982899743406,209,22,0.0,16399,393063365898984,40,21.2,454.5286865234375,0.8539999723434448,16,0.0,0.0,1.56109798E9,,,,0,,5,0.55,1.56109798E9,414.0,NaN,NaN
Raw,241517950548780,658322219000000,,,-1265581155228064370,-0.9674477577209473,35.36120493663475,-81.22624315966743,14.483982899743406,209,21,0.0,16399,393063366664781,6,38.9,-80.89952850341797,0.02810000069439411,25,-4137.482107424633,9.409935037250662E-4,1.56109798E9,,,,0,,5,0.55,1.56109798E9,414.0,NaN,NaN
Raw,241517950548780,658322219000000,,,-1265581155228064370,-0.9674477577209473,35.36120493663475,-81.22624315966743,14.483982899743406,209,8,0.0,16399,393063311914073,46,20.9,-341.6478576660156,0.8629999756813049,16,0.0,0.0,1.56109798E9,,,,0,,5,0.55,1.56109798E9,414.0,NaN,NaN
Raw,241517950548780,658322219000000,,,-1265581155228064370,-0.9674477577209473,35.36120493663475,-81.22624315966743,14.483982899743406,209,3,0.0,23567,393077361287346,5,40.9,-329.3794250488281,0.04410000145435333,25,-15251.133638040204,0.001617496273834944,1.57542003E9,,,,0,,6,-0.95,1.57542003E9,414.0,NaN,NaN
Raw,241517950548780,658322219000000,,,-1265581155228064370,-0.9674477577209473,35.36120493663475,-81.22624315966743,14.483982899743406,209,5,0.0,23567,393077365846175,12,32.7,213.00637817382812,0.0471000038087368,25,3085.6515720529815,0.003958108324583987,1.57542003E9,,,,0,,6,-0.95,1.57542003E9,414.0,NaN,NaN
Raw,241517950548780,658322219000000,,,-1265581155228064370,-0.9674477577209473,35.36120493663475,-81.22624315966743,14.483982899743406,209,24,0.0,23567,393077375041875,12,32.2,-92.3087158203125,0.05010000243782997,25,-4512.346308749153,0.003958108324583987,1.57542003E9,,,,0,,6,-0.95,1.57542003E9,414.0,NaN,NaN
Raw,241517950548780,658322219000000,,,-1265581155228064370,-0.9674477577209473,35.36120493663475,-81.22624315966743,14.483982899743406,209,26,0.0,23567,393077358281672,80,16.0,89.36190795898438,3.5334999561309814,16,0.0,0.0,1.57542003E9,,,,0,,6,-0.95,1.57542003E9,414.0,NaN,NaN
Raw,241517950548780,658322219000000,,,-1265581155228064370,-0.9674477577209473,35.36120493663475,-81.22624315966743,14.483982899743406,209,31,0.0,23567,393077363464440,10,34.7,362.7183532714844,0.04310000315308571,25,19035.103690643686,0.003311109885939926,1.57542003E9,,,,0,,6,-0.95,1.57542003E9,414.0,NaN,NaN
Raw,241517950548780,658322219000000,,,-1265581155228064370,-0.9674477577209473,35.36120493663475,-81.22624315966743,14.483982899743406,209,33,0.0,23567,393077356463737,31,23.2,-358.4466857910156,0.6904999613761902,16,0.0,0.0,1.57542003E9,,,,0,,6,-0.95,1.57542003E9,414.0,NaN,NaN
Raw,241517950548780,658322219000000,,,-1265581155228064370,-0.9674477577209473,35.36120493663475,-81.22624315966743,14.483982899743406,209,10,0.0,81935,393077368756585,11,19.4,272.37786865234375,0.16189999878406525,27,4265.451000133188,0.25482803839368795,1.17645005E9,,,,0,,1,-2.43,1.17645005E9,414.0,NaN,NaN
Raw,241517950548780,658322219000000,,,-1265581155228064370,-0.9674477577209473,35.36120493663475,-81.22624315966743,14.483982899743406,209,24,0.0,81935,393077379957269,3,31.6,68.17049407958984,0.02630000188946724,25,2866.5044127727547,0.0027776256465907277,1.17645005E9,,,,0,,1,-2.43,1.17645005E9,414.0,NaN,NaN
Raw,241517950548780,658322219000000,,,-1265581155228064370,-0.9674477577209473,35.36120493663475,-81.22624315966743,14.483982899743406,209,25,0.0,81935,393077369563297,9,21.0,-699.3362426757812,0.058900002390146255,27,-32282.054508085876,0.25482803839368795,1.17645005E9,,,,0,,1,-2.43,1.17645005E9,414.0,NaN,NaN
Raw,241517950548780,658322219000000,,,-1265581155228064370,-0.9674477577209473,35.36120493663475,-81.22624315966743,14.483982899743406,209,32,0.0,81935,393077368813696,5,28.2,-616.4832763671875,0.045099999755620956,27,-27523.553316494756,0.0040262828122019055,1.17645005E9,,,,0,,1,-2.43,1.17645005E9,414.0,NaN,NaN
Raw,241517950548780,658322219000000,,,-1265581155228064370,-0.9674477577209473,35.36120493663475,-81.22624315966743,14.483982899743406,209,3,0.0,81935,393077361294440,2,41.2,-329.37591552734375,0.02160000056028366,25,-15211.58354046818,9.173809224587568E-4,1.17645005E9,,,,0,,6,-2.43,1.17645005E9,414.0,NaN,NaN
Raw,241517950548780,658322219000000,,,-1265581155228064370,-0.9674477577209473,35.36120493663475,-81.22624315966743,14.483982899743406,209,5,0.0,81935,393077365853225,2,35.6,213.01815795898438,0.03110000118613243,25,9655.668660618041,0.0017837963238157039,1.17645005E9,,,,0,,6,-2.43,1.17645005E9,414.0,NaN,NaN
Raw,241517950548780,658322219000000,,,-1265581155228064370,-0.9674477577209473,35.36120493663475,-81.22624315966743,14.483982899743406,209,9,0.0,81935,393077364379460,12,18.2,573.7198486328125,1.002500057220459,16,0.0,0.0,1.17645005E9,,,,0,,6,-2.43,1.17645005E9,414.0,NaN,NaN
Raw,241517950548780,658322219000000,,,-1265581155228064370,-0.9674477577209473,35.36120493663475,-81.22624315966743,14.483982899743406,209,24,0.0,81935,393077375048921,4,29.1,-92.3587646484375,0.05350000038743019,29,-4417.54792189645,0.0037714549693657518,1.17645005E9,,,,0,,6,-2.43,1.17645005E9,414.0,NaN,NaN
Raw,241517950548780,658322219000000,,,-1265581155228064370,-0.9674477577209473,35.36120493663475,-81.22624315966743,14.483982899743406,209,25,0.0,81935,393077359386310,12,18.6,-484.160888671875,0.0738999992609024,27,-7502.871697397662,0.25482803839368795,1.17645005E9,,,,0,,6,-2.43,1.17645005E9,414.0,NaN,NaN
Raw,241517950548780,658322219000000,,,-1265581155228064370,-0.9674477577209473,35.36120493663475,-81.22624315966743,14.483982899743406,209,26,0.0,81935,393077358288797,20,14.0,90.10719299316406,5.883500099182129,16,0.0,0.0,1.17645005E9,,,,0,,6,-2.43,1.17645005E9,414.0,NaN,NaN
Raw,241517950548780,658322219000000,,,-1265581155228064370,-0.9674477577209473,35.36120493663475,-81.22624315966743,14.483982899743406,209,31,0.0,81935,393077363471519,2,34.6,362.65533447265625,0.029000001028180122,25,16607.92071571442,0.0020386244039789624,1.17645005E9,,,,0,,6,-2.43,1.17645005E9,414.0,NaN,NaN
Raw,241517950548780,658322219000000,,,-1265581155228064370,-0.9674477577209473,35.36120493663475,-81.22624315966743,14.483982899743406,209,33,0.0,81935,393077356470842,18,15.7,-358.2245178222656,4.280500411987305,16,0.0,0.0,1.17645005E9,,,,0,,6,-2.43,1.17645005E9,414.0,NaN,NaN
Fix,gps,51.524729,-0.134159,77.662903,0.000000,3.790092,1582204261000,241518926217887
Raw,241518944919452,658323219000000,,,-1265581155228064445,-0.11562585830688477,37.238325603539124,-78.56444509584513,15.423248488889945,209,12,0.0,16399,393078378271433,12,32.0,-403.7663269042969,0.048600003123283386,25,-12397.871575226533,0.001807789796734829,1.57542003E9,,,,0,,1,-0.39,1.57542003E9,414.0,NaN,NaN
Raw,241518944919452,658323219000000,,,-1265581155228064445,-0.11562585830688477,37.238325603539124,-78.56444509584513,15.423248488889945,209,17,0.0,16399,393078369576015,4,45.6,297.3937683105469,0.030000001192092896,25,15815.48416423344,4.186460693843681E-4,1.57542003E9,,,,0,,1,-0.39,1.57542003E9,414.0,NaN,NaN
Raw,241518944919452,658323219000000,,,-1265581155228064445,-0.11562585830688477,37.238325603539124,-78.56444509584513,15.423248488889945,209,19,0.0,16399,393078373857685,4,42.2,-13.179615020751953,0.03760000318288803,25,-1151.3057138354854,5.899103906353357E-4,1.57542003E9,,,,0,,1,-0.39,1.57542003E9,414.0,NaN,NaN
Raw,241518944919452,658323219000000,,,-1265581155228064445,-0.11562585830688477,37.238325603539124,-78.56444509584513,15.423248488889945,209,20,0.0,16399,393078365577896,31,23.7,539.1038208007812,0.10370000451803207,29,28389.615019881196,0.19029366893311156,1.57542003E9,,,,0,,1,-0.39,1.57542003E9,414.0,NaN,NaN
Raw,241518944919452,658323219000000,,,-1265581155228064445,-0.11562585830688477,37.238325603539124,-78.56444509584513,15.423248488889945,209,24,0.0,16399,393078379949209,4,42.7,68.36212158203125,0.0015999999595806003,25,3193.5075642693273,5.899103906353357E-4,1.57542003E9,,,,0,,1,-0.39,1.57542003E9,414.0,NaN,NaN
Raw,241518944919452,658323219000000,,,-1265581155228064445,-0.11562585830688477,37.238325603539124,-78.56444509584513,15.423248488889945,209,32,0.0,16399,393078368807855,11,33.8,-616.2567138671875,0.03319999948143959,25,-29118.83817279529,0.001655554942969963,1.57542003E9,,,,0,,1,-0.39,1.57542003E9,414.0,NaN,NaN
Raw,241518944919452,658323219000000,,,-1265581155228064445,-0.11562585830688477,37.238325603539124,-78.56444509584513,15.423248488889945,209,14,0.0,49359,58260371155646,21,26.1,623.8443603515625,0.24320000410079956,27,32575.999129930417,0.005365287306028947,1.59806246E9,,,,0,,3,-2.42,1.59806246E9,414.0,NaN,NaN
Raw,241518944919452,658323219000000,,,-1265581155228064445,-0.11562585830688477,37.238325603539124,-78.56444509584513,15.423248488889945,209,6,0.0,49359,58260379019731,8,36.3,-77.89826965332031,0.24810001254081726,25,-3989.5662898133755,0.0011431373278440271,1.59975002E9,,,,0,,3,-2.42,1.59975002E9,414.0,NaN,NaN
Raw,241518944919452,658323219000000,,,-1265581155228064445,-0.11562585830688477,37.238325603539124,-78.56444509584513,15.423248488889945,209,16,0.0,49359,58260378290037,10,34.6,-477.41680908203125,0.2476000040769577,25,-22455.80986627172,0.001497616902171977,1.60143744E9,,,,0,,3,-2.42,1.60143744E9,414.0,NaN,NaN
Raw,241518944919452,658323219000000,,,-1265581155228064445,-0.11562585830688477,37.238325603539124,-78.56444509584513,15.423248488889945,209,15,0.0,49359,58260381944717,7,37.8,190.3938446044922,0.20589999854564667,25,9676.958391201435,9.918227095612844E-4,1.602E9,,,,0,,3,-2.42,1.602E9,414.0,NaN,NaN
Raw,241518944919452,658323219000000,,,-1265581155228064445,-0.11562585830688477,37.238325603539124,-78.56444509584513,15.423248488889945,209,5,0.0,49359,58260375285129,40,21.7,701.5431518554688,1.0089999437332153,16,0.0,0.0,1.60256256E9,,,,0,,3,-2.42,1.60256256E9,414.0,NaN,NaN
Raw,241518944919452,658323219000000,,,-1265581155228064445,-0.11562585830688477,37.238325603539124,-78.56444509584513,15.423248488889945,209,23,0.0,49359,58260369427929,13,31.8,498.8301696777344,0.23560000956058502,25,22901.372158428312,0.002037639951237641,1.60368755E9,,,,0,,3,-2.42,1.60368755E9,414.0,NaN,NaN
Raw,241518944919452,658323219000000,,,-1265581155228064445,-0.11562585830688477,37.238325603539124,-78.56444509584513,15.423248488889945,209,17,0.0,49359,58260373286715,14,30.6,-648.3756713867188,0.24240000545978546,25,-31792.044186225838,0.0023546111973743247,1.60424998E9,,,,0,,3,-2.42,1.60424998E9,414.0,NaN,NaN
Raw,241518944919452,658323219000000,,,-1265581155228064445,-0.11562585830688477,37.238325603539124,-78.56444509584513,15.423248488889945,209,36,0.0,16399,393064374284196,4,42.8,-35.156272888183594,0.039100002497434616,25,-1965.9400427465048,5.953224307615613E-4,1.56109798E9,,,,0,,5,0.46,1.56109798E9,414.0,NaN,NaN
Raw,241518944919452,658323219000000,,,-1265581155228064445,-0.11562585830688477,37.238325603539124,-78.56444509584513,15.423248488889945,209,30,0.0,16399,393064365654805,5,40.6,-549.854736328125,0.011100000701844692,25,-26277.867033781135,7.489539839688142E-4,1.56109798E9,,,,0,,5,0.46,1.56109798E9,414.0,NaN,NaN
Raw,241518944919452,658323219000000,,,-1265581155228064445,-0.11562585830688477,37.238325603539124,-78.56444509584513,15.423248488889945,209,27,0.0,16399,393064366589748,4,42.1,-67.59334564208984,0.02710000053048134,25,-3957.0520214783446,5.953224307615613E-4,1.56109798E9,,,,0,,5,0.46,1.56109798E9,414.0,NaN,NaN
Raw,241518944919452,658323219000000,,,-1265581155228064445,-0.11562585830688477,37.238325603539124,-78.56444509584513,15.423248488889945,209,22,0.0,16399,393064365897436,27,24.9,454.755615234375,0.03380000218749046,19,23576.306207807607,0.1920394882785269,1.56109798E9,,,,0,,5,0.46,1.56109798E9,414.0,NaN,NaN
Raw,241518944919452,658323219000000,,,-1265581155228064445,-0.11562585830688477,37.238325603539124,-78.56444509584513,15.423248488889945,209,21,0.0,16399,393064366665045,6,39.2,-80.6915512084961,0.027800001204013824,25,-4218.206761554084,8.449737438469402E-4,1.56109798E9,,,,0,,5,0.46,1.56109798E9,414.0,NaN,NaN
Raw,241518944919452,658323219000000,,,-1265581155228064445,-0.11562585830688477,37.238325603539124,-78.56444509584513,15.423248488889945,209,8,0.0,16399,393064311915157,31,23.1,-341.8138732910156,0.12770000100135803,19,-1184.511877521184,0.1920394882785269,1.56109798E9,,,,0,,5,0.46,1.56109798E9,414.0,NaN,NaN
Raw,241518944919452,658323219000000,,,-1265581155228064445,-0.11562585830688477,37.238325603539124,-78.56444509584513,15.423248488889945,209,3,0.0,23567,393078361288449,5,40.2,-329.208740234375,0.04410000145435333,25,-15580.356440531428,0.001617496273834944,1.57542003E9,,,,0,,6,-1.0,1.57542003E9,414.0,NaN,NaN
Raw,241518944919452,658323219000000,,,-1265581155228064445,-0.11562585830688477,37.238325603539124,-78.56444509584513,15.423248488889945,209,5,0.0,23567,393078365845474,13,31.8,213.1983184814453,0.047600001096725464,25,3298.8146096570777,0.004528989424958011,1.57542003E9,,,,0,,6,-1.0,1.57542003E9,414.0,NaN,NaN
Raw,241518944919452,658323219000000,,,-1265581155228064445,-0.11562585830688477,37.238325603539124,-78.56444509584513,15.423248488889945,209,9,0.0,23567,393078364370516,40,21.7,574.0588989257812,0.7804999947547913,16,0.0,0.0,1.57542003E9,,,,0,,6,-1.0,1.57542003E9,414.0,NaN,NaN
Raw,241518944919452,658323219000000,,,-1265581155228064445,-0.11562585830688477,37.238325603539124,-78.56444509584513,15.423248488889945,209,24,0.0,23567,393078375042183,10,34.3,-92.11485290527344,0.04910000041127205,25,-4604.485870114991,0.003311109885939926,1.57542003E9,,,,0,,6,-1.0,1.57542003E9,414.0,NaN,NaN
Raw,241518944919452,658323219000000,,,-1265581155228064445,-0.11562585830688477,37.238325603539124,-78.56444509584513,15.423248488889945,209,31,0.0,23567,393078363463237,11,33.4,362.8373107910156,0.04370000213384628,25,19397.937627769912,0.003596550258902148,1.57542003E9,,,,0,,6,-1.0,1.57542003E9,414.0,NaN,NaN
Raw,241518944919452,658323219000000,,,-1265581155228064445,-0.11562585830688477,37.238325603539124,-78.56444509584513,15.423248488889945,209,33,0.0,23567,393078356464947,21,26.5,-357.8713073730469,0.050700001418590546,19,-548.2971706978678,0.011874324619302384,1.57542003E9,,,,0,,6,-1.0,1.57542003E9,414.0,NaN,NaN
Raw,241518944919452,658323219000000,,,-1265581155228064445,-0.11562585830688477,37.238325603539124,-78.56444509584513,15.423248488889945,209,10,0.0,81935,393078368755661,14,17.9,272.8953552246094,1.088499903678894,16,0.0,0.0,1.17645005E9,,,,0,,1,-4.7,1.17645005E9,414.0,NaN,NaN
Raw,241518944919452,658323219000000,,,-1265581155228064445,-0.11562585830688477,37.238325603539124,-78.56444509584513,15.423248488889945,209,24,0.0,81935,393078379957034,2,38.9,68.38666534423828,0.004999999888241291,25,2934.9028991272194,0.0012486574029382824,1.17645005E9,,,,0,,1,-4.7,1.17645005E9,414.0,NaN,NaN
Raw,241518944919452,658323219000000,,,-1265581155228064445,-0.11562585830688477,37.238325603539124,-78.56444509584513,15.423248488889945,209,25,0.0,81935,393078369565400,10,20.2,-698.2925415039062,0.8600000143051147,16,0.0,0.0,1.17645005E9,,,,0,,1,-4.7,1.17645005E9,414.0,NaN,NaN
Raw,241518944919452,658323219000000,,,-1265581155228064445,-0.11562585830688477,37.238325603539124,-78.56444509584513,15.423248488889945,209,32,0.0,81935,393078368815749,5,27.8,-616.2191772460938,0.04800000041723251,29,-28139.814980851515,0.004332076888121183,1.17645005E9,,,,0,,1,-4.7,1.17645005E9,414.0,NaN,NaN
Raw,241518944919452,658323219000000,,,-1265581155228064445,-0.11562585830688477,37.238325603539124,-78.56444509584513,15.423248488889945,209,3,0.0,81935,393078361295537,2,39.4,-329.2489929199219,0.007499999832361937,25,-15540.80594587838,0.001121243362856653,1.17645005E9,,,,0,,6,-4.7,1.17645005E9,414.0,NaN,NaN
Raw,241518944919452,658323219000000,,,-1265581155228064445,-0.11562585830688477,37.238325603539124,-78.56444509584513,15.423248488889945,209,5,0.0,81935,393078365852516,3,33.2,213.25013732910156,0.017999999225139618,25,9868.833896412185,0.0022170039651624013,1.17645005E9,,,,0,,6,-4.7,1.17645005E9,414.0,NaN,NaN
Raw,241518944919452,658323219000000,,,-1265581155228064445,-0.11562585830688477,37.238325603539124,-78.56444509584513,15.423248488889945,209,9,0.0,81935,393078364377355,11,19.2,574.2804565429688,0.9074999690055847,16,0.0,0.0,1.17645005E9,,,,0,,6,-4.7,1.17645005E9,414.0,NaN,NaN
Raw,241518944919452,658323219000000,,,-1265581155228064445,-0.11562585830688477,37.238325603539124,-78.56444509584513,15.423248488889945,209,24,0.0,81935,393078375049227,5,27.0,-91.8621826171875,0.058500003069639206,29,-4509.629577213945,0.004332076888121183,1.17645005E9,,,,0,,6,-4.7,1.17645005E9,414.0,NaN,NaN
Raw,241518944919452,658323219000000,,,-1265581155228064445,-0.11562585830688477,37.238325603539124,-78.56444509584513,15.423248488889945,209,25,0.0,81935,393078359387735,6,25.5,-484.20367431640625,0.08300000429153442,29,-271.08105919971933,0.25482803839368795,1.17645005E9,,,,0,,6,-4.7,1.17645005E9,414.0,NaN,NaN
Raw,241518944919452,658323219000000,,,-1265581155228064445,-0.11562585830688477,37.238325603539124,-78.56444509584513,15.423248488889945,209,31,0.0,81935,393078363470312,2,36.2,362.7512512207031,0.012400000356137753,25,16970.744502309095,0.0015544510042033504,1.17645005E9,,,,0,,6,-4.7,1.17645005E9,414.0,NaN,NaN
Raw,241518944919452,658323219000000,,,-1265581155228064445,-0.11562585830688477,37.238325603539124,-78.56444509584513,15.423248488889945,209,33,0.0,81935,393078356472064,11,19.3,-358.93804931640625,0.9404999613761902,16,0.0,0.0,1.17645005E9,,,,0,,6,-4.7,1.17645005E9,414.0,NaN,NaN
Fix,gps,51.524729,-0.134159,77.239563,0.000000,3.790092,1582204262000,241519915399496
Raw,241519932755384,658324219000000,,,-1265581155228064520,-0.9550857543945312,37.56386286113411,-78.38505565286327,14.48046776755276,209,12,0.0,16399,393079378272838,16,29.9,-403.9352111816406,0.05090000107884407,25,-12801.560501069596,0.00281634630106073,1.57542003E9,,,,0,,1,-0.54,1.57542003E9,414.0,NaN,NaN
Raw,241519932755384,658324219000000,,,-1265581155228064520,-0.9550857543945312,37.56386286113411,-78.38505565286327,14.48046776755276,209,17,0.0,16399,393079369575029,4,44.8,297.212890625,0.031300000846385956,25,16112.947170356509,4.947635405729984E-4,1.57542003E9,,,,0,,1,-0.54,1.57542003E9,414.0,NaN,NaN
Raw,241519932755384,658324219000000,,,-1265581155228064520,-0.9550857543945312,37.56386286113411,-78.38505565286327,14.48046776755276,209,19,0.0,16399,393079373857740,4,43.8,-13.31303596496582,0.03750000149011612,25,-1164.391609490864,5.137929194467054E-4,1.57542003E9,,,,0,,1,-0.54,1.57542003E9,414.0,NaN,NaN
Raw,241519932755384,658324219000000,,,-1265581155228064520,-0.9550857543945312,37.56386286113411,-78.38505565286327,14.48046776755276,209,20,0.0,16399,393079365576180,31,23.2,538.739990234375,0.11870000511407852,21,28928.512890619917,0.19029366893311156,1.57542003E9,,,,0,,1,-0.54,1.57542003E9,414.0,NaN,NaN
Raw,241519932755384,658324219000000,,,-1265581155228064520,-0.9550857543945312,37.56386286113411,-78.38505565286327,14.48046776755276,209,24,0.0,16399,393079379948997,5,41.1,68.1314468383789,0.0017999999690800905,25,3261.9565020287973,6.850571963914755E-4,1.57542003E9,,,,0,,1,-0.54,1.57542003E9,414.0,NaN,NaN
Raw,241519932755384,658324219000000,,,-1265581155228064520,-0.9550857543945312,37.56386286113411,-78.38505565286327,14.48046776755276,209,32,0.0,16399,393079368809923,11,33.6,-616.5118408203125,0.03319999948143959,25,-29735.05584666603,0.001655554942969963,1.57542003E9,,,,0,,1,-0.54,1.57542003E9,414.0,NaN,NaN
Raw,241519932755384,658324219000000,,,-1265581155228064520,-0.9550857543945312,37.56386286113411,-78.38505565286327,14.48046776755276,209,14,0.0,49359,58261371153570,46,20.9,624.1085815429688,1.062999963760376,16,0.0,0.0,1.59806246E9,,,,0,,3,-2.53,1.59806246E9,414.0,NaN,NaN
Raw,241519932755384,658324219000000,,,-1265581155228064520,-0.9550857543945312,37.56386286113411,-78.38505565286327,14.48046776755276,209,6,0.0,49359,58261379020036,12,32.5,-78.01854705810547,0.2501000165939331,25,-4067.365335989773,0.0017802958155565083,1.59975002E9,,,,0,,3,-2.53,1.59975002E9,414.0,NaN,NaN
Raw,241519932755384,658324219000000,,,-1265581155228064520,-0.9550857543945312,37.56386286113411,-78.38505565286327,14.48046776755276,209,16,0.0,49359,58261378291617,12,32.4,-477.64617919921875,0.24860000610351562,25,-22933.17970867254,0.0017784199296734672,1.60143744E9,,,,0,,3,-2.53,1.60143744E9,414.0,NaN,NaN
Raw,241519932755384,658324219000000,,,-1265581155228064520,-0.9550857543945312,37.56386286113411,-78.38505565286327,14.48046776755276,209,15,0.0,49359,58261381944090,6,38.6,190.16070556640625,0.20560000836849213,25,9867.435641616355,9.169682032598611E-4,1.602E9,,,,0,,3,-2.53,1.602E9,414.0,NaN,NaN
Raw,241519932755384,658324219000000,,,-1265581155228064520,-0.9550857543945312,37.56386286113411,-78.38505565286327,14.48046776755276,209,5,0.0,49359,58261375282831,46,20.5,700.7013549804688,1.069000005722046,16,0.0,0.0,1.60256256E9,,,,0,,3,-2.53,1.60256256E9,414.0,NaN,NaN
Raw,241519932755384,658324219000000,,,-1265581155228064520,-0.9550857543945312,37.56386286113411,-78.38505565286327,14.48046776755276,209,23,0.0,49359,58261369426241,19,27.5,498.747314453125,0.23930001258850098,21,23400.37252154715,0.0031779707067089934,1.60368755E9,,,,0,,3,-2.53,1.60368755E9,414.0,NaN,NaN
Raw,241519932755384,658324219000000,,,-1265581155228064520,-0.9550857543945312,37.56386286113411,-78.38505565286327,14.48046776755276,209,17,0.0,49359,58261373288810,11,33.4,-648.55810546875,0.24070000648498535,25,-32440.355878695944,0.0016258029903346391,1.60424998E9,,,,0,,3,-2.53,1.60424998E9,414.0,NaN,NaN
Raw,241519932755384,658324219000000,,,-1265581155228064520,-0.9550857543945312,37.56386286113411,-78.38505565286327,14.48046776755276,209,7,0.0,49359,58261369707295,92,15.2,-704.4451293945312,2.9700002670288086,16,0.0,0.0,1.60481254E9,,,,0,,3,-2.53,1.60481254E9,414.0,NaN,NaN
Raw,241519932755384,658324219000000,,,-1265581155228064520,-0.9550857543945312,37.56386286113411,-78.38505565286327,14.48046776755276,209,36,0.0,16399,393065374284312,4,43.1,-35.36844253540039,0.039000000804662704,25,-2001.0484221606118,5.185066318015961E-4,1.56109798E9,,,,0,,5,0.33,1.56109798E9,414.0,NaN,NaN
Raw,241519932755384,658324219000000,,,-1265581155228064520,-0.9550857543945312,37.56386286113411,-78.38505565286327,14.48046776755276,209,30,0.0,16399,393065365656647,7,37.5,-550.0452270507812,0.026900000870227814,25,-26827.64284073221,0.0010178092579723537,1.56109798E9,,,,0,,5,0.33,1.56109798E9,414.0,NaN,NaN
Raw,241519932755384,658324219000000,,,-1265581155228064520,-0.9550857543945312,37.56386286113411,-78.38505565286327,14.48046776755276,209,27,0.0,16399,393065366590011,6,38.4,-67.7745590209961,0.02810000069439411,25,-4024.574614542859,9.409935037250662E-4,1.56109798E9,,,,0,,5,0.33,1.56109798E9,414.0,NaN,NaN
Raw,241519932755384,658324219000000,,,-1265581155228064520,-0.9550857543945312,37.56386286113411,-78.38505565286327,14.48046776755276,209,22,0.0,16399,393065365895919,46,20.6,454.01019287109375,0.9239999651908875,16,0.0,0.0,1.56109798E9,,,,0,,5,0.33,1.56109798E9,414.0,NaN,NaN
Raw,241519932755384,658324219000000,,,-1265581155228064520,-0.9550857543945312,37.56386286113411,-78.38505565286327,14.48046776755276,209,21,0.0,16399,393065366665311,6,38.0,-80.86907958984375,0.02810000069439411,25,-4298.818757657298,9.409935037250662E-4,1.56109798E9,,,,0,,5,0.33,1.56109798E9,414.0,NaN,NaN
Raw,241519932755384,658324219000000,,,-1265581155228064520,-0.9550857543945312,37.56386286113411,-78.38505565286327,14.48046776755276,209,8,0.0,16399,393065311916330,21,26.4,-342.2691955566406,0.04320000112056732,21,-1526.5094283985168,0.005492329335005111,1.56109798E9,,,,0,,5,0.33,1.56109798E9,414.0,NaN,NaN
Raw,241519932755384,658324219000000,,,-1265581155228064520,-0.9550857543945312,37.56386286113411,-78.38505565286327,14.48046776755276,209,3,0.0,23567,393079361289528,6,39.5,-329.37640380859375,0.04430000111460686,25,-15909.501635678864,0.0018458486430946374,1.57542003E9,,,,0,,6,-1.21,1.57542003E9,414.0,NaN,NaN
Raw,241519932755384,658324219000000,,,-1265581155228064520,-0.9550857543945312,37.56386286113411,-78.38505565286327,14.48046776755276,209,5,0.0,23567,393079365844753,16,29.8,213.02066040039062,0.049400001764297485,25,3512.077413198268,0.006146485344343376,1.57542003E9,,,,0,,6,-1.21,1.57542003E9,414.0,NaN,NaN
Raw,241519932755384,658324219000000,,,-1265581155228064520,-0.9550857543945312,37.56386286113411,-78.38505565286327,14.48046776755276,209,9,0.0,23567,393079364368575,40,21.2,574.3157958984375,0.8104999661445618,16,0.0,0.0,1.57542003E9,,,,0,,6,-1.21,1.57542003E9,414.0,NaN,NaN
Raw,241519932755384,658324219000000,,,-1265581155228064520,-0.9550857543945312,37.56386286113411,-78.38505565286327,14.48046776755276,209,24,0.0,23567,393079375042458,9,35.4,-92.32988739013672,0.048600003123283386,25,-4696.580210193442,0.0028924638165555576,1.57542003E9,,,,0,,6,-1.21,1.57542003E9,414.0,NaN,NaN
Raw,241519932755384,658324219000000,,,-1265581155228064520,-0.9550857543945312,37.56386286113411,-78.38505565286327,14.48046776755276,209,26,0.0,23567,393079358281133,80,16.7,89.59026336669922,1.94350004196167,16,0.0,0.0,1.57542003E9,,,,0,,6,-1.21,1.57542003E9,414.0,NaN,NaN
Raw,241519932755384,658324219000000,,,-1265581155228064520,-0.9550857543945312,37.56386286113411,-78.38505565286327,14.48046776755276,209,31,0.0,23567,393079363462011,14,30.9,362.572509765625,0.04540000110864639,25,19760.78158773497,0.005233075867304602,1.57542003E9,,,,0,,6,-1.21,1.57542003E9,414.0,NaN,NaN
Raw,241519932755384,658324219000000,,,-1265581155228064520,-0.9550857543945312,37.56386286113411,-78.38505565286327,14.48046776755276,209,33,0.0,23567,393079356466146,21,26.2,-358.0282287597656,0.050700001418590546,21,-906.1463913405463,0.011874324619302384,1.57542003E9,,,,0,,6,-1.21,1.57542003E9,414.0,NaN,NaN
Raw,241519932755384,658324219000000,,,-1265581155228064520,-0.9550857543945312,37.56386286113411,-78.38505565286327,14.48046776755276,209,24,0.0,81935,393079379956805,2,37.1,68.12013244628906,0.00559999980032444,25,3003.345600743165,0.0013505885638054542,1.17645005E9,,,,0,,1,-11.94,1.17645005E9,414.0,NaN,NaN
Raw,241519932755384,658324219000000,,,-1265581155228064520,-0.9550857543945312,37.56386286113411,-78.38505565286327,14.48046776755276,209,32,0.0,81935,393079368817809,7,24.5,-616.5091552734375,0.08709999918937683,29,-28756.04971269032,0.25482803839368795,1.17645005E9,,,,0,,1,-11.94,1.17645005E9,414.0,NaN,NaN
Raw,241519932755384,658324219000000,,,-1265581155228064520,-0.9550857543945312,37.56386286113411,-78.38505565286327,14.48046776755276,209,3,0.0,81935,393079361296636,2,35.2,-329.3720397949219,0.010100000537931919,25,-15869.977313861544,0.0017837963238157039,1.17645005E9,,,,0,,6,-11.94,1.17645005E9,414.0,NaN,NaN
Raw,241519932755384,658324219000000,,,-1265581155228064520,-0.9550857543945312,37.56386286113411,-78.38505565286327,14.48046776755276,209,5,0.0,81935,393079365851798,4,29.8,213.06642150878906,0.03849999979138374,29,10082.08996317829,0.0037714549693657518,1.17645005E9,,,,0,,6,-11.94,1.17645005E9,414.0,NaN,NaN
Raw,241519932755384,658324219000000,,,-1265581155228064520,-0.9550857543945312,37.56386286113411,-78.38505565286327,14.48046776755276,209,24,0.0,81935,393079375049526,5,27.5,-92.37499237060547,0.058500003069639206,25,-4601.727553622304,0.004332076888121183,1.17645005E9,,,,0,,6,-11.94,1.17645005E9,414.0,NaN,NaN
Raw,241519932755384,658324219000000,,,-1265581155228064520,-0.9550857543945312,37.56386286113411,-78.38505565286327,14.48046776755276,209,25,0.0,81935,393079359389345,9,21.2,-483.5744323730469,0.8149999976158142,16,0.0,0.0,1.17645005E9,,,,0,,6,-11.94,1.17645005E9,414.0,NaN,NaN
Raw,241519932755384,658324219000000,,,-1265581155228064520,-0.9550857543945312,37.56386286113411,-78.38505565286327,14.48046776755276,209,26,0.0,81935,393079358288208,16,16.1,88.82032012939453,1.94350004196167,16,0.0,0.0,1.17645005E9,,,,0,,6,-11.94,1.17645005E9,414.0,NaN,NaN
Raw,241519932755384,658324219000000,,,-1265581155228064520,-0.9550857543945312,37.56386286113411,-78.38505565286327,14.48046776755276,209,31,0.0,81935,393079363469102,2,35.1,362.6103515625,0.02810000069439411,25,17333.584451497096,0.0017837963238157039,1.17645005E9,,,,0,,6,-11.94,1.17645005E9,414.0,NaN,NaN
Fix,gps,51.524729,-0.134159,77.396179,0.000000,3.790092,1582204263000,241520921964284
Raw,241520939124703,658325219000000,,,-1265581155228064601,-0.33194923400878906,36.37264671851881,-79.23970676134103,13.519336783734358,209,12,0.0,16399,393080378274151,12,32.1,-403.5657043457031,0.048600003123283386,25,-13205.711623400779,0.001807789796734829,1.57542003E9,,,,0,,1,-0.17,1.57542003E9,414.0,NaN,NaN
Raw,241520939124703,658325219000000,,,-1265581155228064601,-0.33194923400878906,36.37264671851881,-79.23970676134103,13.519336783734358,209,17,0.0,16399,393080369574041,4,44.3,297.60150146484375,0.031300000846385956,25,16409.952560023543,4.947635405729984E-4,1.57542003E9,,,,0,,1,-0.17,1.57542003E9,414.0,NaN,NaN
Raw,241520939124703,658325219000000,,,-1265581155228064601,-0.33194923400878906,36.37264671851881,-79.23970676134103,13.519336783734358,209,19,0.0,16399,393080373857780,4,44.4,-12.898711204528809,0.037300001829862595,25,-1177.9041938826188,4.947635405729984E-4,1.57542003E9,,,,0,,1,-0.17,1.57542003E9,414.0,NaN,NaN
Raw,241520939124703,658325219000000,,,-1265581155228064601,-0.33194923400878906,36.37264671851881,-79.23970676134103,13.519336783734358,209,20,0.0,16399,393080365574362,35,22.3,539.016357421875,0.793999969959259,16,0.0,0.0,1.57542003E9,,,,0,,1,-0.17,1.57542003E9,414.0,NaN,NaN
Raw,241520939124703,658325219000000,,,-1265581155228064601,-0.33194923400878906,36.37264671851881,-79.23970676134103,13.519336783734358,209,24,0.0,16399,393080379948751,5,40.9,68.57867431640625,0.017100000753998756,25,3329.929743801067,7.42145288706399E-4,1.57542003E9,,,,0,,1,-0.17,1.57542003E9,414.0,NaN,NaN
Raw,241520939124703,658325219000000,,,-1265581155228064601,-0.33194923400878906,36.37264671851881,-79.23970676134103,13.519336783734358,209,25,0.0,16399,393080369562452,35,22.3,-698.5680541992188,0.7699999809265137,16,0.0,0.0,1.57542003E9,,,,0,,1,-0.17,1.57542003E9,414.0,NaN,NaN
Raw,241520939124703,658325219000000,,,-1265581155228064601,-0.33194923400878906,36.37264671851881,-79.23970676134103,13.519336783734358,209,32,0.0,16399,393080368811981,12,32.8,-616.1538696289062,0.03360000252723694,25,-30351.785799185967,0.001807789796734829,1.57542003E9,,,,0,,1,-0.17,1.57542003E9,414.0,NaN,NaN
Raw,241520939124703,658325219000000,,,-1265581155228064601,-0.33194923400878906,36.37264671851881,-79.23970676134103,13.519336783734358,209,6,0.0,49359,58262379020279,12,32.5,-77.60404968261719,0.2501000165939331,25,-4145.550322576534,0.0017802958155565083,1.59975002E9,,,,0,,3,-2.31,1.59975002E9,414.0,NaN,NaN
Raw,241520939124703,658325219000000,,,-1265581155228064601,-0.33194923400878906,36.37264671851881,-79.23970676134103,13.519336783734358,209,16,0.0,49359,58262378293240,16,29.4,-477.3091735839844,0.250900000333786,25,-23411.040974906282,0.0027705911382589986,1.60143744E9,,,,0,,3,-2.31,1.60143744E9,414.0,NaN,NaN
Raw,241520939124703,658325219000000,,,-1265581155228064601,-0.33194923400878906,36.37264671851881,-79.23970676134103,13.519336783734358,209,15,0.0,49359,58262381943463,7,37.9,190.59188842773438,0.22089999914169312,25,10057.426453142118,9.918227095612844E-4,1.602E9,,,,0,,3,-2.31,1.602E9,414.0,NaN,NaN
Raw,241520939124703,658325219000000,,,-1265581155228064601,-0.33194923400878906,36.37264671851881,-79.23970676134103,13.519336783734358,209,5,0.0,49359,58262375280523,19,27.5,701.887939453125,0.2483000010251999,27,35169.94791262625,0.0031802016284280693,1.60256256E9,,,,0,,3,-2.31,1.60256256E9,414.0,NaN,NaN
Raw,241520939124703,658325219000000,,,-1265581155228064601,-0.33194923400878906,36.37264671851881,-79.23970676134103,13.519336783734358,209,23,0.0,49359,58262369424549,17,28.0,499.0199890136719,0.2387000024318695,25,23898.907703221368,0.002953643059565574,1.60368755E9,,,,0,,3,-2.31,1.60368755E9,414.0,NaN,NaN
Raw,241520939124703,658325219000000,,,-1265581155228064601,-0.33194923400878906,36.37264671851881,-79.23970676134103,13.519336783734358,209,17,0.0,49359,58262373290972,10,34.5,-648.2090454101562,0.24009999632835388,25,-33089.17892443927,0.0014949913054915895,1.60424998E9,,,,0,,3,-2.31,1.60424998E9,414.0,NaN,NaN
