# 
# Header Description:
# 
# Version: v2.0.0.1 Platform: 10 Manufacturer: Google Model: Pixel 4
# 
# Raw,ElapsedRealtimeNanos,TimeNanos,LeapSecond,TimeUncertaintyNanos,FullBiasNanos,BiasNanos,BiasUncertaintyNanos,DriftNanosPerSecond,DriftUncertaintyNanosPerSecond,HardwareClockDiscontinuityCount,Svid,TimeOffsetNanos,State,ReceivedSvTimeNanos,ReceivedSvTimeUncertaintyNanos,Cn0DbHz,PseudorangeRateMetersPerSecond,PseudorangeRateUncertaintyMetersPerSecond,AccumulatedDeltaRangeState,AccumulatedDeltaRangeMeters,AccumulatedDeltaRangeUncertaintyMeters,CarrierFrequencyHz,CarrierCycles,CarrierPhase,CarrierPhaseUncertainty,MultipathIndicator,SnrInDb,ConstellationType,AgcDb,CarrierFrequencyHz,UserLatitude,UserLongitude,UserAltitude
# 
# Fix,Provider,Latitude,Longitude,Altitude,Speed,Accuracy,(UTC)TimeInMs,ElapsedRealtimeNanos
# 
# Nav,Svid,Type,Status,MessageId,Sub-messageId,Data(Bytes)
# 
Fix,gps,51.524588,-0.134301,77.993774,0.000000,3.790092,1582194907000,232164901032364
Raw,232164920827210,648969169000000,,,-1265581155274917062,0.7456178665161133,20.452498574741185,28.40329878171945,9.757357218475184,77,13,0.0,16399,383724376222918,8,36.8,191.51219177246094,0.04360000044107437,25,22186.795841342886,0.001160791358090767,1.57542003E9,,,,0,,1,-0.45,1.57542003E9,304.0,NaN,NaN
Raw,232164920827210,648969169000000,,,-1265581155274917062,0.7456178665161133,20.452498574741185,28.40329878171945,9.757357218475184,77,15,0.0,16399,383724376054102,8,36.8,-148.15431213378906,0.04360000044107437,25,-18161.51419916278,0.001160791358090767,1.57542003E9,,,,0,,1,-0.45,1.57542003E9,304.0,NaN,NaN
Raw,232164920827210,648969169000000,,,-1265581155274917062,0.7456178665161133,20.452498574741185,28.40329878171945,9.757357218475184,77,20,0.0,16399,383724366803849,13,31.3,-393.1905822753906,0.03110000118613243,25,-47202.46346257121,0.002074201012354331,1.57542003E9,,,,0,,1,-0.45,1.57542003E9,304.0,NaN,NaN
Raw,232164920827210,648969169000000,,,-1265581155274917062,0.7456178665161133,20.452498574741185,28.40329878171945,9.757357218475184,77,28,0.0,16399,383724372566311,6,39.7,150.52902221679688,0.03680000081658363,25,17194.943530872843,8.372921387687362E-4,1.57542003E9,,,,0,,1,-0.45,1.57542003E9,304.0,NaN,NaN
Raw,232164920827210,648969169000000,,,-1265581155274917062,0.7456178665161133,20.452498574741185,28.40329878171945,9.757357218475184,77,30,0.0,16399,383724366691416,11,33.7,585.5552368164062,0.03020000085234642,25,43002.33450459827,0.001655554942969963,1.57542003E9,,,,0,,1,-0.45,1.57542003E9,304.0,NaN,NaN
Raw,232164920827210,648969169000000,,,-1265581155274917062,0.7456178665161133,20.452498574741185,28.40329878171945,9.757357218475184,77,14,0.0,49359,48906379983569,7,37.9,-79.18330383300781,0.2029000073671341,25,-10119.348959362283,9.94266504915028E-4,1.59806246E9,,,,0,,3,-2.16,1.59806246E9,304.0,NaN,NaN
Raw,232164920827210,648969169000000,,,-1265581155274917062,0.7456178665161133,20.452498574741185,28.40329878171945,9.757357218475184,77,22,0.0,49359,48906366139403,40,21.9,-221.35350036621094,0.9954999685287476,16,0.0,0.0,1.60031245E9,,,,0,,3,-2.16,1.60031245E9,304.0,NaN,NaN
Raw,232164920827210,648969169000000,,,-1265581155274917062,0.7456178665161133,20.452498574741185,28.40329878171945,9.757357218475184,77,13,0.0,49359,48906373767846,13,31.6,622.629638671875,0.24160000681877136,25,72977.55608016186,0.0020412198384807895,1.60087501E9,,,,0,,3,-2.16,1.60087501E9,304.0,NaN,NaN
Raw,232164920827210,648969169000000,,,-1265581155274917062,0.7456178665161133,20.452498574741185,28.40329878171945,9.757357218475184,77,15,0.0,49359,48906371051303,21,26.9,-681.0322265625,0.24320000410079956,29,-80500.64419247372,0.005352100032671997,1.602E9,,,,0,,3,-2.16,1.602E9,304.0,NaN,NaN
Raw,232164920827210,648969169000000,,,-1265581155274917062,0.7456178665161133,20.452498574741185,28.40329878171945,9.757357218475184,77,5,0.0,49359,48906374087284,7,37.9,-590.432861328125,0.24040000140666962,25,-69994.68834082206,9.91474542321254E-4,1.60256256E9,,,,0,,3,-2.16,1.60256256E9,304.0,NaN,NaN
Raw,232164920827210,648969169000000,,,-1265581155274917062,0.7456178665161133,20.452498574741185,28.40329878171945,9.757357218475184,77,3,0.0,49359,48906370688135,14,30.8,753.6474609375,0.2379000037908554,25,88372.54115283712,0.002353785798744343,1.60481254E9,,,,0,,3,-2.16,1.60481254E9,304.0,NaN,NaN
Raw,232164920827210,648969169000000,,,-1265581155274917062,0.7456178665161133,20.452498574741185,28.40329878171945,9.757357218475184,77,4,0.0,49359,48906379723360,7,37.7,150.12037658691406,0.2029000073671341,25,16751.722545921828,9.897376030341073E-4,1.60537498E9,,,,0,,3,-2.16,1.60537498E9,304.0,NaN,NaN
Raw,232164920827210,648969169000000,,,-1265581155274917062,0.7456178665161133,20.452498574741185,28.40329878171945,9.757357218475184,77,37,0.0,16399,383710364990283,4,42.9,468.4144592285156,0.02410000190138817,25,55100.823272480244,5.953224307615613E-4,1.56109798E9,,,,0,,5,-0.39,1.56109798E9,304.0,NaN,NaN
Raw,232164920827210,648969169000000,,,-1265581155274917062,0.7456178665161133,20.452498574741185,28.40329878171945,9.757357218475184,77,22,0.0,16399,383710363457939,6,38.3,-427.20367431640625,0.023600000888109207,17,-50767.91835094303,9.409935037250662E-4,1.56109798E9,,,,0,,5,-0.39,1.56109798E9,304.0,NaN,NaN
Raw,232164920827210,648969169000000,,,-1265581155274917062,0.7456178665161133,20.452498574741185,28.40329878171945,9.757357218475184,77,20,0.0,16399,383710361816490,35,22.3,628.3916015625,0.7730000019073486,16,0.0,0.0,1.56109798E9,,,,0,,5,-0.39,1.56109798E9,304.0,NaN,NaN
Raw,232164920827210,648969169000000,,,-1265581155274917062,0.7456178665161133,20.452498574741185,28.40329878171945,9.757357218475184,77,10,0.0,16399,383710311760800,6,39.2,171.47219848632812,0.03530000150203705,17,20279.81012118608,8.449737438469402E-4,1.56109798E9,,,,0,,5,-0.39,1.56109798E9,304.0,NaN,NaN
Raw,232164920827210,648969169000000,,,-1265581155274917062,0.7456178665161133,20.452498574741185,28.40329878171945,9.757357218475184,77,1,0.0,23567,383724360018173,19,27.3,372.84375,0.049800001084804535,25,20345.681975855503,0.007212130206821385,1.57542003E9,,,,0,,6,-0.39,1.57542003E9,304.0,NaN,NaN
Raw,232164920827210,648969169000000,,,-1265581155274917062,0.7456178665161133,20.452498574741185,28.40329878171945,9.757357218475184,77,4,0.0,23567,383724358187138,14,30.4,492.1621398925781,0.04990000277757645,25,57954.12993132246,0.005233075867304602,1.57542003E9,,,,0,,6,-0.39,1.57542003E9,304.0,NaN,NaN
Raw,232164920827210,648969169000000,,,-1265581155274917062,0.7456178665161133,20.452498574741185,28.40329878171945,9.757357218475184,77,5,0.0,23567,383724358219544,12,32.3,-431.44830322265625,0.048600003123283386,25,-18739.11161364416,0.003958108324583987,1.57542003E9,,,,0,,6,-0.39,1.57542003E9,304.0,NaN,NaN
Raw,232164920827210,648969169000000,,,-1265581155274917062,0.7456178665161133,20.452498574741185,28.40329878171945,9.757357218475184,77,9,0.0,23567,383724372258310,5,40.8,36.01141357421875,0.04260000213980675,25,3885.7450950381053,0.001617496273834944,1.57542003E9,,,,0,,6,-0.39,1.57542003E9,304.0,NaN,NaN
Raw,232164920827210,648969169000000,,,-1265581155274917062,0.7456178665161133,20.452498574741185,28.40329878171945,9.757357218475184,77,24,0.0,23567,383724361362367,27,24.2,-559.5680541992188,0.6420000195503235,16,0.0,0.0,1.57542003E9,,,,0,,6,-0.39,1.57542003E9,304.0,NaN,NaN
Raw,232164920827210,648969169000000,,,-1265581155274917062,0.7456178665161133,20.452498574741185,28.40329878171945,9.757357218475184,77,31,0.0,23567,383724364932615,9,35.4,-170.09002685546875,0.04410000145435333,25,-20590.469242926658,0.0028924638165555576,1.57542003E9,,,,0,,6,-0.39,1.57542003E9,304.0,NaN,NaN
Raw,232164920827210,648969169000000,,,-1265581155274917062,0.7456178665161133,20.452498574741185,28.40329878171945,9.757357218475184,77,30,0.0,81935,383724366699219,6,26.8,585.55078125,0.051100000739097595,25,65204.38821678651,0.007288081858568245,1.17645005E9,,,,0,,1,5.09,1.17645005E9,304.0,NaN,NaN
Raw,232164920827210,648969169000000,,,-1265581155274917062,0.7456178665161133,20.452498574741185,28.40329878171945,9.757357218475184,77,1,0.0,81935,383724360025252,3,33.2,372.5682678222656,0.010499999858438969,25,41710.603632971055,0.0022170039651624013,1.17645005E9,,,,0,,6,5.09,1.17645005E9,304.0,NaN,NaN
Raw,232164920827210,648969169000000,,,-1265581155274917062,0.7456178665161133,20.452498574741185,28.40329878171945,9.757357218475184,77,4,0.0,81935,383724358194257,6,26.4,492.153564453125,0.06909999996423721,29,55203.00802922527,0.007288081858568245,1.17645005E9,,,,0,,6,5.09,1.17645005E9,304.0,NaN,NaN
Raw,232164920827210,648969169000000,,,-1265581155274917062,0.7456178665161133,20.452498574741185,28.40329878171945,9.757357218475184,77,5,0.0,81935,383724358226561,12,18.8,-431.0798645019531,0.9434999823570251,16,0.0,0.0,1.17645005E9,,,,0,,6,5.09,1.17645005E9,304.0,NaN,NaN
Raw,232164920827210,648969169000000,,,-1265581155274917062,0.7456178665161133,20.452498574741185,28.40329878171945,9.757357218475184,77,9,0.0,81935,383724372265426,5,27.7,35.93687438964844,0.05400000140070915,25,3707.82094013283,0.004332076888121183,1.17645005E9,,,,0,,6,5.09,1.17645005E9,304.0,NaN,NaN
Raw,232164920827210,648969169000000,,,-1265581155274917062,0.7456178665161133,20.452498574741185,28.40329878171945,9.757357218475184,77,31,0.0,81935,383724364939684,3,33.7,-170.21665954589844,0.03150000050663948,25,-19472.0493021211,0.0022170039651624013,1.17645005E9,,,,0,,6,5.09,1.17645005E9,304.0,NaN,NaN
Fix,gps,51.524589,-0.134298,77.993530,0.000000,3.790092,1582194908000,232165899892151
Raw,232165913369080,648970169000000,,,-1265581155274917044,0.38114213943481445,21.78247996198479,25.692783530626865,9.672597997069131,77,13,0.0,16399,383725376222275,9,35.8,191.7517547607422,0.04410000145435333,25,22378.034918810343,0.0013320557236479321,1.57542003E9,,,,0,,1,-0.18,1.57542003E9,304.0,NaN,NaN
Raw,232165913369080,648970169000000,,,-1265581155274917044,0.38114213943481445,21.78247996198479,25.692783530626865,9.672597997069131,77,15,0.0,16399,383725376054601,9,35.9,-147.85372924804688,0.04410000145435333,25,-18309.901401946026,0.0013320557236479321,1.57542003E9,,,,0,,1,-0.18,1.57542003E9,304.0,NaN,NaN
Raw,232165913369080,648970169000000,,,-1265581155274917044,0.38114213943481445,21.78247996198479,25.692783530626865,9.672597997069131,77,17,0.0,16399,383725360740599,35,22.6,-543.7261352539062,1.5215001106262207,16,0.0,0.0,1.57542003E9,,,,0,,1,-0.18,1.57542003E9,304.0,NaN,NaN
Raw,232165913369080,648970169000000,,,-1265581155274917044,0.38114213943481445,21.78247996198479,25.692783530626865,9.672597997069131,77,20,0.0,16399,383725366805215,12,32.0,-392.83355712890625,0.03060000203549862,25,-47595.85755240896,0.001807789796734829,1.57542003E9,,,,0,,1,-0.18,1.57542003E9,304.0,NaN,NaN
Raw,232165913369080,648970169000000,,,-1265581155274917044,0.38114213943481445,21.78247996198479,25.692783530626865,9.672597997069131,77,24,0.0,16399,383725367574746,70,17.3,-597.5125732421875,1.9270000457763672,16,0.0,0.0,1.57542003E9,,,,0,,1,-0.18,1.57542003E9,304.0,NaN,NaN
Raw,232165913369080,648970169000000,,,-1265581155274917044,0.38114213943481445,21.78247996198479,25.692783530626865,9.672597997069131,77,28,0.0,16399,383725372565825,6,39.1,150.75718688964844,0.03680000081658363,25,17345.168227918697,8.372921387687362E-4,1.57542003E9,,,,0,,1,-0.18,1.57542003E9,304.0,NaN,NaN
Raw,232165913369080,648970169000000,,,-1265581155274917044,0.38114213943481445,21.78247996198479,25.692783530626865,9.672597997069131,77,30,0.0,16399,383725366689448,7,37.4,585.6932983398438,0.028400002047419548,25,43587.48855975863,0.0010085564157135064,1.57542003E9,,,,0,,1,-0.18,1.57542003E9,304.0,NaN,NaN
Raw,232165913369080,648970169000000,,,-1265581155274917044,0.38114213943481445,21.78247996198479,25.692783530626865,9.672597997069131,77,14,0.0,49359,48907379983830,7,37.7,-78.80281829833984,0.21790000796318054,25,-10198.68397962666,9.94266504915028E-4,1.59806246E9,,,,0,,3,-1.94,1.59806246E9,304.0,NaN,NaN
Raw,232165913369080,648970169000000,,,-1265581155274917044,0.38114213943481445,21.78247996198479,25.692783530626865,9.672597997069131,77,22,0.0,49359,48907366139969,40,21.0,-220.969482421875,0.9954999685287476,16,0.0,0.0,1.60031245E9,,,,0,,3,-1.94,1.60031245E9,304.0,NaN,NaN
Raw,232165913369080,648970169000000,,,-1265581155274917044,0.38114213943481445,21.78247996198479,25.692783530626865,9.672597997069131,77,13,0.0,49359,48907373765784,11,33.7,622.8121337890625,0.24070000648498535,25,73599.84209597018,0.0016292305196830812,1.60087501E9,,,,0,,3,-1.94,1.60087501E9,304.0,NaN,NaN
Raw,232165913369080,648970169000000,,,-1265581155274917044,0.38114213943481445,21.78247996198479,25.692783530626865,9.672597997069131,77,15,0.0,49359,48907371053178,61,18.4,-681.2418823242188,1.2130000591278076,16,0.0,0.0,1.602E9,,,,0,,3,-1.94,1.602E9,304.0,NaN,NaN
Raw,232165913369080,648970169000000,,,-1265581155274917044,0.38114213943481445,21.78247996198479,25.692783530626865,9.672597997069131,77,5,0.0,49359,48907374089240,4,42.0,-590.1322021484375,0.23910000920295715,25,-70585.33675624829,5.799191056178505E-4,1.60256256E9,,,,0,,3,-1.94,1.60256256E9,304.0,NaN,NaN
Raw,232165913369080,648970169000000,,,-1265581155274917044,0.38114213943481445,21.78247996198479,25.692783530626865,9.672597997069131,77,3,0.0,49359,48907370685583,17,28.6,753.7991333007812,0.240200012922287,25,89125.84087760413,0.002951572521903534,1.60481254E9,,,,0,,3,-1.94,1.60481254E9,304.0,NaN,NaN
Raw,232165913369080,648970169000000,,,-1265581155274917044,0.38114213943481445,21.78247996198479,25.692783530626865,9.672597997069131,77,4,0.0,49359,48907379722865,6,39.8,150.52267456054688,0.21729999780654907,25,16901.702637068516,8.216689731510993E-4,1.60537498E9,,,,0,,3,-1.94,1.60537498E9,304.0,NaN,NaN
Raw,232165913369080,648970169000000,,,-1265581155274917044,0.38114213943481445,21.78247996198479,25.692783530626865,9.672597997069131,77,37,0.0,16399,383711364988716,4,44.7,468.6037902832031,0.023800000548362732,25,55568.92016051129,4.993026708834354E-4,1.56109798E9,,,,0,,5,-0.15,1.56109798E9,304.0,NaN,NaN
Raw,232165913369080,648970169000000,,,-1265581155274917044,0.38114213943481445,21.78247996198479,25.692783530626865,9.672597997069131,77,22,0.0,16399,383711363459383,6,38.0,-426.8583679199219,0.023600000888109207,17,-51195.29988274099,9.409935037250662E-4,1.56109798E9,,,,0,,5,-0.15,1.56109798E9,304.0,NaN,NaN
Raw,232165913369080,648970169000000,,,-1265581155274917044,0.38114213943481445,21.78247996198479,25.692783530626865,9.672597997069131,77,20,0.0,16399,383711361814404,27,24.8,628.995361328125,0.04280000180006027,19,74661.11427836068,0.1920394882785269,1.56109798E9,,,,0,,5,-0.15,1.56109798E9,304.0,NaN,NaN
Raw,232165913369080,648970169000000,,,-1265581155274917044,0.38114213943481445,21.78247996198479,25.692783530626865,9.672597997069131,77,10,0.0,16399,383711311760240,7,37.4,171.60198974609375,0.03590000048279762,17,20450.919330317185,0.0010178092579723537,1.56109798E9,,,,0,,5,-0.15,1.56109798E9,304.0,NaN,NaN
Raw,232165913369080,648970169000000,,,-1265581155274917044,0.38114213943481445,21.78247996198479,25.692783530626865,9.672597997069131,77,1,0.0,23567,383725360016924,11,33.5,373.0014953613281,0.04520000144839287,25,20718.207802276254,0.003596550258902148,1.57542003E9,,,,0,,6,-0.13,1.57542003E9,304.0,NaN,NaN
Raw,232165913369080,648970169000000,,,-1265581155274917044,0.38114213943481445,21.78247996198479,25.692783530626865,9.672597997069131,77,4,0.0,23567,383725358185501,12,32.4,492.2489929199219,0.048600003123283386,25,58445.922308162095,0.003958108324583987,1.57542003E9,,,,0,,6,-0.13,1.57542003E9,304.0,NaN,NaN
Raw,232165913369080,648970169000000,,,-1265581155274917044,0.38114213943481445,21.78247996198479,25.692783530626865,9.672597997069131,77,5,0.0,23567,383725358221005,11,33.3,-431.1849670410156,0.04820000380277634,25,-19170.759493944595,0.003596550258902148,1.57542003E9,,,,0,,6,-0.13,1.57542003E9,304.0,NaN,NaN
Raw,232165913369080,648970169000000,,,-1265581155274917044,0.38114213943481445,21.78247996198479,25.692783530626865,9.672597997069131,77,9,0.0,23567,383725372258211,6,39.9,36.158966064453125,0.04280000180006027,25,3921.4140122805993,0.0018458486430946374,1.57542003E9,,,,0,,6,-0.13,1.57542003E9,304.0,NaN,NaN
Raw,232165913369080,648970169000000,,,-1265581155274917044,0.38114213943481445,21.78247996198479,25.692783530626865,9.672597997069131,77,24,0.0,23567,383725361364076,46,20.4,-559.3777465820312,0.871999979019165,16,0.0,0.0,1.57542003E9,,,,0,,6,-0.13,1.57542003E9,304.0,NaN,NaN
Raw,232165913369080,648970169000000,,,-1265581155274917044,0.38114213943481445,21.78247996198479,25.692783530626865,9.672597997069131,77,31,0.0,23567,383725364933193,7,37.8,-169.94046020507812,0.04340000078082085,25,-20760.876454234858,0.0021883771969841777,1.57542003E9,,,,0,,6,-0.13,1.57542003E9,304.0,NaN,NaN
Raw,232165913369080,648970169000000,,,-1265581155274917044,0.38114213943481445,21.78247996198479,25.692783530626865,9.672597997069131,77,30,0.0,81935,383725366697270,4,30.0,585.7034301757812,0.038200002163648605,25,65789.57598403761,0.0032108332879374254,1.17645005E9,,,,0,,1,8.21,1.17645005E9,304.0,NaN,NaN
Raw,232165913369080,648970169000000,,,-1265581155274917044,0.38114213943481445,21.78247996198479,25.692783530626865,9.672597997069131,77,1,0.0,81935,383725360024009,2,35.8,372.88946533203125,0.023600000888109207,25,42083.09392472944,0.0017837963238157039,1.17645005E9,,,,0,,6,8.21,1.17645005E9,304.0,NaN,NaN
Raw,232165913369080,648970169000000,,,-1265581155274917044,0.38114213943481445,21.78247996198479,25.692783530626865,9.672597997069131,77,4,0.0,81935,383725358192612,5,28.4,492.2271728515625,0.060100000351667404,25,55694.79532253938,0.0040262828122019055,1.17645005E9,,,,0,,6,8.21,1.17645005E9,304.0,NaN,NaN
Raw,232165913369080,648970169000000,,,-1265581155274917044,0.38114213943481445,21.78247996198479,25.692783530626865,9.672597997069131,77,5,0.0,81935,383725358228130,9,21.5,-431.1264343261719,0.07240000367164612,27,-49001.34148802011,0.34557229348499413,1.17645005E9,,,,0,,6,8.21,1.17645005E9,304.0,NaN,NaN
Raw,232165913369080,648970169000000,,,-1265581155274917044,0.38114213943481445,21.78247996198479,25.692783530626865,9.672597997069131,77,9,0.0,81935,383725372265304,5,28.7,36.082054138183594,0.051100000739097595,25,3743.5061769387303,0.0040262828122019055,1.17645005E9,,,,0,,6,8.21,1.17645005E9,304.0,NaN,NaN
Raw,232165913369080,648970169000000,,,-1265581155274917044,0.38114213943481445,21.78247996198479,25.692783530626865,9.672597997069131,77,24,0.0,81935,383725361371142,18,15.9,-559.5641479492188,2.6680002212524414,16,0.0,0.0,1.17645005E9,,,,0,,6,8.21,1.17645005E9,304.0,NaN,NaN
Raw,232165913369080,648970169000000,,,-1265581155274917044,0.38114213943481445,21.78247996198479,25.692783530626865,9.672597997069131,77,31,0.0,81935,383725364940251,2,34.8,-170.01832580566406,0.030500002205371857,25,-19642.469205390895,0.0020386244039789624,1.17645005E9,,,,0,,6,8.21,1.17645005E9,304.0,NaN,NaN
Fix,gps,51.524589,-0.134298,77.988403,0.000000,3.790092,1582194909000,232166899347772
Raw,232166911952617,648971169000000,,,-1265581155274917024,0.19223594665527344,22.483816792373545,26.161539927988798,9.674695942480653,77,13,0.0,16399,383726376221599,9,35.8,191.87644958496094,0.04410000145435333,25,22569.90435859324,0.0013320557236479321,1.57542003E9,,,,0,,1,-0.48,1.57542003E9,304.0,NaN,NaN
Raw,232166911952617,648971169000000,,,-1265581155274917024,0.19223594665527344,22.483816792373545,26.161539927988798,9.674695942480653,77,15,0.0,16399,383726376055111,24,25.8,-147.3187713623047,0.05730000138282776,21,-18457.581510391436,0.19029366893311156,1.57542003E9,,,,0,,1,-0.48,1.57542003E9,304.0,NaN,NaN
Raw,232166911952617,648971169000000,,,-1265581155274917024,0.19223594665527344,22.483816792373545,26.161539927988798,9.674695942480653,77,17,0.0,16399,383726360742377,17,28.4,-544.0289916992188,0.025200000032782555,19,-25753.230557045812,0.0030066398239606148,1.57542003E9,,,,0,,1,-0.48,1.57542003E9,304.0,NaN,NaN
Raw,232166911952617,648971169000000,,,-1265581155274917024,0.19223594665527344,22.483816792373545,26.161539927988798,9.674695942480653,77,20,0.0,16399,383726366806531,14,30.4,-392.772216796875,0.03189999982714653,25,-47988.612443520746,0.002397700231676362,1.57542003E9,,,,0,,1,-0.48,1.57542003E9,304.0,NaN,NaN
Raw,232166911952617,648971169000000,,,-1265581155274917024,0.19223594665527344,22.483816792373545,26.161539927988798,9.674695942480653,77,24,0.0,16399,383726367576801,40,21.0,-597.5220947265625,0.8569999933242798,16,0.0,0.0,1.57542003E9,,,,0,,1,-0.48,1.57542003E9,304.0,NaN,NaN
Raw,232166911952617,648971169000000,,,-1265581155274917024,0.19223594665527344,22.483816792373545,26.161539927988798,9.674695942480653,77,28,0.0,16399,383726372565304,6,39.2,150.8883514404297,0.03680000081658363,25,17496.044073913818,8.372921387687362E-4,1.57542003E9,,,,0,,1,-0.48,1.57542003E9,304.0,NaN,NaN
Raw,232166911952617,648971169000000,,,-1265581155274917024,0.19223594665527344,22.483816792373545,26.161539927988798,9.674695942480653,77,30,0.0,16399,383726366687488,6,39.1,585.7515258789062,0.027800001204013824,25,44173.25919083959,8.372921387687362E-4,1.57542003E9,,,,0,,1,-0.48,1.57542003E9,304.0,NaN,NaN
Raw,232166911952617,648971169000000,,,-1265581155274917024,0.19223594665527344,22.483816792373545,26.161539927988798,9.674695942480653,77,14,0.0,49359,48908379984074,6,38.2,-78.60359954833984,0.20260000228881836,25,-10277.335567393424,9.192275613215939E-4,1.59806246E9,,,,0,,3,-2.1,1.59806246E9,304.0,NaN,NaN
Raw,232166911952617,648971169000000,,,-1265581155274917024,0.19223594665527344,22.483816792373545,26.161539927988798,9.674695942480653,77,22,0.0,49359,48908366140504,46,20.4,-220.70721435546875,1.0555000305175781,16,0.0,0.0,1.60031245E9,,,,0,,3,-2.1,1.60031245E9,304.0,NaN,NaN
Raw,232166911952617,648971169000000,,,-1265581155274917024,0.19223594665527344,22.483816792373545,26.161539927988798,9.674695942480653,77,13,0.0,49359,48908373763680,10,34.0,622.9119262695312,0.24009999632835388,25,74222.75167587631,0.001498143056722028,1.60087501E9,,,,0,,3,-2.1,1.60087501E9,304.0,NaN,NaN
Raw,232166911952617,648971169000000,,,-1265581155274917024,0.19223594665527344,22.483816792373545,26.161539927988798,9.674695942480653,77,15,0.0,49359,48908371055546,40,21.4,-680.7553100585938,1.003000020980835,16,0.0,0.0,1.602E9,,,,0,,3,-2.1,1.602E9,304.0,NaN,NaN
Raw,232166911952617,648971169000000,,,-1265581155274917024,0.19223594665527344,22.483816792373545,26.161539927988798,9.674695942480653,77,5,0.0,49359,48908374091212,4,44.4,-590.0498657226562,0.23880000412464142,25,-71175.38472470942,4.863837533568402E-4,1.60256256E9,,,,0,,3,-2.1,1.60256256E9,304.0,NaN,NaN
Raw,232166911952617,648971169000000,,,-1265581155274917024,0.19223594665527344,22.483816792373545,26.161539927988798,9.674695942480653,77,3,0.0,49359,48908370682882,21,26.8,753.8914794921875,0.24170000851154327,25,89879.71861046893,0.005342720110455805,1.60481254E9,,,,0,,3,-2.1,1.60481254E9,304.0,NaN,NaN
Raw,232166911952617,648971169000000,,,-1265581155274917024,0.19223594665527344,22.483816792373545,26.161539927988798,9.674695942480653,77,4,0.0,49359,48908379722350,6,39.3,150.72755432128906,0.20229999721050262,25,17052.370423428343,8.216689731510993E-4,1.60537498E9,,,,0,,3,-2.1,1.60537498E9,304.0,NaN,NaN
Raw,232166911952617,648971169000000,,,-1265581155274917024,0.19223594665527344,22.483816792373545,26.161539927988798,9.674695942480653,77,37,0.0,16399,383712364987146,5,40.1,468.6711120605469,0.02460000105202198,25,56037.59881392133,7.489539839688142E-4,1.56109798E9,,,,0,,5,-0.26,1.56109798E9,304.0,NaN,NaN
Raw,232166911952617,648971169000000,,,-1265581155274917024,0.19223594665527344,22.483816792373545,26.161539927988798,9.674695942480653,77,22,0.0,16399,383712363460809,7,37.7,-426.78314208984375,0.023900000378489494,17,-51622.066387590996,0.0010178092579723537,1.56109798E9,,,,0,,5,-0.26,1.56109798E9,304.0,NaN,NaN
Raw,232166911952617,648971169000000,,,-1265581155274917024,0.19223594665527344,22.483816792373545,26.161539927988798,9.674695942480653,77,20,0.0,16399,383712361812348,27,24.3,629.03662109375,0.04280000180006027,21,75290.14311572093,0.1920394882785269,1.56109798E9,,,,0,,5,-0.26,1.56109798E9,304.0,NaN,NaN
Raw,232166911952617,648971169000000,,,-1265581155274917024,0.19223594665527344,22.483816792373545,26.161539927988798,9.674695942480653,77,10,0.0,16399,383712311759659,6,39.8,171.62628173828125,0.03530000150203705,17,20622.565149892125,8.449737438469402E-4,1.56109798E9,,,,0,,5,-0.26,1.56109798E9,304.0,NaN,NaN
Raw,232166911952617,648971169000000,,,-1265581155274917024,0.19223594665527344,22.483816792373545,26.161539927988798,9.674695942480653,77,1,0.0,23567,383726360015674,8,36.4,373.0919189453125,0.04360000044107437,25,21091.317293060172,0.0025499350854412276,1.57542003E9,,,,0,,6,-0.44,1.57542003E9,304.0,NaN,NaN
Raw,232166911952617,648971169000000,,,-1265581155274917024,0.19223594665527344,22.483816792373545,26.161539927988798,9.674695942480653,77,4,0.0,23567,383726358183843,11,33.4,492.3137512207031,0.04820000380277634,25,58938.250903005195,0.003596550258902148,1.57542003E9,,,,0,,6,-0.44,1.57542003E9,304.0,NaN,NaN
Raw,232166911952617,648971169000000,,,-1265581155274917024,0.19223594665527344,22.483816792373545,26.161539927988798,9.674695942480653,77,5,0.0,23567,383726358222479,14,30.0,-431.0882263183594,0.04990000277757645,25,-19601.848710141137,0.005233075867304602,1.57542003E9,,,,0,,6,-0.44,1.57542003E9,304.0,NaN,NaN
Raw,232166911952617,648971169000000,,,-1265581155274917024,0.19223594665527344,22.483816792373545,26.161539927988798,9.674695942480653,77,9,0.0,23567,383726372258101,7,37.4,36.2627067565918,0.04340000078082085,25,3957.68672326672,0.0021883771969841777,1.57542003E9,,,,0,,6,-0.44,1.57542003E9,304.0,NaN,NaN
Raw,232166911952617,648971169000000,,,-1265581155274917024,0.19223594665527344,22.483816792373545,26.161539927988798,9.674695942480653,77,24,0.0,23567,383726361366044,17,28.7,-559.668701171875,0.050700001418590546,19,-296.9605307846369,0.006565131413727744,1.57542003E9,,,,0,,6,-0.44,1.57542003E9,304.0,NaN,NaN
Raw,232166911952617,648971169000000,,,-1265581155274917024,0.19223594665527344,22.483816792373545,26.161539927988798,9.674695942480653,77,31,0.0,23567,383726364933725,6,39.2,-169.83302307128906,0.04280000180006027,25,-20930.695805339696,0.0018458486430946374,1.57542003E9,,,,0,,6,-0.44,1.57542003E9,304.0,NaN,NaN
Raw,232166911952617,648971169000000,,,-1265581155274917024,0.19223594665527344,22.483816792373545,26.161539927988798,9.674695942480653,77,24,0.0,81935,383726367584729,16,16.2,-597.1640625,2.677000045776367,16,0.0,0.0,1.17645005E9,,,,0,,1,2.1,1.17645005E9,304.0,NaN,NaN
Raw,232166911952617,648971169000000,,,-1265581155274917024,0.19223594665527344,22.483816792373545,26.161539927988798,9.674695942480653,77,30,0.0,81935,383726366695317,4,29.5,585.6986694335938,0.03999999910593033,25,66375.32109985285,0.0037714549693657518,1.17645005E9,,,,0,,1,2.1,1.17645005E9,304.0,NaN,NaN
Raw,232166911952617,648971169000000,,,-1265581155274917024,0.19223594665527344,22.483816792373545,26.161539927988798,9.674695942480653,77,1,0.0,81935,383726360022759,2,34.9,373.1068420410156,0.00950000062584877,25,42456.182587710544,0.0020386244039789624,1.17645005E9,,,,0,,6,2.1,1.17645005E9,304.0,NaN,NaN
Raw,232166911952617,648971169000000,,,-1265581155274917024,0.19223594665527344,22.483816792373545,26.161539927988798,9.674695942480653,77,4,0.0,81935,383726358190968,5,27.6,492.23284912109375,0.06300000101327896,25,56187.14874679128,0.004332076888121183,1.17645005E9,,,,0,,6,2.1,1.17645005E9,304.0,NaN,NaN
Raw,232166911952617,648971169000000,,,-1265581155274917024,0.19223594665527344,22.483816792373545,26.161539927988798,9.674695942480653,77,5,0.0,81935,383726358229544,8,22.6,-431.1470031738281,0.06369999796152115,29,-49432.29714736604,0.34557229348499413,1.17645005E9,,,,0,,6,2.1,1.17645005E9,304.0,NaN,NaN
Raw,232166911952617,648971169000000,,,-1265581155274917024,0.19223594665527344,22.483816792373545,26.161539927988798,9.674695942480653,77,9,0.0,81935,383726372265178,4,29.3,36.203487396240234,0.049000002443790436,25,3779.7955169239826,0.0037714549693657518,1.17645005E9,,,,0,,6,2.1,1.17645005E9,304.0,NaN,NaN
Raw,232166911952617,648971169000000,,,-1265581155274917024,0.19223594665527344,22.483816792373545,26.161539927988798,9.674695942480653,77,31,0.0,81935,383726364940822,4,30.8,-169.82447814941406,0.03519999980926514,25,-19812.28340937688,0.0032108332879374254,1.17645005E9,,,,0,,6,2.1,1.17645005E9,304.0,NaN,NaN
Fix,gps,51.524591,-0.134300,77.590942,0.000000,3.790092,1582194910000,232167894454017
Raw,232167968909337,648972169000000,,,-1265581155274916995,0.8455467224121094,23.4652470680885,26.157647833658253,9.673143558309581,77,13,0.0,16399,383727376220966,9,35.5,190.89027404785156,0.04410000145435333,25,22761.63827294715,0.0013320557236479321,1.57542003E9,,,,0,,1,-2.89,1.57542003E9,304.0,NaN,NaN
Raw,232167968909337,648972169000000,,,-1265581155274916995,0.8455467224121094,23.4652470680885,26.157647833658253,9.673143558309581,77,15,0.0,16399,383727376055299,61,18.5,-146.83059692382812,1.1004999876022339,16,0.0,0.0,1.57542003E9,,,,0,,1,-2.89,1.57542003E9,304.0,NaN,NaN
Raw,232167968909337,648972169000000,,,-1265581155274916995,0.8455467224121094,23.4652470680885,26.157647833658253,9.673143558309581,77,17,0.0,16399,383727360744203,17,28.7,-545.0343017578125,0.025200000032782555,21,-26297.431612911492,0.0030066398239606148,1.57542003E9,,,,0,,1,-2.89,1.57542003E9,304.0,NaN,NaN
Raw,232167968909337,648972169000000,,,-1265581155274916995,0.8455467224121094,23.4652470680885,26.157647833658253,9.673143558309581,77,20,0.0,16399,383727366807857,14,30.6,-393.8064270019531,0.03189999982714653,25,-48381.504199903524,0.002397700231676362,1.57542003E9,,,,0,,1,-2.89,1.57542003E9,304.0,NaN,NaN
Raw,232167968909337,648972169000000,,,-1265581155274916995,0.8455467224121094,23.4652470680885,26.157647833658253,9.673143558309581,77,24,0.0,16399,383727367578718,40,21.6,-598.6829223632812,0.8569999933242798,16,0.0,0.0,1.57542003E9,,,,0,,1,-2.89,1.57542003E9,304.0,NaN,NaN
Raw,232167968909337,648972169000000,,,-1265581155274916995,0.8455467224121094,23.4652470680885,26.157647833658253,9.673143558309581,77,28,0.0,16399,383727372564795,6,38.2,149.9158172607422,0.03710000216960907,25,17646.827914934314,9.324389888310735E-4,1.57542003E9,,,,0,,1,-2.89,1.57542003E9,304.0,NaN,NaN
Raw,232167968909337,648972169000000,,,-1265581155274916995,0.8455467224121094,23.4652470680885,26.157647833658253,9.673143558309581,77,30,0.0,16399,383727366685542,7,37.2,584.6573486328125,0.028400002047419548,25,44758.85828696082,0.0010085564157135064,1.57542003E9,,,,0,,1,-2.89,1.57542003E9,304.0,NaN,NaN
Raw,232167968909337,648972169000000,,,-1265581155274916995,0.8455467224121094,23.4652470680885,26.157647833658253,9.673143558309581,77,14,0.0,49359,48909379984323,7,37.8,-79.69297790527344,0.21790000796318054,25,-10356.091509054073,9.94266504915028E-4,1.59806246E9,,,,0,,3,-4.75,1.59806246E9,304.0,NaN,NaN
Raw,232167968909337,648972169000000,,,-1265581155274916995,0.8455467224121094,23.4652470680885,26.157647833658253,9.673143558309581,77,22,0.0,49359,48909366141259,40,21.7,-221.1099853515625,0.9954999685287476,16,0.0,0.0,1.60031245E9,,,,0,,3,-4.75,1.60031245E9,304.0,NaN,NaN
Raw,232167968909337,648972169000000,,,-1265581155274916995,0.8455467224121094,23.4652470680885,26.157647833658253,9.673143558309581,77,13,0.0,49359,48909373761594,12,32.0,621.89892578125,0.241100013256073,25,74845.5271627165,0.0017790447381518853,1.60087501E9,,,,0,,3,-4.75,1.60087501E9,304.0,NaN,NaN
Raw,232167968909337,648972169000000,,,-1265581155274916995,0.8455467224121094,23.4652470680885,26.157647833658253,9.673143558309581,77,5,0.0,49359,48909374093192,4,42.9,-591.0530395507812,0.23910000920295715,25,-71765.576412253,5.799191056178505E-4,1.60256256E9,,,,0,,3,-4.75,1.60256256E9,304.0,NaN,NaN
Raw,232167968909337,648972169000000,,,-1265581155274916995,0.8455467224121094,23.4652470680885,26.157647833658253,9.673143558309581,77,21,0.0,49359,48909364237329,139,12.2,408.58111572265625,7.037499904632568,16,0.0,0.0,1.60424998E9,,,,0,,3,-4.75,1.60424998E9,304.0,NaN,NaN
Raw,232167968909337,648972169000000,,,-1265581155274916995,0.8455467224121094,23.4652470680885,26.157647833658253,9.673143558309581,77,3,0.0,49359,48909370680347,17,28.5,753.0726928710938,0.240200012922287,21,90633.49206635612,0.002951572521903534,1.60481254E9,,,,0,,3,-4.75,1.60481254E9,304.0,NaN,NaN
Raw,232167968909337,648972169000000,,,-1265581155274916995,0.8455467224121094,23.4652470680885,26.157647833658253,9.673143558309581,77,4,0.0,49359,48909379721857,6,38.6,149.66207885742188,0.2176000028848648,25,17202.961934134444,9.150404631835356E-4,1.60537498E9,,,,0,,3,-4.75,1.60537498E9,304.0,NaN,NaN
Raw,232167968909337,648972169000000,,,-1265581155274916995,0.8455467224121094,23.4652470680885,26.157647833658253,9.673143558309581,77,37,0.0,16399,383713364985588,7,37.1,467.5730285644531,0.02540000155568123,25,56506.11644202112,0.0010178092579723537,1.56109798E9,,,,0,,5,-3.07,1.56109798E9,304.0,NaN,NaN
Raw,232167968909337,648972169000000,,,-1265581155274916995,0.8455467224121094,23.4652470680885,26.157647833658253,9.673143558309581,77,22,0.0,16399,383713363462232,8,36.8,-427.8974609375,0.02410000190138817,25,-52049.0170650046,0.0011714408558922843,1.56109798E9,,,,0,,5,-3.07,1.56109798E9,304.0,NaN,NaN
Raw,232167968909337,648972169000000,,,-1265581155274916995,0.8455467224121094,23.4652470680885,26.157647833658253,9.673143558309581,77,20,0.0,16399,383713361810268,40,21.1,628.0459594726562,0.8479999899864197,16,0.0,0.0,1.56109798E9,,,,0,,5,-3.07,1.56109798E9,304.0,NaN,NaN
Raw,232167968909337,648972169000000,,,-1265581155274916995,0.8455467224121094,23.4652470680885,26.157647833658253,9.673143558309581,77,10,0.0,16399,383713311759083,6,39.0,170.5721435546875,0.03530000150203705,25,20794.05143311496,8.449737438469402E-4,1.56109798E9,,,,0,,5,-3.07,1.56109798E9,304.0,NaN,NaN
Raw,232167968909337,648972169000000,,,-1265581155274916995,0.8455467224121094,23.4652470680885,26.157647833658253,9.673143558309581,77,1,0.0,23567,383727360014438,9,35.5,372.1981506347656,0.04410000145435333,25,21464.290714088045,0.0028924638165555576,1.57542003E9,,,,0,,6,-2.84,1.57542003E9,304.0,NaN,NaN
Raw,232167968909337,648972169000000,,,-1265581155274916995,0.8455467224121094,23.4652470680885,26.157647833658253,9.673143558309581,77,4,0.0,23567,383727358182205,12,32.0,491.4137878417969,0.048600003123283386,25,59430.436535273584,0.003958108324583987,1.57542003E9,,,,0,,6,-2.84,1.57542003E9,304.0,NaN,NaN
Raw,232167968909337,648972169000000,,,-1265581155274916995,0.8455467224121094,23.4652470680885,26.157647833658253,9.673143558309581,77,5,0.0,23567,383727358223922,16,29.7,-431.9685363769531,0.05090000107884407,25,-20033.113755382157,0.006146485344343376,1.57542003E9,,,,0,,6,-2.84,1.57542003E9,304.0,NaN,NaN
Raw,232167968909337,648972169000000,,,-1265581155274916995,0.8455467224121094,23.4652470680885,26.157647833658253,9.673143558309581,77,9,0.0,23567,383727372257977,8,36.6,35.35111618041992,0.04360000044107437,25,3993.815688485352,0.0025499350854412276,1.57542003E9,,,,0,,6,-2.84,1.57542003E9,304.0,NaN,NaN
Raw,232167968909337,648972169000000,,,-1265581155274916995,0.8455467224121094,23.4652470680885,26.157647833658253,9.673143558309581,77,24,0.0,23567,383727361367960,21,26.5,-560.392578125,0.05220000073313713,25,-856.5459735177914,0.011874324619302384,1.57542003E9,,,,0,,6,-2.84,1.57542003E9,304.0,NaN,NaN
Raw,232167968909337,648972169000000,,,-1265581155274916995,0.8455467224121094,23.4652470680885,26.157647833658253,9.673143558309581,77,31,0.0,23567,383727364934305,6,38.1,-170.71559143066406,0.04310000315308571,25,-21100.6504109017,0.0020551716777868216,1.57542003E9,,,,0,,6,-2.84,1.57542003E9,304.0,NaN,NaN
Raw,232167968909337,648972169000000,,,-1265581155274916995,0.8455467224121094,23.4652470680885,26.157647833658253,9.673143558309581,77,30,0.0,81935,383727366693360,7,24.8,584.695068359375,0.08410000056028366,29,66960.93225320731,0.25482803839368795,1.17645005E9,,,,0,,1,-1.12,1.17645005E9,304.0,NaN,NaN
Raw,232167968909337,648972169000000,,,-1265581155274916995,0.8455467224121094,23.4652470680885,26.157647833658253,9.673143558309581,77,1,0.0,81935,383727360021515,4,29.1,372.5137939453125,0.03099999949336052,25,42829.141081931404,0.0037714549693657518,1.17645005E9,,,,0,,6,-1.12,1.17645005E9,304.0,NaN,NaN
Raw,232167968909337,648972169000000,,,-1265581155274916995,0.8455467224121094,23.4652470680885,26.157647833658253,9.673143558309581,77,4,0.0,81935,383727358189324,9,21.4,491.784912109375,0.07240000367164612,29,56679.34794393285,0.34557229348499413,1.17645005E9,,,,0,,6,-1.12,1.17645005E9,304.0,NaN,NaN
Raw,232167968909337,648972169000000,,,-1265581155274916995,0.8455467224121094,23.4652470680885,26.157647833658253,9.673143558309581,77,5,0.0,81935,383727358230982,11,19.7,-431.82525634765625,0.1768999993801117,29,-49863.604795363,0.34557229348499413,1.17645005E9,,,,0,,6,-1.12,1.17645005E9,304.0,NaN,NaN
Raw,232167968909337,648972169000000,,,-1265581155274916995,0.8455467224121094,23.4652470680885,26.157647833658253,9.673143558309581,77,9,0.0,81935,383727372265058,7,24.0,35.64970397949219,0.09310000389814377,29,3815.900716638393,0.0411037634920868,1.17645005E9,,,,0,,6,-1.12,1.17645005E9,304.0,NaN,NaN
Raw,232167968909337,648972169000000,,,-1265581155274916995,0.8455467224121094,23.4652470680885,26.157647833658253,9.673143558309581,77,31,0.0,81935,383727364941383,7,24.8,-170.424072265625,0.08110000193119049,29,-19982.25536629244,0.0411037634920868,1.17645005E9,,,,0,,6,-1.12,1.17645005E9,304.0,NaN,NaN
Fix,gps,51.524592,-0.134302,77.575439,0.000000,3.790092,1582194911000,232168902135002
Raw,232168911538337,648973169000000,,,-1265581155274916971,0.2925238609313965,42.74051025277004,22.576184621406757,29.214880772795237,77,13,0.0,16399,383728376220296,10,34.3,183.54019165039062,0.044600002467632294,25,22947.783294155877,0.0015223494237726067,1.57542003E9,,,,0,,1,-3.06,1.57542003E9,304.0,NaN,NaN
Raw,232168911538337,648973169000000,,,-1265581155274916971,0.2925238609313965,42.74051025277004,22.576184621406757,29.214880772795237,77,15,0.0,16399,383728376056136,17,28.6,-155.4699249267578,0.5205000042915344,16,0.0,0.0,1.57542003E9,,,,0,,1,-3.06,1.57542003E9,304.0,NaN,NaN
Raw,232168911538337,648973169000000,,,-1265581155274916971,0.2925238609313965,42.74051025277004,22.576184621406757,29.214880772795237,77,17,0.0,16399,383728360746050,24,25.0,-552.4605712890625,0.6165000200271606,16,0.0,0.0,1.57542003E9,,,,0,,1,-3.06,1.57542003E9,304.0,NaN,NaN
Raw,232168911538337,648973169000000,,,-1265581155274916971,0.2925238609313965,42.74051025277004,22.576184621406757,29.214880772795237,77,20,0.0,16399,383728366809164,17,28.2,-401.09375,0.03420000150799751,25,-48780.00478358758,0.0030066398239606148,1.57542003E9,,,,0,,1,-3.06,1.57542003E9,304.0,NaN,NaN
Raw,232168911538337,648973169000000,,,-1265581155274916971,0.2925238609313965,42.74051025277004,22.576184621406757,29.214880772795237,77,24,0.0,16399,383728367580769,40,21.8,-605.4573364257812,0.796999990940094,16,0.0,0.0,1.57542003E9,,,,0,,1,-3.06,1.57542003E9,304.0,NaN,NaN
Raw,232168911538337,648973169000000,,,-1265581155274916971,0.2925238609313965,42.74051025277004,22.576184621406757,29.214880772795237,77,28,0.0,16399,383728372564332,9,35.4,142.6183319091797,0.038100000470876694,25,17792.043272267256,0.0013320557236479321,1.57542003E9,,,,0,,1,-3.06,1.57542003E9,304.0,NaN,NaN
Raw,232168911538337,648973169000000,,,-1265581155274916971,0.2925238609313965,42.74051025277004,22.576184621406757,29.214880772795237,77,30,0.0,16399,383728366683599,9,35.4,577.333740234375,0.029100000858306885,25,45338.80236986412,0.0013320557236479321,1.57542003E9,,,,0,,1,-3.06,1.57542003E9,304.0,NaN,NaN
Raw,232168911538337,648973169000000,,,-1265581155274916971,0.2925238609313965,42.74051025277004,22.576184621406757,29.214880772795237,77,14,0.0,49359,48910379984620,10,34.0,-86.86898803710938,0.2190999984741211,25,-10440.419654811883,0.0015007797454374234,1.59806246E9,,,,0,,3,-6.4,1.59806246E9,304.0,NaN,NaN
Raw,232168911538337,648973169000000,,,-1265581155274916971,0.2925238609313965,42.74051025277004,22.576184621406757,29.214880772795237,77,22,0.0,49359,48910366142131,31,23.2,-229.34329223632812,0.875499963760376,16,0.0,0.0,1.60031245E9,,,,0,,3,-6.4,1.60031245E9,304.0,NaN,NaN
Raw,232168911538337,648973169000000,,,-1265581155274916971,0.2925238609313965,42.74051025277004,22.576184621406757,29.214880772795237,77,13,0.0,49359,48910373759519,14,30.5,614.5372314453125,0.24240000545978546,25,75462.69294723123,0.0023595752053329456,1.60087501E9,,,,0,,3,-6.4,1.60087501E9,304.0,NaN,NaN
Raw,232168911538337,648973169000000,,,-1265581155274916971,0.2925238609313965,42.74051025277004,22.576184621406757,29.214880772795237,77,5,0.0,49359,48910374095171,8,36.5,-598.4056396484375,0.24060000479221344,25,-72361.36113369965,0.0011411310885165566,1.60256256E9,,,,0,,3,-6.4,1.60256256E9,304.0,NaN,NaN
Raw,232168911538337,648973169000000,,,-1265581155274916971,0.2925238609313965,42.74051025277004,22.576184621406757,29.214880772795237,77,3,0.0,49359,48910370677767,21,26.3,745.8699340820312,0.7414999604225159,16,0.0,0.0,1.60481254E9,,,,0,,3,-6.4,1.60481254E9,304.0,NaN,NaN
Raw,232168911538337,648973169000000,,,-1265581155274916971,0.2925238609313965,42.74051025277004,22.576184621406757,29.214880772795237,77,4,0.0,49359,48910379721376,9,35.9,142.48294067382812,0.21860000491142273,25,17348.002083616913,0.0013072006865361828,1.60537498E9,,,,0,,3,-6.4,1.60537498E9,304.0,NaN,NaN
Raw,232168911538337,648973169000000,,,-1265581155274916971,0.2925238609313965,42.74051025277004,22.576184621406757,29.214880772795237,77,37,0.0,16399,383714364984041,8,36.1,460.2699890136719,0.025600001215934753,25,56968.98950911673,0.0011714408558922843,1.56109798E9,,,,0,,5,-4.85,1.56109798E9,304.0,NaN,NaN
Raw,232168911538337,648973169000000,,,-1265581155274916971,0.2925238609313965,42.74051025277004,22.576184621406757,29.214880772795237,77,22,0.0,16399,383714363463701,12,32.3,-435.1579284667969,0.026100000366568565,21,-52481.60109913844,0.0018243750799829725,1.56109798E9,,,,0,,5,-4.85,1.56109798E9,304.0,NaN,NaN
Raw,232168911538337,648973169000000,,,-1265581155274916971,0.2925238609313965,42.74051025277004,22.576184621406757,29.214880772795237,77,10,0.0,16399,383714311758530,11,33.7,163.19412231445312,0.037700001150369644,25,20959.87502493555,0.0016707435714883973,1.56109798E9,,,,0,,5,-4.85,1.56109798E9,304.0,NaN,NaN
Raw,232168911538337,648973169000000,,,-1265581155274916971,0.2925238609313965,42.74051025277004,22.576184621406757,29.214880772795237,77,1,0.0,23567,383728360013221,11,33.0,364.8570861816406,0.04520000144839287,25,21831.628821754293,0.003596550258902148,1.57542003E9,,,,0,,6,-3.28,1.57542003E9,304.0,NaN,NaN
Raw,232168911538337,648973169000000,,,-1265581155274916971,0.2925238609313965,42.74051025277004,22.576184621406757,29.214880772795237,77,4,0.0,23567,383728358180569,16,29.5,484.0555419921875,0.05090000107884407,25,59917.00229786106,0.006146485344343376,1.57542003E9,,,,0,,6,-3.28,1.57542003E9,304.0,NaN,NaN
Raw,232168911538337,648973169000000,,,-1265581155274916971,0.2925238609313965,42.74051025277004,22.576184621406757,29.214880772795237,77,5,0.0,23567,383728358225349,17,28.3,-439.4593505859375,0.05220000073313713,25,-20470.057486786645,0.006565131413727744,1.57542003E9,,,,0,,6,-3.28,1.57542003E9,304.0,NaN,NaN
Raw,232168911538337,648973169000000,,,-1265581155274916971,0.2925238609313965,42.74051025277004,22.576184621406757,29.214880772795237,77,9,0.0,23567,383728372257868,10,34.7,28.03813934326172,0.044600002467632294,25,4024.3360193150147,0.003311109885939926,1.57542003E9,,,,0,,6,-3.28,1.57542003E9,304.0,NaN,NaN
Raw,232168911538337,648973169000000,,,-1265581155274916971,0.2925238609313965,42.74051025277004,22.576184621406757,29.214880772795237,77,24,0.0,23567,383728361369845,24,25.3,-567.8405151367188,0.058800000697374344,21,-1421.96186962479,0.017526047264890512,1.57542003E9,,,,0,,6,-3.28,1.57542003E9,304.0,NaN,NaN
Raw,232168911538337,648973169000000,,,-1265581155274916971,0.2925238609313965,42.74051025277004,22.576184621406757,29.214880772795237,77,31,0.0,23567,383728364934897,8,36.0,-178.0343475341797,0.04360000044107437,25,-21276.203874563922,0.0025499350854412276,1.57542003E9,,,,0,,6,-3.28,1.57542003E9,304.0,NaN,NaN
Raw,232168911538337,648973169000000,,,-1265581155274916971,0.2925238609313965,42.74051025277004,22.576184621406757,29.214880772795237,77,30,0.0,81935,383728366691438,9,21.4,577.5805053710938,0.7954999804496765,16,0.0,0.0,1.17645005E9,,,,0,,1,-1.06,1.17645005E9,304.0,NaN,NaN
Raw,232168911538337,648973169000000,,,-1265581155274916971,0.2925238609313965,42.74051025277004,22.576184621406757,29.214880772795237,77,1,0.0,81935,383728360020291,5,28.3,363.8470458984375,0.03310000151395798,29,43196.46805094971,0.0040262828122019055,1.17645005E9,,,,0,,6,-1.06,1.17645005E9,304.0,NaN,NaN
Raw,232168911538337,648973169000000,,,-1265581155274916971,0.2925238609313965,42.74051025277004,22.576184621406757,29.214880772795237,77,4,0.0,81935,383728358187715,11,19.0,485.0269470214844,0.9434999823570251,16,0.0,0.0,1.17645005E9,,,,0,,6,-1.06,1.17645005E9,304.0,NaN,NaN
Raw,232168911538337,648973169000000,,,-1265581155274916971,0.2925238609313965,42.74051025277004,22.576184621406757,29.214880772795237,77,9,0.0,81935,383728372264956,8,22.5,27.648841857910156,0.7444999814033508,16,0.0,0.0,1.17645005E9,,,,0,,6,-1.06,1.17645005E9,304.0,NaN,NaN
Raw,232168911538337,648973169000000,,,-1265581155274916971,0.2925238609313965,42.74051025277004,22.576184621406757,29.214880772795237,77,31,0.0,81935,383728364941976,6,25.7,-179.2161102294922,0.060499999672174454,29,-20156.56802704844,0.010753742989341824,1.17645005E9,,,,0,,6,-1.06,1.17645005E9,304.0,NaN,NaN
Fix,gps,51.524593,-0.134306,77.342773,0.170000,3.790092,1582194912000,232169903638748
Raw,232169923811354,648974169000000,,,-1265581155274916976,0.4272947311401367,42.702533392002806,8.550950330906032,27.629435272439586,77,13,0.0,16399,383729376219689,10,34.3,191.51258850097656,0.044600002467632294,25,23135.947423432957,0.0015223494237726067,1.57542003E9,,,,0,,1,-3.02,1.57542003E9,304.0,NaN,NaN
Raw,232169923811354,648974169000000,,,-1265581155274916976,0.4272947311401367,42.702533392002806,8.550950330906032,27.629435272439586,77,15,0.0,16399,383729376056618,14,30.8,-148.0785675048828,0.04690000042319298,19,-18904.44473741568,0.002397700231676362,1.57542003E9,,,,0,,1,-3.02,1.57542003E9,304.0,NaN,NaN
Raw,232169923811354,648974169000000,,,-1265581155274916976,0.4272947311401367,42.702533392002806,8.550950330906032,27.629435272439586,77,17,0.0,16399,383729360747941,35,22.4,-544.76318359375,0.7864999771118164,16,0.0,0.0,1.57542003E9,,,,0,,1,-3.02,1.57542003E9,304.0,NaN,NaN
Raw,232169923811354,648974169000000,,,-1265581155274916976,0.4272947311401367,42.702533392002806,8.550950330906032,27.629435272439586,77,20,0.0,16399,383729366810491,16,29.2,-393.06884765625,0.03290000185370445,25,-49176.42505994492,0.00281634630106073,1.57542003E9,,,,0,,1,-3.02,1.57542003E9,304.0,NaN,NaN
Raw,232169923811354,648974169000000,,,-1265581155274916976,0.4272947311401367,42.702533392002806,8.550950330906032,27.629435272439586,77,24,0.0,16399,383729367582920,40,21.6,-597.7980346679688,0.8569999933242798,16,0.0,0.0,1.57542003E9,,,,0,,1,-3.02,1.57542003E9,304.0,NaN,NaN
Raw,232169923811354,648974169000000,,,-1265581155274916976,0.4272947311401367,42.702533392002806,8.550950330906032,27.629435272439586,77,28,0.0,16399,383729372563824,9,35.4,150.6090087890625,0.038100000470876694,25,17939.31285494081,0.0013320557236479321,1.57542003E9,,,,0,,1,-3.02,1.57542003E9,304.0,NaN,NaN
Raw,232169923811354,648974169000000,,,-1265581155274916976,0.4272947311401367,42.702533392002806,8.550950330906032,27.629435272439586,77,30,0.0,16399,383729366681647,10,34.8,585.2359008789062,0.029600001871585846,25,45920.73009292701,0.0015223494237726067,1.57542003E9,,,,0,,1,-3.02,1.57542003E9,304.0,NaN,NaN
Raw,232169923811354,648974169000000,,,-1265581155274916976,0.4272947311401367,42.702533392002806,8.550950330906032,27.629435272439586,77,14,0.0,49359,48911379984905,10,34.7,-78.8377456665039,0.2190999984741211,25,-10522.622312350615,0.0015007797454374234,1.59806246E9,,,,0,,3,-6.34,1.59806246E9,304.0,NaN,NaN
Raw,232169923811354,648974169000000,,,-1265581155274916976,0.4272947311401367,42.702533392002806,8.550950330906032,27.629435272439586,77,22,0.0,49359,48911366142842,35,22.5,-221.18492126464844,0.9354999661445618,16,0.0,0.0,1.60031245E9,,,,0,,3,-6.34,1.60031245E9,304.0,NaN,NaN
Raw,232169923811354,648974169000000,,,-1265581155274916976,0.4272947311401367,42.702533392002806,8.550950330906032,27.629435272439586,77,13,0.0,49359,48911373757497,14,30.0,622.502685546875,0.24240000545978546,21,76081.86580888511,0.0023595752053329456,1.60087501E9,,,,0,,3,-6.34,1.60087501E9,304.0,NaN,NaN
Raw,232169923811354,648974169000000,,,-1265581155274916976,0.4272947311401367,42.702533392002806,8.550950330906032,27.629435272439586,77,15,0.0,49359,48911371062426,92,15.6,-685.4711303710938,2.9730002880096436,16,0.0,0.0,1.602E9,,,,0,,3,-6.34,1.602E9,304.0,NaN,NaN
Raw,232169923811354,648974169000000,,,-1265581155274916976,0.4272947311401367,42.702533392002806,8.550950330906032,27.629435272439586,77,5,0.0,49359,48911374097169,8,36.5,-590.4094848632812,0.24060000479221344,25,-72955.1201894889,0.0011411310885165566,1.60256256E9,,,,0,,3,-6.34,1.60256256E9,304.0,NaN,NaN
Raw,232169923811354,648974169000000,,,-1265581155274916976,0.4272947311401367,42.702533392002806,8.550950330906032,27.629435272439586,77,3,0.0,49359,48911370675378,17,28.2,753.230224609375,0.671500027179718,16,0.0,0.0,1.60481254E9,,,,0,,3,-6.34,1.60481254E9,304.0,NaN,NaN
Raw,232169923811354,648974169000000,,,-1265581155274916976,0.4272947311401367,42.702533392002806,8.550950330906032,27.629435272439586,77,4,0.0,49359,48911379720899,8,36.7,150.53414916992188,0.21810001134872437,25,17495.172726240144,0.0011391319696942128,1.60537498E9,,,,0,,3,-6.34,1.60537498E9,304.0,NaN,NaN
Raw,232169923811354,648974169000000,,,-1265581155274916976,0.4272947311401367,42.702533392002806,8.550950330906032,27.629435272439586,77,37,0.0,16399,383715364982492,6,39.3,468.1855773925781,0.024800000712275505,25,57433.865302371225,8.449737438469402E-4,1.56109798E9,,,,0,,5,-3.87,1.56109798E9,304.0,NaN,NaN
Raw,232169923811354,648974169000000,,,-1265581155274916976,0.4272947311401367,42.702533392002806,8.550950330906032,27.629435272439586,77,22,0.0,16399,383715363465123,11,33.7,-427.1956787109375,0.025700001046061516,17,-52912.145400668174,0.0016707435714883973,1.56109798E9,,,,0,,5,-3.87,1.56109798E9,304.0,NaN,NaN
Raw,232169923811354,648974169000000,,,-1265581155274916976,0.4272947311401367,42.702533392002806,8.550950330906032,27.629435272439586,77,10,0.0,16399,383715311757985,12,32.3,171.09878540039062,0.038100000470876694,25,21127.66897680001,0.0018243750799829725,1.56109798E9,,,,0,,5,-3.87,1.56109798E9,304.0,NaN,NaN
Raw,232169923811354,648974169000000,,,-1265581155274916976,0.4272947311401367,42.702533392002806,8.550950330906032,27.629435272439586,77,1,0.0,23567,383729360011985,12,32.2,372.37933349609375,0.04560000076889992,25,22200.903298362708,0.003958108324583987,1.57542003E9,,,,0,,6,-3.46,1.57542003E9,304.0,NaN,NaN
Raw,232169923811354,648974169000000,,,-1265581155274916976,0.4272947311401367,42.702533392002806,8.550950330906032,27.629435272439586,77,4,0.0,23567,383729358178946,17,28.4,491.5116882324219,0.05220000073313713,25,60405.451365726134,0.006565131413727744,1.57542003E9,,,,0,,6,-3.46,1.57542003E9,304.0,NaN,NaN
Raw,232169923811354,648974169000000,,,-1265581155274916976,0.4272947311401367,42.702533392002806,8.550950330906032,27.629435272439586,77,5,0.0,23567,383729358226775,16,29.1,-431.8547668457031,0.05090000107884407,25,-20905.070351408787,0.006146485344343376,1.57542003E9,,,,0,,6,-3.46,1.57542003E9,304.0,NaN,NaN
Raw,232169923811354,648974169000000,,,-1265581155274916976,0.4272947311401367,42.702533392002806,8.550950330906032,27.629435272439586,77,9,0.0,23567,383729372257746,9,35.5,35.587005615234375,0.04410000145435333,25,4056.787571165951,0.0028924638165555576,1.57542003E9,,,,0,,6,-3.46,1.57542003E9,304.0,NaN,NaN
Raw,232169923811354,648974169000000,,,-1265581155274916976,0.4272947311401367,42.702533392002806,8.550950330906032,27.629435272439586,77,24,0.0,23567,383729361371708,35,22.3,-560.2340698242188,0.7519999742507935,16,0.0,0.0,1.57542003E9,,,,0,,6,-3.46,1.57542003E9,304.0,NaN,NaN
Raw,232169923811354,648974169000000,,,-1265581155274916976,0.4272947311401367,42.702533392002806,8.550950330906032,27.629435272439586,77,31,0.0,23567,383729364935476,9,35.7,-170.49671936035156,0.04410000145435333,25,-21449.813705873014,0.0028924638165555576,1.57542003E9,,,,0,,6,-3.46,1.57542003E9,304.0,NaN,NaN
Raw,232169923811354,648974169000000,,,-1265581155274916976,0.4272947311401367,42.702533392002806,8.550950330906032,27.629435272439586,77,30,0.0,81935,383729366689486,8,22.0,585.021484375,0.7954999804496765,16,0.0,0.0,1.17645005E9,,,,0,,1,-1.8,1.17645005E9,304.0,NaN,NaN
Raw,232169923811354,648974169000000,,,-1265581155274916976,0.4272947311401367,42.702533392002806,8.550950330906032,27.629435272439586,77,1,0.0,81935,383729360019061,5,27.0,374.3268127441406,0.036000002175569534,29,43565.830607521486,0.004332076888121183,1.17645005E9,,,,0,,6,-1.8,1.17645005E9,304.0,NaN,NaN
Raw,232169923811354,648974169000000,,,-1265581155274916976,0.4272947311401367,42.702533392002806,8.550950330906032,27.629435272439586,77,4,0.0,81935,383729358186084,10,20.8,492.64630126953125,0.8134999871253967,16,0.0,0.0,1.17645005E9,,,,0,,6,-1.8,1.17645005E9,304.0,NaN,NaN
Raw,232169923811354,648974169000000,,,-1265581155274916976,0.4272947311401367,42.702533392002806,8.550950330906032,27.629435272439586,77,9,0.0,81935,383729372264853,10,20.8,35.89252853393555,0.8044999837875366,16,0.0,0.0,1.17645005E9,,,,0,,6,-1.8,1.17645005E9,304.0,NaN,NaN
Raw,232169923811354,648974169000000,,,-1265581155274916976,0.4272947311401367,42.702533392002806,8.550950330906032,27.629435272439586,77,31,0.0,81935,383729364942554,6,25.5,-168.55653381347656,0.060499999672174454,29,-20330.094338661096,0.010753742989341824,1.17645005E9,,,,0,,6,-1.8,1.17645005E9,304.0,NaN,NaN
Fix,gps,51.524594,-0.134310,77.427429,0.000000,3.790092,1582194913000,232170908256400
Raw,232170934610986,648975169000000,,,-1265581155274916953,0.3601818084716797,47.487730626016855,20.74190911644968,30.17918173781543,77,13,0.0,16399,383730376219053,10,34.9,187.0520477294922,0.044600002467632294,25,23325.31104274534,0.0015223494237726067,1.57542003E9,,,,0,,1,-2.98,1.57542003E9,304.0,NaN,NaN
Raw,232170934610986,648975169000000,,,-1265581155274916953,0.3601818084716797,47.487730626016855,20.74190911644968,30.17918173781543,77,15,0.0,16399,383730376057123,13,31.8,-152.49998474121094,0.04610000178217888,25,-19054.55093134042,0.002074201012354331,1.57542003E9,,,,0,,1,-2.98,1.57542003E9,304.0,NaN,NaN
Raw,232170934610986,648975169000000,,,-1265581155274916953,0.3601818084716797,47.487730626016855,20.74190911644968,30.17918173781543,77,17,0.0,16399,383730360749722,31,23.6,-548.921142578125,0.7264999747276306,16,0.0,0.0,1.57542003E9,,,,0,,1,-2.98,1.57542003E9,304.0,NaN,NaN
Raw,232170934610986,648975169000000,,,-1265581155274916953,0.3601818084716797,47.487730626016855,20.74190911644968,30.17918173781543,77,20,0.0,16399,383730366811788,16,29.9,-397.5333251953125,0.03290000185370445,25,-49571.66418016321,0.00281634630106073,1.57542003E9,,,,0,,1,-2.98,1.57542003E9,304.0,NaN,NaN
Raw,232170934610986,648975169000000,,,-1265581155274916953,0.3601818084716797,47.487730626016855,20.74190911644968,30.17918173781543,77,24,0.0,16399,383730367584815,53,19.4,-602.517333984375,1.0069999694824219,16,0.0,0.0,1.57542003E9,,,,0,,1,-2.98,1.57542003E9,304.0,NaN,NaN
Raw,232170934610986,648975169000000,,,-1265581155274916953,0.3601818084716797,47.487730626016855,20.74190911644968,30.17918173781543,77,28,0.0,16399,383730372563334,8,36.0,146.15553283691406,0.03760000318288803,25,18087.77032141565,0.001160791358090767,1.57542003E9,,,,0,,1,-2.98,1.57542003E9,304.0,NaN,NaN
Raw,232170934610986,648975169000000,,,-1265581155274916953,0.3601818084716797,47.487730626016855,20.74190911644968,30.17918173781543,77,30,0.0,16399,383730366679693,8,36.2,580.6737060546875,0.028600001707673073,25,46503.73336304136,0.001160791358090767,1.57542003E9,,,,0,,1,-2.98,1.57542003E9,304.0,NaN,NaN
Raw,232170934610986,648975169000000,,,-1265581155274916953,0.3601818084716797,47.487730626016855,20.74190911644968,30.17918173781543,77,14,0.0,49359,48912379985168,9,35.0,-83.31787872314453,0.21860000491142273,25,-10603.66696388542,0.0013131822554185268,1.59806246E9,,,,0,,3,-6.35,1.59806246E9,304.0,NaN,NaN
Raw,232170934610986,648975169000000,,,-1265581155274916953,0.3601818084716797,47.487730626016855,20.74190911644968,30.17918173781543,77,13,0.0,49359,48912373755383,14,30.6,617.99560546875,0.24240000545978546,25,76702.18097390498,0.0023595752053329456,1.60087501E9,,,,0,,3,-6.35,1.60087501E9,304.0,NaN,NaN
Raw,232170934610986,648975169000000,,,-1265581155274916953,0.3601818084716797,47.487730626016855,20.74190911644968,30.17918173781543,77,5,0.0,49359,48912374099140,7,37.3,-594.873046875,0.24040000140666962,25,-73547.67853285451,9.91474542321254E-4,1.60256256E9,,,,0,,3,-6.35,1.60256256E9,304.0,NaN,NaN
Raw,232170934610986,648975169000000,,,-1265581155274916953,0.3601818084716797,47.487730626016855,20.74190911644968,30.17918173781543,77,3,0.0,49359,48912370672866,17,28.7,748.9520874023438,0.240200012922287,27,92885.72601700827,0.002951572521903534,1.60481254E9,,,,0,,3,-6.35,1.60481254E9,304.0,NaN,NaN
Raw,232170934610986,648975169000000,,,-1265581155274916953,0.3601818084716797,47.487730626016855,20.74190911644968,30.17918173781543,77,4,0.0,49359,48912379720411,8,36.7,146.06663513183594,0.21810001134872437,25,17643.515717044087,0.0011391319696942128,1.60537498E9,,,,0,,3,-6.35,1.60537498E9,304.0,NaN,NaN
Raw,232170934610986,648975169000000,,,-1265581155274916953,0.3601818084716797,47.487730626016855,20.74190911644968,30.17918173781543,77,37,0.0,16399,383716364980941,6,38.1,463.6290283203125,0.025100000202655792,25,57899.82796025546,9.409935037250662E-4,1.56109798E9,,,,0,,5,-4.6,1.56109798E9,304.0,NaN,NaN
Raw,232170934610986,648975169000000,,,-1265581155274916953,0.3601818084716797,47.487730626016855,20.74190911644968,30.17918173781543,77,22,0.0,16399,383716363466540,10,34.0,-431.693603515625,0.025100000202655792,17,-53341.535046874604,0.001536315979199305,1.56109798E9,,,,0,,5,-4.6,1.56109798E9,304.0,NaN,NaN
Raw,232170934610986,648975169000000,,,-1265581155274916953,0.3601818084716797,47.487730626016855,20.74190911644968,30.17918173781543,77,20,0.0,16399,383716361804074,92,15.8,622.3999633789062,2.758000135421753,16,0.0,0.0,1.56109798E9,,,,0,,5,-4.6,1.56109798E9,304.0,NaN,NaN
Raw,232170934610986,648975169000000,,,-1265581155274916953,0.3601818084716797,47.487730626016855,20.74190911644968,30.17918173781543,77,10,0.0,16399,383716311757422,12,32.6,166.504150390625,0.038100000470876694,25,21296.519296070994,0.0018243750799829725,1.56109798E9,,,,0,,5,-4.6,1.56109798E9,304.0,NaN,NaN
Raw,232170934610986,648975169000000,,,-1265581155274916953,0.3601818084716797,47.487730626016855,20.74190911644968,30.17918173781543,77,1,0.0,23567,383730360010750,12,32.3,368.31243896484375,0.04560000076889992,25,22571.391123761416,0.003958108324583987,1.57542003E9,,,,0,,6,-3.23,1.57542003E9,304.0,NaN,NaN
Raw,232170934610986,648975169000000,,,-1265581155274916953,0.3601818084716797,47.487730626016855,20.74190911644968,30.17918173781543,77,4,0.0,23567,383730358177300,14,30.6,487.45489501953125,0.04990000277757645,25,60895.11657392204,0.005233075867304602,1.57542003E9,,,,0,,6,-3.23,1.57542003E9,304.0,NaN,NaN
Raw,232170934610986,648975169000000,,,-1265581155274916953,0.3601818084716797,47.487730626016855,20.74190911644968,30.17918173781543,77,5,0.0,23567,383730358228241,19,27.2,-435.9837646484375,0.052800003439188004,25,-21338.876072028444,0.007212130206821385,1.57542003E9,,,,0,,6,-3.23,1.57542003E9,304.0,NaN,NaN
