# 
# Header Description:
# 
# Version: v2.0.0.1 Platform: 10 Manufacturer: samsung Model: SM-G973F
# 
# Raw,ElapsedRealtimeNanos,TimeNanos,LeapSecond,TimeUncertaintyNanos,FullBiasNanos,BiasNanos,BiasUncertaintyNanos,DriftNanosPerSecond,DriftUncertaintyNanosPerSecond,HardwareClockDiscontinuityCount,Svid,TimeOffsetNanos,State,ReceivedSvTimeNanos,ReceivedSvTimeUncertaintyNanos,Cn0DbHz,PseudorangeRateMetersPerSecond,PseudorangeRateUncertaintyMetersPerSecond,AccumulatedDeltaRangeState,AccumulatedDeltaRangeMeters,AccumulatedDeltaRangeUncertaintyMeters,CarrierFrequencyHz,CarrierCycles,CarrierPhase,CarrierPhaseUncertainty,MultipathIndicator,SnrInDb,ConstellationType,AgcDb,CarrierFrequencyHz,UserLatitude,UserLongitude,UserAltitude
# 
# Fix,Provider,Latitude,Longitude,Altitude,Speed,Accuracy,(UTC)TimeInMs,ElapsedRealtimeNanos
# 
# Nav,Svid,Type,Status,MessageId,Sub-messageId,Data(Bytes)
# 
Fix,gps,51.524332,-0.134501,91.125471,0.063962,3.000000,1581676818999,200975266254615
Raw,200975288564115,1446003000000,,,-1265710590996694196,0.0,7.7591882774898115,,,22,5,0.0,16431,470436922410135,58,25.713499069213867,661.6532940388402,1.0176218716098555,16,897433.9395948424,3.4028234663852886E38,1.57542003E9,,,,0,,1,35.818702697753906,1.57542003E9,201.0,NaN,NaN
Raw,200975288564115,1446003000000,,,-1265710590996694196,0.0,7.7591882774898115,,,22,7,0.0,16396,470436915002644,1000000000,13.020956039428711,599.6564194799785,2.99792458E8,16,855076.3396740917,3.4028234663852886E38,1.57542003E9,,,,0,,1,35.818702697753906,1.57542003E9,201.0,NaN,NaN
Raw,200975288564115,1446003000000,,,-1265710590996694196,0.0,7.7591882774898115,,,22,8,0.0,16384,470436915553734,1000000000,23.649986267089844,269.519533215667,2.99792458E8,16,267798.4073238415,3.4028234663852886E38,1.57542003E9,,,,0,,1,35.818702697753906,1.57542003E9,201.0,NaN,NaN
Raw,200975288564115,1446003000000,,,-1265710590996694196,0.0,7.7591882774898115,,,22,13,0.0,16431,470436932499673,18,39.88724899291992,55.63452160900124,0.003273657290264964,25,-20134.80321604379,0.001636828645132482,1.57542003E9,,,,0,,1,35.818702697753906,1.57542003E9,201.0,NaN,NaN
Raw,200975288564115,1446003000000,,,-1265710590996694196,0.0,7.7591882774898115,,,22,15,0.0,16431,470436930977489,12,46.93452835083008,-291.9394328078488,0.001533020636998117,25,-518951.79284047766,7.665103184990585E-4,1.57542003E9,,,,0,,1,35.818702697753906,1.57542003E9,201.0,NaN,NaN
Raw,200975288564115,1446003000000,,,-1265710590996694196,0.0,7.7591882774898115,,,22,17,0.0,16384,470436914330135,1000000000,12.0,-585.918462904764,2.99792458E8,16,-91414.17226047853,3.4028234663852886E38,1.57542003E9,,,,0,,1,35.818702697753906,1.57542003E9,201.0,NaN,NaN
Raw,200975288564115,1446003000000,,,-1265710590996694196,0.0,7.7591882774898115,,,22,20,0.0,16431,470436920777349,28,34.4892692565918,-530.2665271699661,0.005745872389525175,25,-845771.4345974822,0.0028729361947625875,1.57542003E9,,,,0,,1,35.818702697753906,1.57542003E9,201.0,NaN,NaN
Raw,200975288564115,1446003000000,,,-1265710590996694196,0.0,7.7591882774898115,,,22,21,0.0,16396,470436915380270,1000000000,12.0,261.39814393944437,2.99792458E8,16,292414.902932417,3.4028234663852886E38,1.57542003E9,,,,0,,1,35.818702697753906,1.57542003E9,201.0,NaN,NaN
Raw,200975288564115,1446003000000,,,-1265710590996694196,0.0,7.7591882774898115,,,22,24,0.0,16431,470436920899110,55,26.246803283691406,-669.3168025529071,0.9969655065343082,16,-1001450.4425472341,3.4028234663852886E38,1.57542003E9,,,,1,,1,35.818702697753906,1.57542003E9,201.0,NaN,NaN
Raw,200975288564115,1446003000000,,,-1265710590996694196,0.0,7.7591882774898115,,,22,28,0.0,16431,470436928635892,26,35.38337326049805,-10.33440639069886,0.005183831322938204,25,-142984.77411427296,0.002591915661469102,1.57542003E9,,,,1,,1,35.818702697753906,1.57542003E9,201.0,NaN,NaN
Raw,200975288564115,1446003000000,,,-1265710590996694196,0.0,7.7591882774898115,,,22,30,0.0,16431,470436924621740,25,36.076560974121094,516.3758922697743,0.004786205478012562,25,691705.6291777033,0.002393102739006281,1.57542003E9,,,,0,,1,35.818702697753906,1.57542003E9,201.0,NaN,NaN
Raw,200975288564115,1446003000000,,,-1265710590996694196,0.0,7.7591882774898115,,,22,6,0.0,32995,49218935760841,67,32.45258331298828,-116.30233559237837,0.7169743984307386,16,-319592.63312058244,3.4028234663852886E38,1.59975002E9,,,,0,,3,50.053245544433594,1.59975002E9,201.0,NaN,NaN
Raw,200975288564115,1446003000000,,,-1265710590996694196,0.0,7.7591882774898115,,,22,9,0.0,32867,49218920647619,82,29.966901779174805,-802.7851337594066,0.829631628611462,16,-991376.6908848531,3.4028234663852886E38,1.60087501E9,,,,0,,3,50.053245544433594,1.60087501E9,201.0,NaN,NaN
Raw,200975288564115,1446003000000,,,-1265710590996694196,0.0,7.7591882774898115,,,22,16,0.0,32995,49218935244658,33,41.01439666748047,-270.5971993718995,0.0028285395819693804,25,-536312.6720011812,0.0014142697909846902,1.60143744E9,,,,0,,3,50.053245544433594,1.60143744E9,201.0,NaN,NaN
Raw,200975288564115,1446003000000,,,-1265710590996694196,0.0,7.7591882774898115,,,22,15,0.0,32995,49218931562833,33,43.77300262451172,511.81716542772483,0.002058161422610283,25,626756.0918230544,0.0010290807113051414,1.602E9,,,,0,,3,50.053245544433594,1.602E9,201.0,NaN,NaN
Raw,200975288564115,1446003000000,,,-1265710590996694196,0.0,7.7591882774898115,,,22,5,0.0,32995,49218928659438,33,41.16852951049805,658.541651453008,0.0027768383733928204,25,850003.4418254048,0.0013884191866964102,1.60256256E9,,,,1,,3,50.053245544433594,1.60256256E9,201.0,NaN,NaN
Raw,200975288564115,1446003000000,,,-1265710590996694196,0.0,7.7591882774898115,,,22,23,0.0,32995,49218922125941,72,31.591712951660156,95.56810275444406,0.8005269414907272,16,-36972.20003165403,3.4028234663852886E38,1.60368755E9,,,,0,,3,50.053245544433594,1.60368755E9,201.0,NaN,NaN
Raw,200975288564115,1446003000000,,,-1265710590996694196,0.0,7.7591882774898115,,,22,7,0.0,32995,49218926234709,33,47.94637680053711,-725.5007833652198,0.0013394535053521395,25,-1094244.1806149282,6.697267526760697E-4,1.60481254E9,,,,0,,3,50.053245544433594,1.60481254E9,201.0,NaN,NaN
Raw,200975288564115,1446003000000,,,-1265710590996694196,0.0,7.7591882774898115,,,22,5,0.0,16384,470422863663515,1000000000,12.0,-21.73191793695888,2.99792458E8,16,-34443.32694627413,3.4028234663852886E38,1.56109798E9,,,,0,,5,54.135643005371094,1.56109798E9,201.0,NaN,NaN
Raw,200975288564115,1446003000000,,,-1265710590996694196,0.0,7.7591882774898115,,,22,7,0.0,16384,470422862583325,1000000000,12.0,200.09689231821324,2.99792458E8,16,269792.58040826157,3.4028234663852886E38,1.56109798E9,,,,0,,5,54.135643005371094,1.56109798E9,201.0,NaN,NaN
Raw,200975288564115,1446003000000,,,-1265710590996694196,0.0,7.7591882774898115,,,22,10,0.0,81967,470422868180268,19,30.959157943725586,128.2099449991074,0.00870618224143982,17,161782.9710931372,0.10037283427585815,1.56109798E9,,,,0,,5,54.135643005371094,1.56109798E9,201.0,NaN,NaN
Raw,200975288564115,1446003000000,,,-1265710590996694196,0.0,7.7591882774898115,,,22,12,0.0,16384,470422911606876,1000000000,12.0,-20.23307587660878,2.99792458E8,16,-139006.01539051931,3.4028234663852886E38,1.56109798E9,,,,0,,5,54.135643005371094,1.56109798E9,201.0,NaN,NaN
Raw,200975288564115,1446003000000,,,-1265710590996694196,0.0,7.7591882774898115,,,22,19,0.0,81967,470422916616448,69,14.978885650634766,-571.6153851179449,1.5019511525656357,16,-864756.9594879269,3.4028234663852886E38,1.56109798E9,,,,1,,5,54.135643005371094,1.56109798E9,201.0,NaN,NaN
Raw,200975288564115,1446003000000,,,-1265710590996694196,0.0,7.7591882774898115,,,22,20,0.0,81967,470422925358686,8,41.02512741088867,-84.84911662642844,0.002898047212511301,17,-229767.4084636145,0.09746876676139389,1.56109798E9,,,,0,,5,54.135643005371094,1.56109798E9,201.0,NaN,NaN
Raw,200975288564115,1446003000000,,,-1265710590996694196,0.0,7.7591882774898115,,,22,23,0.0,81967,470422923974352,8,40.644805908203125,309.25315054354724,0.003027761122211814,17,365289.76581625664,0.09753362371624415,1.56109798E9,,,,1,,5,54.135643005371094,1.56109798E9,201.0,NaN,NaN
Raw,200975288564115,1446003000000,,,-1265710590996694196,0.0,7.7591882774898115,,,22,25,0.0,81967,470422910895474,69,14.982702255249023,596.1600365951294,1.5009221552747576,16,846673.0986355114,3.4028234663852886E38,1.56109798E9,,,,1,,5,54.135643005371094,1.56109798E9,201.0,NaN,NaN
Raw,200975288564115,1446003000000,,,-1265710590996694196,0.0,7.7591882774898115,,,22,32,0.0,81967,470422921177914,6,44.756103515625,503.303957175347,0.001886065467260778,17,646370.5002996536,0.09696277588876863,1.56109798E9,,,,0,,5,54.135643005371094,1.56109798E9,201.0,NaN,NaN
Raw,200975288564115,1446003000000,,,-1265710590996694196,0.0,7.7591882774898115,,,22,34,0.0,16384,470422910875173,1000000000,12.0,-228.19758802038996,2.99792458E8,16,-416672.559760767,3.4028234663852886E38,1.56109798E9,,,,1,,5,54.135643005371094,1.56109798E9,201.0,NaN,NaN
Raw,200975288564115,1446003000000,,,-1265710590996694196,0.0,7.7591882774898115,,,22,37,0.0,81967,470422925471747,7,42.532169342041016,-284.70499783661216,0.0024364269338548188,25,300446.88235830545,0.0012182134669274092,1.56109798E9,,,,0,,5,54.135643005371094,1.56109798E9,201.0,NaN,NaN
Raw,200975288564115,1446003000000,,,-1265710590996694196,0.0,7.7591882774898115,,,22,1,0.0,85026,470436914072789,17,40.50586700439453,-536.3703722395003,0.003048613900318742,25,-815933.2438163136,0.001524306950159371,1.57542003E9,,,,0,,6,35.818702697753906,1.57542003E9,201.0,NaN,NaN
Raw,200975288564115,1446003000000,,,-1265710590996694196,0.0,7.7591882774898115,,,22,4,0.0,21546,470436917387254,16,41.09617233276367,-359.99290353956167,0.002848308999091387,25,-564709.0657887462,0.0014241544995456934,1.57542003E9,,,,0,,6,35.818702697753906,1.57542003E9,201.0,NaN,NaN
Raw,200975288564115,1446003000000,,,-1265710590996694196,0.0,7.7591882774898115,,,22,19,0.0,85026,470436920914858,34,32.325836181640625,204.94134908210253,0.007371021434664726,25,222072.65175476647,0.003685510717332363,1.57542003E9,,,,0,,6,35.818702697753906,1.57542003E9,201.0,NaN,NaN
Raw,200975288564115,1446003000000,,,-1265710590996694196,0.0,7.7591882774898115,,,22,21,0.0,21546,470436920628795,17,40.58088302612305,-63.093030480638845,0.0030223976355046034,25,-183051.19094106584,0.0015111988177523017,1.57542003E9,,,,0,,6,35.818702697753906,1.57542003E9,201.0,NaN,NaN
Raw,200975288564115,1446003000000,,,-1265710590996694196,0.0,7.7591882774898115,,,22,27,0.0,85026,470436913435981,21,37.93933868408203,436.9623250253498,0.004096649587154388,25,569345.387946052,0.002048324793577194,1.57542003E9,,,,0,,6,35.818702697753906,1.57542003E9,201.0,NaN,NaN
Raw,200975288564115,1446003000000,,,-1265710590996694196,0.0,7.7591882774898115,,,22,36,0.0,85026,470436906446162,22,37.57992935180664,171.77664847992128,0.004025529138743877,25,149012.74060074202,0.0020127645693719387,1.57542003E9,,,,0,,6,35.818702697753906,1.57542003E9,201.0,NaN,NaN
Fix,gps,51.524328,-0.134502,91.350597,0.454523,3.000000,1581676819999,200976271029729
Raw,200976296918845,1447003000000,,,-1265710590996694258,0.0,7.926336789548946,,,22,5,0.0,16431,470437922407896,43,29.421489715576172,662.2947940355125,0.8508773805425816,16,898095.0954493573,3.4028234663852886E38,1.57542003E9,,,,1,,1,37.42583465576172,1.57542003E9,201.0,NaN,NaN
Raw,200976296918845,1447003000000,,,-1265710590996694258,0.0,7.926336789548946,,,22,7,0.0,16396,470437915000643,1000000000,12.390890121459961,599.4708064217552,2.99792458E8,16,855676.2184537684,3.4028234663852886E38,1.57542003E9,,,,0,,1,37.42583465576172,1.57542003E9,201.0,NaN,NaN
Raw,200976296918845,1447003000000,,,-1265710590996694258,0.0,7.926336789548946,,,22,8,0.0,16384,470437915552797,1000000000,23.836345672607422,269.72943002416275,2.99792458E8,16,268067.8379917593,3.4028234663852886E38,1.57542003E9,,,,0,,1,37.42583465576172,1.57542003E9,201.0,NaN,NaN
Raw,200976296918845,1447003000000,,,-1265710590996694258,0.0,7.926336789548946,,,22,13,0.0,16431,470437932499481,15,42.34564208984375,55.79257945145946,0.0024666842073202133,25,-20079.01063659233,0.0012333421036601067,1.57542003E9,,,,0,,1,37.42583465576172,1.57542003E9,201.0,NaN,NaN
Raw,200976296918845,1447003000000,,,-1265710590996694258,0.0,7.926336789548946,,,22,15,0.0,16431,470437930978499,12,44.7770881652832,-291.7864153581322,0.0018644096562638877,25,-519243.5792558358,9.322048281319439E-4,1.57542003E9,,,,0,,1,37.42583465576172,1.57542003E9,201.0,NaN,NaN
Raw,200976296918845,1447003000000,,,-1265710590996694258,0.0,7.926336789548946,,,22,17,0.0,16384,470437914332085,1000000000,12.0,-586.1040759629873,2.99792458E8,16,-92000.24957386647,3.4028234663852886E38,1.57542003E9,,,,0,,1,37.42583465576172,1.57542003E9,201.0,NaN,NaN
Raw,200976296918845,1447003000000,,,-1265710590996694258,0.0,7.926336789548946,,,22,20,0.0,16431,470437920779108,31,33.531951904296875,-530.0328533872962,0.006415370386093854,25,-846301.4674508695,0.0032076851930469275,1.57542003E9,,,,0,,1,37.42583465576172,1.57542003E9,201.0,NaN,NaN
Raw,200976296918845,1447003000000,,,-1265710590996694258,0.0,7.926336789548946,,,22,21,0.0,16396,470437915379576,1000000000,12.0,261.5837910801241,2.99792458E8,16,292675.4453100497,3.4028234663852886E38,1.57542003E9,,,,1,,1,37.42583465576172,1.57542003E9,201.0,NaN,NaN
Raw,200976296918845,1447003000000,,,-1265710590996694258,0.0,7.926336789548946,,,22,24,0.0,16431,470437920901306,75,22.430580139160156,-669.0422342831594,1.1685770655872565,16,-1002119.3759179959,3.4028234663852886E38,1.57542003E9,,,,1,,1,37.42583465576172,1.57542003E9,201.0,NaN,NaN
Raw,200976296918845,1447003000000,,,-1265710590996694258,0.0,7.926336789548946,,,22,28,0.0,16431,470437928635841,22,37.28649139404297,-10.209534419234842,0.004163848236203194,25,-142994.9836486922,0.002081924118101597,1.57542003E9,,,,1,,1,37.42583465576172,1.57542003E9,201.0,NaN,NaN
Raw,200976296918845,1447003000000,,,-1265710590996694258,0.0,7.926336789548946,,,22,30,0.0,16431,470437924620007,26,35.260597229003906,516.2513996703569,0.5886971517986921,16,692221.9832529653,3.4028234663852886E38,1.57542003E9,,,,0,,1,37.42583465576172,1.57542003E9,201.0,NaN,NaN
Raw,200976296918845,1447003000000,,,-1265710590996694258,0.0,7.926336789548946,,,22,6,0.0,32995,49219935761208,58,34.195316314697266,-116.35058632260188,0.005853261332958937,25,-319708.98370690504,0.0029266306664794683,1.59975002E9,,,,0,,3,52.0823974609375,1.59975002E9,201.0,NaN,NaN
Raw,200976296918845,1447003000000,,,-1265710590996694258,0.0,7.926336789548946,,,22,9,0.0,32867,49219920650246,104,27.134113311767578,-803.0539761764585,0.9570194030090207,16,-992179.1392601624,3.4028234663852886E38,1.60087501E9,,,,0,,3,52.0823974609375,1.60087501E9,201.0,NaN,NaN
Raw,200976296918845,1447003000000,,,-1265710590996694258,0.0,7.926336789548946,,,22,16,0.0,32995,49219935245626,33,41.68614196777344,-270.49837016290985,0.0026180322747677565,25,-536583.1703713441,0.0013090161373838782,1.60143744E9,,,,0,,3,52.0823974609375,1.60143744E9,201.0,NaN,NaN
Raw,200976296918845,1447003000000,,,-1265710590996694258,0.0,7.926336789548946,,,22,15,0.0,32995,49219931561151,33,41.404808044433594,511.97264338249806,0.0027032685466110706,25,627268.0644664369,0.0013516342733055353,1.602E9,,,,0,,3,52.0823974609375,1.602E9,201.0,NaN,NaN
Raw,200976296918845,1447003000000,,,-1265710590996694258,0.0,7.926336789548946,,,22,5,0.0,32995,49219928657089,33,43.30695343017578,658.5321665215307,0.0021708477288484573,25,850661.9739919263,0.0010854238644242287,1.60256256E9,,,,0,,3,52.0823974609375,1.60256256E9,201.0,NaN,NaN
Raw,200976296918845,1447003000000,,,-1265710590996694258,0.0,7.926336789548946,,,22,23,0.0,32995,49219922125630,73,31.473886489868164,95.76564371211134,0.007987331598997116,25,-36876.43438794192,0.003993665799498558,1.60368755E9,,,,0,,3,52.0823974609375,1.60368755E9,201.0,NaN,NaN
Raw,200976296918845,1447003000000,,,-1265710590996694258,0.0,7.926336789548946,,,22,7,0.0,32995,49219926237124,33,48.47447204589844,-725.4341502839234,0.0012604418443515897,25,-1094969.6147652122,6.302209221757948E-4,1.60481254E9,,,,0,,3,52.0823974609375,1.60481254E9,201.0,NaN,NaN
Raw,200976296918845,1447003000000,,,-1265710590996694258,0.0,7.926336789548946,,,22,5,0.0,16384,470423863663588,1000000000,12.0,-22.106628984584788,2.99792458E8,16,-34465.508854397485,3.4028234663852886E38,1.56109798E9,,,,0,,5,52.436973571777344,1.56109798E9,201.0,NaN,NaN
Raw,200976296918845,1447003000000,,,-1265710590996694258,0.0,7.926336789548946,,,22,7,0.0,16384,470423862582651,1000000000,12.0,199.72218979120146,2.99792458E8,16,269992.60090915125,3.4028234663852886E38,1.56109798E9,,,,0,,5,52.436973571777344,1.56109798E9,201.0,NaN,NaN
Raw,200976296918845,1447003000000,,,-1265710590996694258,0.0,7.926336789548946,,,22,10,0.0,81967,470423868179817,20,30.328277587890625,128.28990428562975,0.00936206616461277,17,161911.26099742283,0.10070077623744463,1.56109798E9,,,,0,,5,52.436973571777344,1.56109798E9,201.0,NaN,NaN
Raw,200976296918845,1447003000000,,,-1265710590996694258,0.0,7.926336789548946,,,22,12,0.0,16384,470423911606938,1000000000,13.83444595336914,-20.23307587660878,2.99792458E8,16,-139025.95279406596,3.4028234663852886E38,1.56109798E9,,,,0,,5,52.436973571777344,1.56109798E9,201.0,NaN,NaN
Raw,200976296918845,1447003000000,,,-1265710590996694258,0.0,7.926336789548946,,,22,19,0.0,81967,470423916618364,53,18.201202392578125,-570.7017026234814,1.3579971075771606,16,-865327.7605194387,3.4028234663852886E38,1.56109798E9,,,,1,,5,52.436973571777344,1.56109798E9,201.0,NaN,NaN
Raw,200976296918845,1447003000000,,,-1265710590996694258,0.0,7.926336789548946,,,22,20,0.0,81967,470423925358969,8,40.50605773925781,-84.79220658537815,0.003076514694839716,17,-229852.20067019988,0.0975580005025581,1.56109798E9,,,,0,,5,52.436973571777344,1.56109798E9,201.0,NaN,NaN
Raw,200976296918845,1447003000000,,,-1265710590996694258,0.0,7.926336789548946,,,22,23,0.0,81967,470423923973290,10,37.7987060546875,309.4617864884442,0.4744449025930799,16,365599.1156964446,3.4028234663852886E38,1.56109798E9,,,,0,,5,52.436973571777344,1.56109798E9,201.0,NaN,NaN
Raw,200976296918845,1447003000000,,,-1265710590996694258,0.0,7.926336789548946,,,22,25,0.0,4,5910893366,1000000000,13.918703079223633,596.5382836976196,2.99792458E8,16,847269.7570834096,3.4028234663852886E38,1.56109798E9,,,,1,,5,52.436973571777344,1.56109798E9,201.0,NaN,NaN
Raw,200976296918845,1447003000000,,,-1265710590996694258,0.0,7.926336789548946,,,22,32,0.0,81967,470423921176256,6,44.396156311035156,503.26361771230586,0.001965866656973958,17,646873.7639173659,0.09700267648362522,1.56109798E9,,,,0,,5,52.436973571777344,1.56109798E9,201.0,NaN,NaN
Raw,200976296918845,1447003000000,,,-1265710590996694258,0.0,7.926336789548946,,,22,34,0.0,16384,470423910875931,1000000000,12.0,-228.19758802038996,2.99792458E8,16,-416900.75735011057,3.4028234663852886E38,1.56109798E9,,,,0,,5,52.436973571777344,1.56109798E9,201.0,NaN,NaN
Raw,200976296918845,1447003000000,,,-1265710590996694258,0.0,7.926336789548946,,,22,37,0.0,81967,470423925472746,7,42.02178192138672,-284.719646120735,0.002583882538601756,25,300162.1627121847,0.001291941269300878,1.56109798E9,,,,0,,5,52.436973571777344,1.56109798E9,201.0,NaN,NaN
Raw,200976296918845,1447003000000,,,-1265710590996694258,0.0,7.926336789548946,,,22,1,0.0,85026,470437914074606,18,39.68939971923828,-536.4316910482012,0.003349081380292773,25,-816469.6755073618,0.0016745406901463866,1.57542003E9,,,,0,,6,37.42583465576172,1.57542003E9,201.0,NaN,NaN
Raw,200976296918845,1447003000000,,,-1265710590996694258,0.0,7.926336789548946,,,22,4,0.0,21546,470437917388445,15,41.9977912902832,-359.94835593446624,0.002567474963143468,25,-565069.0141446807,0.001283737481571734,1.57542003E9,,,,0,,6,37.42583465576172,1.57542003E9,201.0,NaN,NaN
Raw,200976296918845,1447003000000,,,-1265710590996694258,0.0,7.926336789548946,,,22,19,0.0,85026,470437920914166,28,34.498260498046875,204.8783269317937,0.005739928223192692,25,222277.53008169826,0.002869964111596346,1.57542003E9,,,,0,,6,37.42583465576172,1.57542003E9,201.0,NaN,NaN
Raw,200976296918845,1447003000000,,,-1265710590996694258,0.0,7.926336789548946,,,22,21,0.0,21546,470437920629001,16,41.025482177734375,-63.04261525286711,0.0028715848457068205,25,-183114.2335563187,0.0014357924228534102,1.57542003E9,,,,0,,6,37.42583465576172,1.57542003E9,201.0,NaN,NaN
Raw,200976296918845,1447003000000,,,-1265710590996694258,0.0,7.926336789548946,,,22,27,0.0,85026,470437913434546,21,38.015323638916016,437.0649120081216,0.004060968291014433,25,569782.4528580601,0.0020304841455072165,1.57542003E9,,,,0,,6,37.42583465576172,1.57542003E9,201.0,NaN,NaN
Raw,200976296918845,1447003000000,,,-1265710590996694258,0.0,7.926336789548946,,,22,36,0.0,85026,470437906445555,13,43.53540802001953,171.9342168805597,0.002150924876332283,25,149184.67481762258,0.0010754624381661415,1.57542003E9,,,,0,,6,37.42583465576172,1.57542003E9,201.0,NaN,NaN
Fix,gps,51.524328,-0.134499,91.537884,0.041839,3.000000,1581676820999,200977253563613
Raw,200977261903459,1448003000000,,,-1265710590996694319,0.0,7.863489884262553,,,22,5,0.0,16431,470438922405690,47,28.250333786010742,661.7431353942343,0.9035424976768796,16,898756.6681072251,3.4028234663852886E38,1.57542003E9,,,,0,,1,37.993743896484375,1.57542003E9,201.0,NaN,NaN
Raw,200977261903459,1448003000000,,,-1265710590996694319,0.0,7.863489884262553,,,22,7,0.0,16396,470438914998642,1000000000,15.298492431640625,599.4708064217552,2.99792458E8,16,856276.9064948126,3.4028234663852886E38,1.57542003E9,,,,0,,1,37.993743896484375,1.57542003E9,201.0,NaN,NaN
Raw,200977261903459,1448003000000,,,-1265710590996694319,0.0,7.863489884262553,,,22,8,0.0,16419,470438915551991,77,22.18722915649414,269.8360740306226,1.1785581662337998,16,268337.45589046355,3.4028234663852886E38,1.57542003E9,,,,0,,1,37.993743896484375,1.57542003E9,201.0,NaN,NaN
Raw,200977261903459,1448003000000,,,-1265710590996694319,0.0,7.863489884262553,,,22,13,0.0,16431,470438932499305,14,42.98779296875,55.88544801562966,0.0022908998653292656,25,-20023.1251885767,0.0011454499326646328,1.57542003E9,,,,0,,1,37.993743896484375,1.57542003E9,201.0,NaN,NaN
Raw,200977261903459,1448003000000,,,-1265710590996694319,0.0,7.863489884262553,,,22,15,0.0,16431,470438930979477,19,39.57737731933594,-291.59979815996485,0.003392554586753249,25,-519535.17905399576,0.0016962772933766246,1.57542003E9,,,,0,,1,37.993743896484375,1.57542003E9,201.0,NaN,NaN
Raw,200977261903459,1448003000000,,,-1265710590996694319,0.0,7.863489884262553,,,22,17,0.0,16384,470438914334044,1000000000,12.414596557617188,-585.918462904764,2.99792458E8,16,-92585.87671880564,3.4028234663852886E38,1.57542003E9,,,,0,,1,37.993743896484375,1.57542003E9,201.0,NaN,NaN
Raw,200977261903459,1448003000000,,,-1265710590996694319,0.0,7.863489884262553,,,22,20,0.0,16431,470438920780878,33,32.52775955200195,-529.9995426058304,0.007201641332358121,25,-846831.4669934753,0.003600820666179061,1.57542003E9,,,,0,,1,37.993743896484375,1.57542003E9,201.0,NaN,NaN
Raw,200977261903459,1448003000000,,,-1265710590996694319,0.0,7.863489884262553,,,22,21,0.0,16396,470438915378436,1000000000,13.219341278076172,261.5837910801241,2.99792458E8,16,292937.13753043336,3.4028234663852886E38,1.57542003E9,,,,0,,1,37.993743896484375,1.57542003E9,201.0,NaN,NaN
Raw,200977261903459,1448003000000,,,-1265710590996694319,0.0,7.863489884262553,,,22,24,0.0,16431,470438920903527,79,21.84531593322754,-669.0537541534641,1.1948961775602305,16,-1002788.3104860786,3.4028234663852886E38,1.57542003E9,,,,1,,1,37.993743896484375,1.57542003E9,201.0,NaN,NaN
Raw,200977261903459,1448003000000,,,-1265710590996694319,0.0,7.863489884262553,,,22,28,0.0,16431,470438928635849,20,38.48707962036133,-10.047829349845415,0.0038462872616946697,25,-143005.03147804204,0.0019231436308473349,1.57542003E9,,,,0,,1,37.993743896484375,1.57542003E9,201.0,NaN,NaN
Raw,200977261903459,1448003000000,,,-1265710590996694319,0.0,7.863489884262553,,,22,30,0.0,16431,470438924618294,23,37.054283142089844,516.4929508110508,0.004536089021712542,17,692738.4762037763,0.0974148809100387,1.57542003E9,,,,0,,1,37.993743896484375,1.57542003E9,201.0,NaN,NaN
Raw,200977261903459,1448003000000,,,-1265710590996694319,0.0,7.863489884262553,,,22,6,0.0,32995,49220935761614,48,36.56879425048828,-116.19284871395212,0.004453729838132858,25,-319825.176555619,0.002226864919066429,1.59975002E9,,,,0,,3,50.92256164550781,1.59975002E9,201.0,NaN,NaN
Raw,200977261903459,1448003000000,,,-1265710590996694319,0.0,7.863489884262553,,,22,9,0.0,32867,49220920653001,127,24.57276153564453,-803.4243843139484,1.0722009982605605,16,-992983.2540494854,3.4028234663852886E38,1.60087501E9,,,,0,,3,50.92256164550781,1.60087501E9,201.0,NaN,NaN
Raw,200977261903459,1448003000000,,,-1265710590996694319,0.0,7.863489884262553,,,22,16,0.0,32995,49220935246534,35,40.437618255615234,-270.2872124616988,0.003022742923349142,25,-536853.4575838058,0.001511371461674571,1.60143744E9,,,,0,,3,50.92256164550781,1.60143744E9,201.0,NaN,NaN
Raw,200977261903459,1448003000000,,,-1265710590996694319,0.0,7.863489884262553,,,22,15,0.0,32995,49220931559460,33,46.63554000854492,511.97246224293485,0.0015603830106556418,25,627780.0369286798,7.801915053278208E-4,1.602E9,,,,0,,3,50.92256164550781,1.602E9,201.0,NaN,NaN
Raw,200977261903459,1448003000000,,,-1265710590996694319,0.0,7.863489884262553,,,22,5,0.0,32995,49220928654983,40,38.77531814575195,658.7757690451108,0.0036577261053025723,25,851320.7497609714,0.0018288630526512861,1.60256256E9,,,,0,,3,50.92256164550781,1.60256256E9,201.0,NaN,NaN
Raw,200977261903459,1448003000000,,,-1265710590996694319,0.0,7.863489884262553,,,22,23,0.0,32995,49220922125244,87,29.253406524658203,96.0505569677527,0.8583851066684969,16,-36780.5362836127,3.4028234663852886E38,1.60368755E9,,,,0,,3,50.92256164550781,1.60368755E9,201.0,NaN,NaN
Raw,200977261903459,1448003000000,,,-1265710590996694319,0.0,7.863489884262553,,,22,7,0.0,32995,49220926239529,33,48.72428512573242,-725.4228930491954,0.0012247072299942374,25,-1095695.0376582614,6.123536149971187E-4,1.60481254E9,,,,0,,3,50.92256164550781,1.60481254E9,201.0,NaN,NaN
Raw,200977261903459,1448003000000,,,-1265710590996694319,0.0,7.863489884262553,,,22,5,0.0,16384,470424863663661,1000000000,12.0,-22.106628984584788,2.99792458E8,16,-34487.31607014097,3.4028234663852886E38,1.56109798E9,,,,0,,5,50.411476135253906,1.56109798E9,201.0,NaN,NaN
Raw,200977261903459,1448003000000,,,-1265710590996694319,0.0,7.863489884262553,,,22,7,0.0,16384,470424862581985,1000000000,12.0,200.09689231821324,2.99792458E8,16,270192.6985451822,3.4028234663852886E38,1.56109798E9,,,,0,,5,50.411476135253906,1.56109798E9,201.0,NaN,NaN
Raw,200977261903459,1448003000000,,,-1265710590996694319,0.0,7.863489884262553,,,22,10,0.0,81967,470424868179461,18,31.61724853515625,128.20929239786346,0.008070923388004303,17,162039.4702898207,0.10005520484914039,1.56109798E9,,,,0,,5,50.411476135253906,1.56109798E9,201.0,NaN,NaN
Raw,200977261903459,1448003000000,,,-1265710590996694319,0.0,7.863489884262553,,,22,12,0.0,16384,470424911607004,1000000000,12.0,-19.85836482898287,2.99792458E8,16,-139045.73212113167,3.4028234663852886E38,1.56109798E9,,,,0,,5,50.411476135253906,1.56109798E9,201.0,NaN,NaN
Raw,200977261903459,1448003000000,,,-1265710590996694319,0.0,7.863489884262553,,,22,19,0.0,81967,470424916620284,41,21.232624053955078,-571.0010147566647,1.2216777991189867,16,-865898.9935657869,3.4028234663852886E38,1.56109798E9,,,,1,,5,50.411476135253906,1.56109798E9,201.0,NaN,NaN
Raw,200977261903459,1448003000000,,,-1265710590996694319,0.0,7.863489884262553,,,22,20,0.0,81967,470424925359252,10,37.94599151611328,-84.64363508779206,0.004131068009883165,25,-229936.84430528767,0.0020655340049415827,1.56109798E9,,,,0,,5,50.411476135253906,1.56109798E9,201.0,NaN,NaN
Raw,200977261903459,1448003000000,,,-1265710590996694319,0.0,7.863489884262553,,,22,23,0.0,81967,470424923972264,12,36.60307693481445,309.3834638565313,0.004546024836599827,25,365908.4991603011,0.0022730124182999134,1.56109798E9,,,,0,,5,50.411476135253906,1.56109798E9,201.0,NaN,NaN
Raw,200977261903459,1448003000000,,,-1265710590996694319,0.0,7.863489884262553,,,22,25,0.0,4,910891394,1000000000,12.0,596.3556698955704,2.99792458E8,16,847866.4101108655,3.4028234663852886E38,1.56109798E9,,,,1,,5,50.411476135253906,1.56109798E9,201.0,NaN,NaN
Raw,200977261903459,1448003000000,,,-1265710590996694319,0.0,7.863489884262553,,,22,32,0.0,81967,470424921174592,8,40.97181701660156,503.3806209345348,0.002915889024734497,25,647377.1445383005,0.0014579445123672485,1.56109798E9,,,,0,,5,50.411476135253906,1.56109798E9,201.0,NaN,NaN
Raw,200977261903459,1448003000000,,,-1265710590996694319,0.0,7.863489884262553,,,22,34,0.0,16384,470424910876693,1000000000,12.956056594848633,-228.19758802038996,2.99792458E8,16,-417128.95493953634,3.4028234663852886E38,1.56109798E9,,,,1,,5,50.411476135253906,1.56109798E9,201.0,NaN,NaN
Raw,200977261903459,1448003000000,,,-1265710590996694319,0.0,7.863489884262553,,,22,37,0.0,81967,470424925473715,8,40.31121063232422,-284.5059992271126,0.003146309172734618,25,299877.6567129576,0.001573154586367309,1.56109798E9,,,,0,,5,50.411476135253906,1.56109798E9,201.0,NaN,NaN
Raw,200977261903459,1448003000000,,,-1265710590996694319,0.0,7.863489884262553,,,22,1,0.0,85026,470438914076372,17,40.40041732788086,-536.2367482682457,0.003085850505158305,25,-817005.91225563,0.0015429252525791526,1.57542003E9,,,,0,,6,37.993743896484375,1.57542003E9,201.0,NaN,NaN
Raw,200977261903459,1448003000000,,,-1265710590996694319,0.0,7.863489884262553,,,22,4,0.0,21546,470438917389652,13,43.92147445678711,-359.89118121610954,0.002057415433228016,25,-565428.9053258968,0.001028707716614008,1.57542003E9,,,,0,,6,37.993743896484375,1.57542003E9,201.0,NaN,NaN
Raw,200977261903459,1448003000000,,,-1265710590996694319,0.0,7.863489884262553,,,22,19,0.0,85026,470438920913489,26,35.525474548339844,205.05204639490694,0.00509971147403121,25,222482.58212809317,0.002549855737015605,1.57542003E9,,,,0,,6,37.993743896484375,1.57542003E9,201.0,NaN,NaN
Raw,200977261903459,1448003000000,,,-1265710590996694319,0.0,7.863489884262553,,,22,21,0.0,21546,470438920629205,15,42.09743881225586,-62.92395142276655,0.0025381876621395345,25,-183177.15750774147,0.0012690938310697675,1.57542003E9,,,,0,,6,37.993743896484375,1.57542003E9,201.0,NaN,NaN
Raw,200977261903459,1448003000000,,,-1265710590996694319,0.0,7.863489884262553,,,22,27,0.0,85026,470438913433058,18,40.20512390136719,437.0042057792889,0.003156018443405628,25,570219.4570638394,0.001578009221702814,1.57542003E9,,,,0,,6,37.993743896484375,1.57542003E9,201.0,NaN,NaN
Raw,200977261903459,1448003000000,,,-1265710590996694319,0.0,7.863489884262553,,,22,36,0.0,85026,470438906444996,12,44.964195251464844,171.94063511412241,0.001824677106924355,25,149356.6154527367,9.123385534621775E-4,1.57542003E9,,,,0,,6,37.993743896484375,1.57542003E9,201.0,NaN,NaN
Fix,gps,51.524329,-0.134497,91.672621,0.308223,3.000000,1581676821999,200978268229074
Raw,200978289648305,1449003000000,,,-1265710590996694380,0.0,7.472788508223601,,,22,5,0.0,16431,470439922403491,48,27.899944305419922,660.6170510307206,0.9192987108196982,16,899418.1279603963,3.4028234663852886E38,1.57542003E9,,,,0,,1,36.164798736572266,1.57542003E9,201.0,NaN,NaN
Raw,200978289648305,1449003000000,,,-1265710590996694380,0.0,7.472788508223601,,,22,7,0.0,16396,470439914996641,1000000000,16.13982391357422,599.6564194799785,2.99792458E8,16,856875.4518758076,3.4028234663852886E38,1.57542003E9,,,,0,,1,36.164798736572266,1.57542003E9,201.0,NaN,NaN
Raw,200978289648305,1449003000000,,,-1265710590996694380,0.0,7.472788508223601,,,22,8,0.0,16419,470439915551044,82,21.379859924316406,270.21822357438464,1.2148645030447236,16,268607.1422797599,3.4028234663852886E38,1.57542003E9,,,,0,,1,36.164798736572266,1.57542003E9,201.0,NaN,NaN
Raw,200978289648305,1449003000000,,,-1265710590996694380,0.0,7.472788508223601,,,22,13,0.0,16431,470439932499112,13,43.619842529296875,56.000964730650594,0.0021301177330315113,25,-19967.12422384605,0.0010650588665157557,1.57542003E9,,,,0,,1,36.164798736572266,1.57542003E9,201.0,NaN,NaN
Raw,200978289648305,1449003000000,,,-1265710590996694380,0.0,7.472788508223601,,,22,15,0.0,16431,470439930980423,13,43.456809997558594,-291.548705915804,0.002170477295294404,25,-519826.72775991156,0.001085238647647202,1.57542003E9,,,,0,,1,36.164798736572266,1.57542003E9,201.0,NaN,NaN
Raw,200978289648305,1449003000000,,,-1265710590996694380,0.0,7.472788508223601,,,22,17,0.0,16384,470439914335999,1000000000,12.0,-585.918462904764,2.99792458E8,16,-93172.10730165767,3.4028234663852886E38,1.57542003E9,,,,1,,1,36.164798736572266,1.57542003E9,201.0,NaN,NaN
Raw,200978289648305,1449003000000,,,-1265710590996694380,0.0,7.472788508223601,,,22,20,0.0,16431,470439920782638,26,35.37197494506836,-529.8917345330119,0.005190637428313493,25,-847361.3587280083,0.002595318714156747,1.57542003E9,,,,0,,1,36.164798736572266,1.57542003E9,201.0,NaN,NaN
Raw,200978289648305,1449003000000,,,-1265710590996694380,0.0,7.472788508223601,,,22,21,0.0,16396,470439915377831,1000000000,12.359127044677734,261.5837910801241,2.99792458E8,16,293198.82458486024,3.4028234663852886E38,1.57542003E9,,,,1,,1,36.164798736572266,1.57542003E9,201.0,NaN,NaN
Raw,200978289648305,1449003000000,,,-1265710590996694380,0.0,7.472788508223601,,,22,24,0.0,16431,470439920905744,63,24.605234146118164,-669.442089663085,1.0707862434783744,16,-1003457.5134915368,3.4028234663852886E38,1.57542003E9,,,,1,,1,36.164798736572266,1.57542003E9,201.0,NaN,NaN
Raw,200978289648305,1449003000000,,,-1265710590996694380,0.0,7.472788508223601,,,22,28,0.0,16431,470439928635913,20,38.71316146850586,-10.03376575204311,0.003533144248649478,25,-143015.0652437941,0.001766572124324739,1.57542003E9,,,,0,,1,36.164798736572266,1.57542003E9,201.0,NaN,NaN
Raw,200978289648305,1449003000000,,,-1265710590996694380,0.0,7.472788508223601,,,22,30,0.0,16431,470439924616651,21,37.87339782714844,516.4359867427265,0.0038917919155210252,17,693254.912190519,0.09709273235694295,1.57542003E9,,,,0,,1,36.164798736572266,1.57542003E9,201.0,NaN,NaN
Raw,200978289648305,1449003000000,,,-1265710590996694380,0.0,7.472788508223601,,,22,6,0.0,32995,49221935761991,44,37.636112213134766,-116.01141835434828,0.003938746638596058,25,-319941.18797397334,0.001969373319298029,1.59975002E9,,,,0,,3,51.483131408691406,1.59975002E9,201.0,NaN,NaN
Raw,200978289648305,1449003000000,,,-1265710590996694380,0.0,7.472788508223601,,,22,9,0.0,32867,49221920655695,158,21.87326431274414,-803.4281333841659,1.1935947868863614,16,-993786.9020367977,3.4028234663852886E38,1.60087501E9,,,,0,,3,51.483131408691406,1.60087501E9,201.0,NaN,NaN
Raw,200978289648305,1449003000000,,,-1265710590996694380,0.0,7.472788508223601,,,22,16,0.0,32995,49221935247441,35,40.31810760498047,-270.11879515333567,0.0030646205414086576,25,-537123.5763789591,0.001532310270704329,1.60143744E9,,,,0,,3,51.483131408691406,1.60143744E9,201.0,NaN,NaN
Raw,200978289648305,1449003000000,,,-1265710590996694380,0.0,7.472788508223601,,,22,15,0.0,32995,49221931557707,33,48.16026306152344,512.044168462744,0.0013091674773022532,25,628292.0810971425,6.545837386511266E-4,1.602E9,,,,0,,3,51.483131408691406,1.602E9,201.0,NaN,NaN
Raw,200978289648305,1449003000000,,,-1265710590996694380,0.0,7.472788508223601,,,22,5,0.0,32995,49221928652746,38,39.4642333984375,658.817884350894,0.0033788231667131186,25,851979.5676453223,0.0016894115833565593,1.60256256E9,,,,0,,3,51.483131408691406,1.60256256E9,201.0,NaN,NaN
Raw,200978289648305,1449003000000,,,-1265710590996694380,0.0,7.472788508223601,,,22,23,0.0,32995,49221922125004,80,30.25339126586914,96.12950339835515,0.009192348457872868,25,-36684.40678021435,0.004596174228936434,1.60368755E9,,,,0,,3,51.483131408691406,1.60368755E9,201.0,NaN,NaN
Raw,200978289648305,1449003000000,,,-1265710590996694380,0.0,7.472788508223601,,,22,7,0.0,32995,49221926241970,33,48.65353775024414,-725.3441071859561,0.001234723487868905,25,-1096420.3817654473,6.173617439344525E-4,1.60481254E9,,,,0,,3,51.483131408691406,1.60481254E9,201.0,NaN,NaN
Raw,200978289648305,1449003000000,,,-1265710590996694380,0.0,7.472788508223601,,,22,5,0.0,16384,470425863663737,1000000000,12.0,-21.73191793695888,2.99792458E8,16,-34509.347043785674,3.4028234663852886E38,1.56109798E9,,,,0,,5,52.436973571777344,1.56109798E9,201.0,NaN,NaN
Raw,200978289648305,1449003000000,,,-1265710590996694380,0.0,7.472788508223601,,,22,7,0.0,16384,470425862581317,1000000000,12.0,200.09689231821324,2.99792458E8,16,270392.79544067534,3.4028234663852886E38,1.56109798E9,,,,0,,5,52.436973571777344,1.56109798E9,201.0,NaN,NaN
Raw,200978289648305,1449003000000,,,-1265710590996694380,0.0,7.472788508223601,,,22,10,0.0,81967,470425868178981,13,35.004600524902344,128.19538510439452,0.005464564543217421,17,162167.66567492508,0.09875202542674695,1.56109798E9,,,,0,,5,52.436973571777344,1.56109798E9,201.0,NaN,NaN
Raw,200978289648305,1449003000000,,,-1265710590996694380,0.0,7.472788508223601,,,22,12,0.0,16384,470425911607071,1000000000,12.0,-19.85836482898287,2.99792458E8,16,-139065.59048596572,3.4028234663852886E38,1.56109798E9,,,,0,,5,52.436973571777344,1.56109798E9,201.0,NaN,NaN
Raw,200978289648305,1449003000000,,,-1265710590996694380,0.0,7.472788508223601,,,22,19,0.0,81967,470425916622208,39,22.095375061035156,-570.9615131895548,1.1828811796937693,16,-866470.1594614346,3.4028234663852886E38,1.56109798E9,,,,1,,5,52.436973571777344,1.56109798E9,201.0,NaN,NaN
Raw,200978289648305,1449003000000,,,-1265710590996694380,0.0,7.472788508223601,,,22,20,0.0,81967,470425925359521,7,41.94038009643555,-84.48815961065702,0.0026082124095410104,25,-230021.33246489833,0.0013041062047705054,1.56109798E9,,,,0,,5,52.436973571777344,1.56109798E9,201.0,NaN,NaN
Raw,200978289648305,1449003000000,,,-1265710590996694380,0.0,7.472788508223601,,,22,23,0.0,81967,470425923971220,15,33.90382766723633,309.1771298115657,0.6495928493467593,16,366217.9451764149,3.4028234663852886E38,1.56109798E9,,,,1,,5,52.436973571777344,1.56109798E9,201.0,NaN,NaN
Raw,200978289648305,1449003000000,,,-1265710590996694380,0.0,7.472788508223601,,,22,25,0.0,16396,470425910889363,1000000000,14.014930725097656,595.6116498696774,2.99792458E8,16,848462.5268043773,3.4028234663852886E38,1.56109798E9,,,,1,,5,52.436973571777344,1.56109798E9,201.0,NaN,NaN
Raw,200978289648305,1449003000000,,,-1265710590996694380,0.0,7.472788508223601,,,22,32,0.0,81967,470425921172876,9,39.02448272705078,503.5691963849822,0.003648696932941675,25,647880.7137346854,0.0018243484664708376,1.56109798E9,,,,0,,5,52.436973571777344,1.56109798E9,201.0,NaN,NaN
Raw,200978289648305,1449003000000,,,-1265710590996694380,0.0,7.472788508223601,,,22,34,0.0,16384,470425910877455,1000000000,12.0,-228.19758802038996,2.99792458E8,16,-417357.15252888005,3.4028234663852886E38,1.56109798E9,,,,0,,5,52.436973571777344,1.56109798E9,201.0,NaN,NaN
Raw,200978289648305,1449003000000,,,-1265710590996694380,0.0,7.472788508223601,,,22,37,0.0,81967,470425925474642,7,42.765830993652344,-284.39210257848026,0.002371757524088025,25,299593.2646103791,0.0011858787620440125,1.56109798E9,,,,0,,5,52.436973571777344,1.56109798E9,201.0,NaN,NaN
Raw,200978289648305,1449003000000,,,-1265710590996694380,0.0,7.472788508223601,,,22,1,0.0,85026,470439914078173,16,41.07804489135742,-536.1458079006989,0.0028542594518512487,25,-817542.0580635307,0.0014271297259256244,1.57542003E9,,,,0,,6,36.164798736572266,1.57542003E9,201.0,NaN,NaN
Raw,200978289648305,1449003000000,,,-1265710590996694380,0.0,7.472788508223601,,,22,4,0.0,21546,470439917390876,15,42.128387451171875,-359.76143616298214,0.0025291605852544308,25,-565788.6667620598,0.0012645802926272154,1.57542003E9,,,,0,,6,36.164798736572266,1.57542003E9,201.0,NaN,NaN
Raw,200978289648305,1449003000000,,,-1265710590996694380,0.0,7.472788508223601,,,22,19,0.0,85026,470439920912789,25,35.79487228393555,205.14027364269714,0.004943969659507275,25,222687.72240173587,0.0024719848297536373,1.57542003E9,,,,0,,6,36.164798736572266,1.57542003E9,201.0,NaN,NaN
Raw,200978289648305,1449003000000,,,-1265710590996694380,0.0,7.472788508223601,,,22,21,0.0,21546,470439920629426,15,42.39917755126953,-62.82416556405951,0.002451527863740921,25,-183239.98167330553,0.0012257639318704605,1.57542003E9,,,,0,,6,36.164798736572266,1.57542003E9,201.0,NaN,NaN
Raw,200978289648305,1449003000000,,,-1265710590996694380,0.0,7.472788508223601,,,22,27,0.0,85026,470439913431627,14,43.13525390625,437.0238055359805,0.002252334961667657,25,570656.4808693754,0.0011261674808338284,1.57542003E9,,,,0,,6,36.164798736572266,1.57542003E9,201.0,NaN,NaN
Raw,200978289648305,1449003000000,,,-1265710590996694380,0.0,7.472788508223601,,,22,36,0.0,85026,470439906444426,12,44.33502960205078,172.02286518772598,0.001961752772331238,25,149528.63831792443,9.80876386165619E-4,1.57542003E9,,,,0,,6,36.164798736572266,1.57542003E9,201.0,NaN,NaN
Fix,gps,51.524328,-0.134492,91.712147,0.212449,3.000000,1581676822999,200979275789266
Raw,200979286927881,1450003000000,,,-1265710590996694442,0.0,7.20854759149766,,,22,5,0.0,16430,470440922401302,1000000000,26.794265747070312,660.9796883681233,2.99792458E8,16,900079.6481838811,3.4028234663852886E38,1.57542003E9,,,,0,,1,35.384315490722656,1.57542003E9,201.0,NaN,NaN
Raw,200979286927881,1450003000000,,,-1265710590996694442,0.0,7.20854759149766,,,22,7,0.0,16396,470440914994644,1000000000,15.377220153808594,599.4708064217552,2.99792458E8,16,857474.8883251604,3.4028234663852886E38,1.57542003E9,,,,0,,1,35.384315490722656,1.57542003E9,201.0,NaN,NaN
Raw,200979286927881,1450003000000,,,-1265710590996694442,0.0,7.20854759149766,,,22,8,0.0,16419,470440915550213,61,25.07607650756836,270.19871136802533,1.0486494882649153,16,268877.1980401054,3.4028234663852886E38,1.57542003E9,,,,0,,1,35.384315490722656,1.57542003E9,201.0,NaN,NaN
Raw,200979286927881,1450003000000,,,-1265710590996694442,0.0,7.20854759149766,,,22,13,0.0,16431,470440932498954,17,40.76558303833008,56.09578589398734,0.002958806464448571,25,-19911.028437952064,0.0014794032322242856,1.57542003E9,,,,0,,1,35.384315490722656,1.57542003E9,201.0,NaN,NaN
Raw,200979286927881,1450003000000,,,-1265710590996694442,0.0,7.20854759149766,,,22,15,0.0,16431,470440930981399,12,44.62788009643555,-291.4760244838544,0.0018967133946716785,25,-520118.2037843954,9.483566973358393E-4,1.57542003E9,,,,0,,1,35.384315490722656,1.57542003E9,201.0,NaN,NaN
Raw,200979286927881,1450003000000,,,-1265710590996694442,0.0,7.20854759149766,,,22,17,0.0,16384,470440914337954,1000000000,12.0,-585.918462904764,2.99792458E8,16,-93758.69496904615,3.4028234663852886E38,1.57542003E9,,,,1,,1,35.384315490722656,1.57542003E9,201.0,NaN,NaN
Raw,200979286927881,1450003000000,,,-1265710590996694442,0.0,7.20854759149766,,,22,20,0.0,16431,470440920784412,25,35.90068817138672,-529.8559528500773,0.004884104244410991,25,-847891.2146808584,0.002442052122205496,1.57542003E9,,,,0,,1,35.384315490722656,1.57542003E9,201.0,NaN,NaN
Raw,200979286927881,1450003000000,,,-1265710590996694442,0.0,7.20854759149766,,,22,21,0.0,16396,470440915376774,1000000000,12.297800064086914,261.76943822080386,2.99792458E8,16,293461.252949842,3.4028234663852886E38,1.57542003E9,,,,1,,1,35.384315490722656,1.57542003E9,201.0,NaN,NaN
Raw,200979286927881,1450003000000,,,-1265710590996694442,0.0,7.20854759149766,,,22,24,0.0,16431,470440920907980,73,22.882938385009766,-669.1718839477721,1.1482362295037367,16,-1004126.5938069868,3.4028234663852886E38,1.57542003E9,,,,1,,1,35.384315490722656,1.57542003E9,201.0,NaN,NaN
Raw,200979286927881,1450003000000,,,-1265710590996694442,0.0,7.20854759149766,,,22,28,0.0,16431,470440928635985,20,38.611427307128906,-9.859266770887187,0.003791616763919592,25,-143024.92451056498,0.001895808381959796,1.57542003E9,,,,0,,1,35.384315490722656,1.57542003E9,201.0,NaN,NaN
Raw,200979286927881,1450003000000,,,-1265710590996694442,0.0,7.20854759149766,,,22,30,0.0,16431,470440924614942,17,40.9282341003418,516.4726860433584,0.002903915476053953,17,693771.3848765624,0.09659879413720941,1.57542003E9,,,,0,,1,35.384315490722656,1.57542003E9,201.0,NaN,NaN
Raw,200979286927881,1450003000000,,,-1265710590996694442,0.0,7.20854759149766,,,22,6,0.0,32995,49222935762348,39,39.29814910888672,-115.88578167441301,0.003450106829404831,25,-320057.07375564775,0.0017250534147024155,1.59975002E9,,,,0,,3,52.436973571777344,1.59975002E9,201.0,NaN,NaN
Raw,200979286927881,1450003000000,,,-1265710590996694442,0.0,7.20854759149766,,,22,9,0.0,32867,49222920658357,117,25.632781982421875,-803.2663780455086,1.0245340201214943,16,-994590.688969568,3.4028234663852886E38,1.60087501E9,,,,0,,3,52.436973571777344,1.60087501E9,201.0,NaN,NaN
Raw,200979286927881,1450003000000,,,-1265710590996694442,0.0,7.20854759149766,,,22,16,0.0,32995,49222935248285,33,42.29497528076172,-270.002028422663,0.0024408064782619476,25,-537393.5784073818,0.0012204032391309738,1.60143744E9,,,,0,,3,52.436973571777344,1.60143744E9,201.0,NaN,NaN
Raw,200979286927881,1450003000000,,,-1265710590996694442,0.0,7.20854759149766,,,22,15,0.0,32995,49222931556008,33,45.955047607421875,512.1070461708587,0.0016875473083928227,25,628804.1881433134,8.437736541964114E-4,1.602E9,,,,0,,3,52.436973571777344,1.602E9,201.0,NaN,NaN
Raw,200979286927881,1450003000000,,,-1265710590996694442,0.0,7.20854759149766,,,22,5,0.0,32995,49222928650405,37,39.643104553222656,658.9329013556708,0.0033099534921348095,25,852638.500546678,0.0016549767460674047,1.60256256E9,,,,0,,3,52.436973571777344,1.60256256E9,201.0,NaN,NaN
Raw,200979286927881,1450003000000,,,-1265710590996694442,0.0,7.20854759149766,,,22,23,0.0,32995,49222922124715,71,31.710447311401367,96.35342395260523,0.007772731129080057,25,-36588.05335626174,0.0038863655645400286,1.60368755E9,,,,0,,3,52.436973571777344,1.60368755E9,201.0,NaN,NaN
Raw,200979286927881,1450003000000,,,-1265710590996694442,0.0,7.20854759149766,,,22,7,0.0,32995,49222926244391,33,46.4702033996582,-725.3246755755972,0.001587582752108574,25,-1097145.706441023,7.93791376054287E-4,1.60481254E9,,,,0,,3,52.436973571777344,1.60481254E9,201.0,NaN,NaN
Raw,200979286927881,1450003000000,,,-1265710590996694442,0.0,7.20854759149766,,,22,5,0.0,16384,470426863663811,1000000000,12.0,-22.106628984584788,2.99792458E8,16,-34531.45403318431,3.4028234663852886E38,1.56109798E9,,,,0,,5,53.040870666503906,1.56109798E9,201.0,NaN,NaN
Raw,200979286927881,1450003000000,,,-1265710590996694442,0.0,7.20854759149766,,,22,7,0.0,16384,470426862580651,1000000000,12.0,200.09689231821324,2.99792458E8,16,270592.8923362496,3.4028234663852886E38,1.56109798E9,,,,0,,5,53.040870666503906,1.56109798E9,201.0,NaN,NaN
Raw,200979286927881,1450003000000,,,-1265710590996694442,0.0,7.20854759149766,,,22,10,0.0,81967,470426868178586,15,33.7449836730957,128.19035753098433,0.006317371968179942,17,162295.85603245607,0.09917842913922821,1.56109798E9,,,,0,,5,53.040870666503906,1.56109798E9,201.0,NaN,NaN
Raw,200979286927881,1450003000000,,,-1265710590996694442,0.0,7.20854759149766,,,22,12,0.0,16384,470426911607140,1000000000,12.0,-19.85836482898287,2.99792458E8,16,-139085.44885079973,3.4028234663852886E38,1.56109798E9,,,,0,,5,53.040870666503906,1.56109798E9,201.0,NaN,NaN
Raw,200979286927881,1450003000000,,,-1265710590996694442,0.0,7.20854759149766,,,22,19,0.0,81967,470426916624121,42,21.105623245239258,-571.0425953536226,1.2273895395476648,16,-867041.196243073,3.4028234663852886E38,1.56109798E9,,,,1,,5,53.040870666503906,1.56109798E9,201.0,NaN,NaN
Raw,200979286927881,1450003000000,,,-1265710590996694442,0.0,7.20854759149766,,,22,20,0.0,81967,470426925359798,6,46.92594528198242,-84.42950867061154,0.0015486145857721565,25,-230105.76197356894,7.743072928860784E-4,1.56109798E9,,,,0,,5,53.040870666503906,1.56109798E9,201.0,NaN,NaN
Raw,200979286927881,1450003000000,,,-1265710590996694442,0.0,7.20854759149766,,,22,23,0.0,81967,470426923970231,15,33.88893127441406,309.5334618945117,0.6684294641997206,16,366527.50172730215,3.4028234663852886E38,1.56109798E9,,,,0,,5,53.040870666503906,1.56109798E9,201.0,NaN,NaN
Raw,200979286927881,1450003000000,,,-1265710590996694442,0.0,7.20854759149766,,,22,25,0.0,81967,470426910887263,54,17.975515365600586,596.2110921150006,1.367115096639183,16,849057.6207069258,3.4028234663852886E38,1.56109798E9,,,,1,,5,53.040870666503906,1.56109798E9,201.0,NaN,NaN
Raw,200979286927881,1450003000000,,,-1265710590996694442,0.0,7.20854759149766,,,22,32,0.0,81967,470426921171214,7,42.76109313964844,503.6179454163648,0.0023730520624667406,25,648384.3316801018,0.0011865260312333703,1.56109798E9,,,,0,,5,53.040870666503906,1.56109798E9,201.0,NaN,NaN
Raw,200979286927881,1450003000000,,,-1265710590996694442,0.0,7.20854759149766,,,22,34,0.0,16384,470426910878215,1000000000,12.421424865722656,-228.19758802038996,2.99792458E8,16,-417584.97915229877,3.4028234663852886E38,1.56109798E9,,,,0,,5,53.040870666503906,1.56109798E9,201.0,NaN,NaN
Raw,200979286927881,1450003000000,,,-1265710590996694442,0.0,7.20854759149766,,,22,37,0.0,81967,470426925475579,6,45.263397216796875,-284.35962544579525,0.001779066282324493,25,299308.9049849333,8.895331411622465E-4,1.56109798E9,,,,0,,5,53.040870666503906,1.56109798E9,201.0,NaN,NaN
Raw,200979286927881,1450003000000,,,-1265710590996694442,0.0,7.20854759149766,,,22,1,0.0,85026,470440914079990,22,37.57277297973633,-536.0876144780777,0.004273238126188517,25,-818078.1456780088,0.0021366190630942583,1.57542003E9,,,,0,,6,35.384315490722656,1.57542003E9,201.0,NaN,NaN
Raw,200979286927881,1450003000000,,,-1265710590996694442,0.0,7.20854759149766,,,22,4,0.0,21546,470440917392072,18,39.722557067871094,-359.79676074848976,0.0033363213296979666,25,-566148.4635228083,0.0016681606648489833,1.57542003E9,,,,0,,6,35.384315490722656,1.57542003E9,201.0,NaN,NaN
Raw,200979286927881,1450003000000,,,-1265710590996694442,0.0,7.20854759149766,,,22,19,0.0,85026,470440920912113,30,33.67903518676758,205.20034545575618,0.006307652220129967,25,222892.92274719162,0.0031538261100649834,1.57542003E9,,,,0,,6,35.384315490722656,1.57542003E9,201.0,NaN,NaN
Raw,200979286927881,1450003000000,,,-1265710590996694442,0.0,7.20854759149766,,,22,21,0.0,21546,470440920629652,16,41.20241165161133,-62.74568507852382,0.0028136828914284706,25,-183302.72735838406,0.0014068414457142353,1.57542003E9,,,,0,,6,35.384315490722656,1.57542003E9,201.0,NaN,NaN
Raw,200979286927881,1450003000000,,,-1265710590996694442,0.0,7.20854759149766,,,22,27,0.0,85026,470440913430142,13,44.19797897338867,437.0618984407047,0.001992951612919569,25,571093.5427678161,9.964758064597845E-4,1.57542003E9,,,,0,,6,35.384315490722656,1.57542003E9,201.0,NaN,NaN
Raw,200979286927881,1450003000000,,,-1265710590996694442,0.0,7.20854759149766,,,22,36,0.0,85026,470440906443845,13,43.68706512451172,172.073307757586,0.0021136959549039602,25,149700.71162568202,0.0010568479774519801,1.57542003E9,,,,0,,6,35.384315490722656,1.57542003E9,201.0,NaN,NaN
Fix,gps,51.524330,-0.134490,91.781796,0.016682,3.000000,1581676823999,200980252691265
Raw,200980274948265,1451003000000,,,-1265710590996694503,0.0,7.205484972930651,,,22,5,0.0,16431,470441922398998,56,26.517906188964844,662.5335757259113,299.7929003150316,16,900741.1718863819,3.4028234663852886E38,1.57542003E9,,,,1,,1,35.95880126953125,1.57542003E9,201.0,NaN,NaN
Raw,200980274948265,1451003000000,,,-1265710590996694503,0.0,7.205484972930651,,,22,7,0.0,16396,470441914992647,1000000000,14.51699447631836,599.6564194799785,2.99792458E8,16,858074.7329551822,3.4028234663852886E38,1.57542003E9,,,,0,,1,35.95880126953125,1.57542003E9,201.0,NaN,NaN
Raw,200980274948265,1451003000000,,,-1265710590996694503,0.0,7.205484972930651,,,22,8,0.0,16419,470441915549186,55,26.228670120239258,270.1919289591773,0.9968185925078514,16,269146.9175262209,3.4028234663852886E38,1.57542003E9,,,,0,,1,35.95880126953125,1.57542003E9,201.0,NaN,NaN
Raw,200980274948265,1451003000000,,,-1265710590996694503,0.0,7.205484972930651,,,22,13,0.0,16431,470441932498759,16,41.100730895996094,56.18906019458518,0.0028468144591897726,25,-19854.83937775748,0.0014234072295948863,1.57542003E9,,,,0,,1,35.95880126953125,1.57542003E9,201.0,NaN,NaN
Raw,200980274948265,1451003000000,,,-1265710590996694503,0.0,7.205484972930651,,,22,15,0.0,16431,470441930982370,12,45.0753059387207,-291.37546895531705,0.0018014837987720966,25,-520409.57925335073,9.007418993860483E-4,1.57542003E9,,,,0,,1,35.95880126953125,1.57542003E9,201.0,NaN,NaN
Raw,200980274948265,1451003000000,,,-1265710590996694503,0.0,7.205484972930651,,,22,17,0.0,16384,470441914339913,1000000000,12.0,-585.918462904764,2.99792458E8,16,-94343.80444431525,3.4028234663852886E38,1.57542003E9,,,,1,,1,35.95880126953125,1.57542003E9,201.0,NaN,NaN
Raw,200980274948265,1451003000000,,,-1265710590996694503,0.0,7.205484972930651,,,22,20,0.0,16431,470441920786188,28,34.774871826171875,-529.7506957190344,0.005560012999922037,25,-848420.9653765775,0.0027800064999610186,1.57542003E9,,,,0,,1,35.95880126953125,1.57542003E9,201.0,NaN,NaN
Raw,200980274948265,1451003000000,,,-1265710590996694503,0.0,7.205484972930651,,,22,21,0.0,16396,470441915375860,1000000000,12.0,261.76943822080386,2.99792458E8,16,293722.51060592395,3.4028234663852886E38,1.57542003E9,,,,1,,1,35.95880126953125,1.57542003E9,201.0,NaN,NaN
Raw,200980274948265,1451003000000,,,-1265710590996694503,0.0,7.205484972930651,,,22,24,0.0,16431,470441920910224,84,21.04278564453125,-669.0966298837698,1.2309863037875877,16,-1004795.2107420599,3.4028234663852886E38,1.57542003E9,,,,1,,1,35.95880126953125,1.57542003E9,201.0,NaN,NaN
Raw,200980274948265,1451003000000,,,-1265710590996694503,0.0,7.205484972930651,,,22,28,0.0,16431,470441928636034,16,41.26994705200195,-9.696709158743033,0.002791890874505043,25,-143034.62121972372,0.0013959454372525215,1.57542003E9,,,,0,,1,35.95880126953125,1.57542003E9,201.0,NaN,NaN
Raw,200980274948265,1451003000000,,,-1265710590996694503,0.0,7.205484972930651,,,22,30,0.0,16431,470441924613191,19,39.031585693359375,516.5800122892251,0.0036125711631029844,17,694287.9648888516,0.09695312198073393,1.57542003E9,,,,1,,1,35.95880126953125,1.57542003E9,201.0,NaN,NaN
Raw,200980274948265,1451003000000,,,-1265710590996694503,0.0,7.205484972930651,,,22,6,0.0,32995,49223935762751,35,40.61684036254883,-115.76185663655633,0.0029641345608979464,25,-320172.8356122843,0.0014820672804489732,1.59975002E9,,,,0,,3,51.1672477722168,1.59975002E9,201.0,NaN,NaN
Raw,200980274948265,1451003000000,,,-1265710590996694503,0.0,7.205484972930651,,,22,9,0.0,32867,49223920660969,89,29.015092849731445,-802.826100872147,0.8724357990719191,16,-995393.2683841563,3.4028234663852886E38,1.60087501E9,,,,0,,3,51.1672477722168,1.60087501E9,201.0,NaN,NaN
Raw,200980274948265,1451003000000,,,-1265710590996694503,0.0,7.205484972930651,,,22,16,0.0,32995,49223935249187,33,42.228370666503906,-269.8835570650408,0.0024595949798822403,25,-537663.4619644468,0.0012297974899411201,1.60143744E9,,,,0,,3,51.1672477722168,1.60143744E9,201.0,NaN,NaN
Raw,200980274948265,1451003000000,,,-1265710590996694503,0.0,7.205484972930651,,,22,15,0.0,32995,49223931554275,33,45.86181640625,512.2822123963851,0.001705758273601532,25,629316.4703557098,8.52879136800766E-4,1.602E9,,,,0,,3,51.1672477722168,1.602E9,201.0,NaN,NaN
Raw,200980274948265,1451003000000,,,-1265710590996694503,0.0,7.205484972930651,,,22,5,0.0,32995,49223928648216,33,41.371055603027344,658.9903606859734,0.002712840912863612,25,853297.490907364,0.001356420456431806,1.60256256E9,,,,0,,3,51.1672477722168,1.60256256E9,201.0,NaN,NaN
Raw,200980274948265,1451003000000,,,-1265710590996694503,0.0,7.205484972930651,,,22,23,0.0,32995,49223922124461,55,34.81505584716797,96.4488875425086,0.005436799954622984,25,-36491.60446871923,0.002718399977311492,1.60368755E9,,,,0,,3,51.1672477722168,1.60368755E9,201.0,NaN,NaN
Raw,200980274948265,1451003000000,,,-1265710590996694503,0.0,7.205484972930651,,,22,7,0.0,32995,49223926246819,33,47.73515701293945,-725.2718825128396,0.0013724251184612513,25,-1097870.9783235358,6.862125592306256E-4,1.60481254E9,,,,0,,3,51.1672477722168,1.60481254E9,201.0,NaN,NaN
Raw,200980274948265,1451003000000,,,-1265710590996694503,0.0,7.205484972930651,,,22,5,0.0,16384,470427863663889,1000000000,12.0,-22.106628984584788,2.99792458E8,16,-34553.56066311302,3.4028234663852886E38,1.56109798E9,,,,0,,5,52.296875,1.56109798E9,201.0,NaN,NaN
Raw,200980274948265,1451003000000,,,-1265710590996694503,0.0,7.205484972930651,,,22,7,0.0,16384,470427862579986,1000000000,12.0,200.09689231821324,2.99792458E8,16,270792.9892317428,3.4028234663852886E38,1.56109798E9,,,,0,,5,52.296875,1.56109798E9,201.0,NaN,NaN
Raw,200980274948265,1451003000000,,,-1265710590996694503,0.0,7.205484972930651,,,22,10,0.0,81967,470427868178154,17,32.03310012817383,128.26763302160543,0.007693618070334195,17,162424.12366547767,0.09986655219030534,1.56109798E9,,,,0,,5,52.296875,1.56109798E9,201.0,NaN,NaN
Raw,200980274948265,1451003000000,,,-1265710590996694503,0.0,7.205484972930651,,,22,12,0.0,16384,470427911607206,1000000000,13.452463150024414,-19.85836482898287,2.99792458E8,16,-139105.0115318717,3.4028234663852886E38,1.56109798E9,,,,0,,5,52.296875,1.56109798E9,201.0,NaN,NaN
Raw,200980274948265,1451003000000,,,-1265710590996694503,0.0,7.205484972930651,,,22,19,0.0,81967,470427916626084,36,22.90723419189453,-571.0344155640571,1.1463735433740077,16,-867612.2827006445,3.4028234663852886E38,1.56109798E9,,,,1,,5,52.296875,1.56109798E9,201.0,NaN,NaN
Raw,200980274948265,1451003000000,,,-1265710590996694503,0.0,7.205484972930651,,,22,20,0.0,81967,470427925360077,6,47.491722106933594,-84.34930740026175,0.0014509570319205523,25,-230190.1112809692,7.254785159602761E-4,1.56109798E9,,,,0,,5,52.296875,1.56109798E9,201.0,NaN,NaN
Raw,200980274948265,1451003000000,,,-1265710590996694503,0.0,7.205484972930651,,,22,23,0.0,81967,470427923969205,13,35.17725372314453,309.59966870065546,0.005357017274945974,17,366837.1013960028,0.09869825179261123,1.56109798E9,,,,0,,5,52.296875,1.56109798E9,201.0,NaN,NaN
Raw,200980274948265,1451003000000,,,-1265710590996694503,0.0,7.205484972930651,,,22,25,0.0,81967,470427910885286,57,17.29437255859375,595.8671319637724,1.3977449736893135,16,849653.5278523684,3.4028234663852886E38,1.56109798E9,,,,1,,5,52.296875,1.56109798E9,201.0,NaN,NaN
Raw,200980274948265,1451003000000,,,-1265710590996694503,0.0,7.205484972930651,,,22,32,0.0,81967,470427921169545,7,43.07996368408203,503.64175598637667,0.0022875138092786074,25,648887.9734360882,0.0011437569046393037,1.56109798E9,,,,0,,5,52.296875,1.56109798E9,201.0,NaN,NaN
Raw,200980274948265,1451003000000,,,-1265710590996694503,0.0,7.205484972930651,,,22,34,0.0,16384,470427910878979,1000000000,12.0,-227.82288549337818,2.99792458E8,16,-417812.7982868609,3.4028234663852886E38,1.56109798E9,,,,0,,5,52.296875,1.56109798E9,201.0,NaN,NaN
Raw,200980274948265,1451003000000,,,-1265710590996694503,0.0,7.205484972930651,,,22,37,0.0,81967,470427925476530,6,45.56223678588867,-284.2992930843611,0.001718897488899529,25,299024.60569184896,8.594487444497645E-4,1.56109798E9,,,,0,,5,52.296875,1.56109798E9,201.0,NaN,NaN
Raw,200980274948265,1451003000000,,,-1265710590996694503,0.0,7.205484972930651,,,22,1,0.0,85026,470441914081751,20,38.69649124145508,-536.1222107385984,0.0037546646781265736,25,-818614.2678887474,0.0018773323390632868,1.57542003E9,,,,0,,6,35.95880126953125,1.57542003E9,201.0,NaN,NaN
Raw,200980274948265,1451003000000,,,-1265710590996694503,0.0,7.205484972930651,,,22,4,0.0,21546,470441917393268,18,40.074806213378906,-359.7616229233099,0.0032037263736128807,25,-566508.2251457316,0.0016018631868064404,1.57542003E9,,,,0,,6,35.95880126953125,1.57542003E9,201.0,NaN,NaN
Raw,200980274948265,1451003000000,,,-1265710590996694503,0.0,7.205484972930651,,,22,19,0.0,85026,470441920911426,28,34.63932800292969,205.2334900914575,0.005647460464388132,25,223098.15623728308,0.002823730232194066,1.57542003E9,,,,0,,6,35.95880126953125,1.57542003E9,201.0,NaN,NaN
Raw,200980274948265,1451003000000,,,-1265710590996694503,0.0,7.205484972930651,,,22,21,0.0,21546,470441920629862,15,41.93320083618164,-62.66419797827257,0.0025866383221000433,25,-183365.39155636233,0.0012933191610500216,1.57542003E9,,,,0,,6,35.95880126953125,1.57542003E9,201.0,NaN,NaN
