# 
# Header Description:
# 
# Version: v2.0.0.1 Platform: 10 Manufacturer: Google Model: Pixel 4
# 
# Raw,ElapsedRealtimeNanos,TimeNanos,LeapSecond,TimeUncertaintyNanos,FullBiasNanos,BiasNanos,BiasUncertaintyNanos,DriftNanosPerSecond,DriftUncertaintyNanosPerSecond,HardwareClockDiscontinuityCount,Svid,TimeOffsetNanos,State,ReceivedSvTimeNanos,ReceivedSvTimeUncertaintyNanos,Cn0DbHz,PseudorangeRateMetersPerSecond,PseudorangeRateUncertaintyMetersPerSecond,AccumulatedDeltaRangeState,AccumulatedDeltaRangeMeters,AccumulatedDeltaRangeUncertaintyMeters,CarrierFrequencyHz,CarrierCycles,CarrierPhase,CarrierPhaseUncertainty,MultipathIndicator,SnrInDb,ConstellationType,AgcDb,CarrierFrequencyHz,UserLatitude,UserLongitude,UserAltitude
# 
# Fix,Provider,Latitude,Longitude,Altitude,Speed,Accuracy,(UTC)TimeInMs,ElapsedRealtimeNanos
# 
# Nav,Svid,Type,Status,MessageId,Sub-messageId,Data(Bytes)
# 
Fix,gps,51.524706,-0.133713,122.389099,1.110000,5.349457,1582204217000,241474918318087
Raw,241474945914444,658279219000000,,,-1265581155228060257,-0.91168212890625,59.92045043967664,-93.17617839707648,16.755855779612297,209,10,0.0,16399,393034368786879,46,20.7,262.7384948730469,0.9284999966621399,16,0.0,0.0,1.57542003E9,,,,0,,1,0.33,1.57542003E9,413.0,NaN,NaN
Raw,241474945914444,658279219000000,,,-1265581155228060257,-0.91168212890625,59.92045043967664,-93.17617839707648,16.755855779612297,209,12,0.0,16399,393034378211259,16,29.9,-413.5111083984375,0.05090000107884407,21,-2000.5916483037647,0.00281634630106073,1.57542003E9,,,,0,,1,0.33,1.57542003E9,413.0,NaN,NaN
Raw,241474945914444,658279219000000,,,-1265581155228060257,-0.91168212890625,59.92045043967664,-93.17617839707648,16.755855779612297,209,15,0.0,16399,393034369019806,16,29.2,667.3682861328125,0.03739999979734421,21,1914.9631121568927,0.00281634630106073,1.57542003E9,,,,0,,1,0.33,1.57542003E9,413.0,NaN,NaN
Raw,241474945914444,658279219000000,,,-1265581155228060257,-0.91168212890625,59.92045043967664,-93.17617839707648,16.755855779612297,209,17,0.0,16399,393034369618774,5,41.1,287.1878356933594,0.03180000185966492,21,3002.4343504219323,6.850571963914755E-4,1.57542003E9,,,,0,,1,0.33,1.57542003E9,413.0,NaN,NaN
Raw,241474945914444,658279219000000,,,-1265581155228060257,-0.91168212890625,59.92045043967664,-93.17617839707648,16.755855779612297,209,19,0.0,16399,393034373854720,8,36.8,-24.846067428588867,0.039100002497434616,17,-262.7954923189051,0.001160791358090767,1.57542003E9,,,,0,,1,0.33,1.57542003E9,413.0,NaN,NaN
Raw,241474945914444,658279219000000,,,-1265581155228060257,-0.91168212890625,59.92045043967664,-93.17617839707648,16.755855779612297,209,20,0.0,16399,393034365656395,31,23.4,532.150390625,0.10370000451803207,21,4857.026735957485,0.19029366893311156,1.57542003E9,,,,0,,1,0.33,1.57542003E9,413.0,NaN,NaN
Raw,241474945914444,658279219000000,,,-1265581155228060257,-0.91168212890625,59.92045043967664,-93.17617839707648,16.755855779612297,209,24,0.0,16399,393034379958401,6,39.4,59.77049255371094,0.002300000051036477,25,437.91189340568775,8.372921387687362E-4,1.57542003E9,,,,0,,1,0.33,1.57542003E9,413.0,NaN,NaN
Raw,241474945914444,658279219000000,,,-1265581155228060257,-0.91168212890625,59.92045043967664,-93.17617839707648,16.755855779612297,209,25,0.0,16399,393034369454341,31,23.8,-705.9934692382812,0.12470000237226486,21,-967.1733264374514,0.19029366893311156,1.57542003E9,,,,0,,1,0.33,1.57542003E9,413.0,NaN,NaN
Raw,241474945914444,658279219000000,,,-1265581155228060257,-0.91168212890625,59.92045043967664,-93.17617839707648,16.755855779612297,209,32,0.0,16399,393034368716641,17,28.0,-623.2686767578125,0.03720000013709068,21,-1787.498765690904,0.0030066398239606148,1.57542003E9,,,,0,,1,0.33,1.57542003E9,413.0,NaN,NaN
Raw,241474945914444,658279219000000,,,-1265581155228060257,-0.91168212890625,59.92045043967664,-93.17617839707648,16.755855779612297,209,14,0.0,49359,58216371246661,14,30.4,617.88134765625,0.2393999993801117,29,5284.222068935673,0.0023637279898678486,1.59806246E9,,,,0,,3,-2.56,1.59806246E9,413.0,NaN,NaN
Raw,241474945914444,658279219000000,,,-1265581155228060257,-0.91168212890625,59.92045043967664,-93.17617839707648,16.755855779612297,209,6,0.0,49359,58216379007241,19,27.0,-89.69702911376953,0.25429999828338623,27,-231.2953951540329,0.003185792787621298,1.59975002E9,,,,0,,3,-2.56,1.59975002E9,413.0,NaN,NaN
Raw,241474945914444,658279219000000,,,-1265581155228060257,-0.91168212890625,59.92045043967664,-93.17617839707648,16.755855779612297,209,16,0.0,49359,58216378219172,40,21.7,-485.499267578125,1.0134999752044678,16,0.0,0.0,1.60143744E9,,,,0,,3,-2.56,1.60143744E9,413.0,NaN,NaN
Raw,241474945914444,658279219000000,,,-1265581155228060257,-0.91168212890625,59.92045043967664,-93.17617839707648,16.755855779612297,209,15,0.0,49359,58216381971876,5,40.7,181.66595458984375,0.20509999990463257,25,1551.3197965723639,7.298318067930613E-4,1.602E9,,,,0,,3,-2.56,1.602E9,413.0,NaN,NaN
Raw,241474945914444,658279219000000,,,-1265581155228060257,-0.91168212890625,59.92045043967664,-93.17617839707648,16.755855779612297,209,5,0.0,49359,58216375387346,24,25.5,692.9424438476562,0.2558000087738037,29,3153.470164160115,0.18707067385874782,1.60256256E9,,,,0,,3,-2.56,1.60256256E9,413.0,NaN,NaN
Raw,241474945914444,658279219000000,,,-1265581155228060257,-0.91168212890625,59.92045043967664,-93.17617839707648,16.755855779612297,209,23,0.0,49359,58216369500282,27,24.2,488.51458740234375,0.254800021648407,29,1245.3743817163645,0.1869394431765222,1.60368755E9,,,,0,,3,-2.56,1.60368755E9,413.0,NaN,NaN
Raw,241474945914444,658279219000000,,,-1265581155228060257,-0.91168212890625,59.92045043967664,-93.17617839707648,16.755855779612297,209,17,0.0,49359,58216373190535,6,39.6,-657.9351196289062,0.23829999566078186,25,-2996.8823774505345,8.222451745104028E-4,1.60424998E9,,,,0,,3,-2.56,1.60424998E9,413.0,NaN,NaN
Raw,241474945914444,658279219000000,,,-1265581155228060257,-0.91168212890625,59.92045043967664,-93.17617839707648,16.755855779612297,209,7,0.0,49359,58216369600630,27,24.4,-712.8201904296875,0.254800021648407,29,-1817.2404797204672,0.1868083964827234,1.60481254E9,,,,0,,3,-2.56,1.60481254E9,413.0,NaN,NaN
Raw,241474945914444,658279219000000,,,-1265581155228060257,-0.91168212890625,59.92045043967664,-93.17617839707648,16.755855779612297,209,36,0.0,16399,393020374278297,9,35.2,-42.49666976928711,0.04110000282526016,17,-192.4038365545045,0.0013442764594430532,1.56109798E9,,,,0,,5,0.44,1.56109798E9,413.0,NaN,NaN
Raw,241474945914444,658279219000000,,,-1265581155228060257,-0.91168212890625,59.92045043967664,-93.17617839707648,16.755855779612297,209,30,0.0,16399,393020365573364,8,36.5,-557.1834716796875,0.012100000865757465,25,-1864.1264666178333,0.0011714408558922843,1.56109798E9,,,,0,,5,0.44,1.56109798E9,413.0,NaN,NaN
Raw,241474945914444,658279219000000,,,-1265581155228060257,-0.91168212890625,59.92045043967664,-93.17617839707648,16.755855779612297,209,27,0.0,16399,393020366578878,7,37.9,-77.89508819580078,0.028400002047419548,17,-702.786887752982,0.0010178092579723537,1.56109798E9,,,,0,,5,0.44,1.56109798E9,413.0,NaN,NaN
Raw,241474945914444,658279219000000,,,-1265581155228060257,-0.91168212890625,59.92045043967664,-93.17617839707648,16.755855779612297,209,22,0.0,16399,393020365963234,31,23.2,446.71124267578125,0.10370000451803207,21,3796.4092243141718,0.1920394882785269,1.56109798E9,,,,0,,5,0.44,1.56109798E9,413.0,NaN,NaN
Raw,241474945914444,658279219000000,,,-1265581155228060257,-0.91168212890625,59.92045043967664,-93.17617839707648,16.755855779612297,209,21,0.0,16399,393020366652225,31,23.5,-90.84568786621094,0.12020000070333481,21,-409.2072496104626,0.1920394882785269,1.56109798E9,,,,0,,5,0.44,1.56109798E9,413.0,NaN,NaN
Raw,241474945914444,658279219000000,,,-1265581155228060257,-0.91168212890625,59.92045043967664,-93.17617839707648,16.755855779612297,209,8,0.0,16399,393020311864331,31,23.4,-348.09552001953125,0.12770000100135803,21,-3139.4536860310595,0.1920394882785269,1.56109798E9,,,,0,,5,0.44,1.56109798E9,413.0,NaN,NaN
Raw,241474945914444,658279219000000,,,-1265581155228060257,-0.91168212890625,59.92045043967664,-93.17617839707648,16.755855779612297,209,3,0.0,23567,393034361239355,11,33.1,-336.736083984375,0.04670000076293945,19,-861.8292864547262,0.003596550258902148,1.57542003E9,,,,0,,6,0.33,1.57542003E9,413.0,NaN,NaN
Raw,241474945914444,658279219000000,,,-1265581155228060257,-0.91168212890625,59.92045043967664,-93.17617839707648,16.755855779612297,209,5,0.0,23567,393034365875800,27,24.5,203.53810119628906,0.6420000195503235,16,0.0,0.0,1.57542003E9,,,,0,,6,0.33,1.57542003E9,413.0,NaN,NaN
Raw,241474945914444,658279219000000,,,-1265581155228060257,-0.91168212890625,59.92045043967664,-93.17617839707648,16.755855779612297,209,9,0.0,23567,393034364454029,35,22.0,568.5879516601562,0.8104999661445618,16,0.0,0.0,1.57542003E9,,,,0,,6,0.33,1.57542003E9,413.0,NaN,NaN
Raw,241474945914444,658279219000000,,,-1265581155228060257,-0.91168212890625,59.92045043967664,-93.17617839707648,16.755855779612297,209,24,0.0,23567,393034375027913,8,36.0,-99.00711059570312,0.048100002110004425,25,-332.2151468681854,0.0025499350854412276,1.57542003E9,,,,0,,6,0.33,1.57542003E9,413.0,NaN,NaN
Raw,241474945914444,658279219000000,,,-1265581155228060257,-0.91168212890625,59.92045043967664,-93.17617839707648,16.755855779612297,209,25,0.0,23567,393034359308933,46,20.8,-491.10040283203125,0.875,16,0.0,0.0,1.57542003E9,,,,0,,6,0.33,1.57542003E9,413.0,NaN,NaN
Raw,241474945914444,658279219000000,,,-1265581155228060257,-0.91168212890625,59.92045043967664,-93.17617839707648,16.755855779612297,209,26,0.0,23567,393034358293615,35,22.1,80.94141387939453,0.8134999871253967,16,0.0,0.0,1.57542003E9,,,,0,,6,0.33,1.57542003E9,413.0,NaN,NaN
Raw,241474945914444,658279219000000,,,-1265581155228060257,-0.91168212890625,59.92045043967664,-93.17617839707648,16.755855779612297,209,31,0.0,23567,393034363515812,7,37.9,356.1268310546875,0.04190000146627426,21,3633.509704862989,0.0021883771969841777,1.57542003E9,,,,0,,6,0.33,1.57542003E9,413.0,NaN,NaN
Raw,241474945914444,658279219000000,,,-1265581155228060257,-0.91168212890625,59.92045043967664,-93.17617839707648,16.755855779612297,209,33,0.0,23567,393034356411631,24,25.8,-365.3423767089844,0.05730000138282776,19,-200.69714968677198,0.017526047264890512,1.57542003E9,,,,0,,6,0.33,1.57542003E9,413.0,NaN,NaN
Raw,241474945914444,658279219000000,,,-1265581155228060257,-0.91168212890625,59.92045043967664,-93.17617839707648,16.755855779612297,209,24,0.0,81935,393034379966232,2,39.2,59.73973083496094,0.0044999998062849045,25,171.3592335232671,0.001121243362856653,1.17645005E9,,,,0,,1,-11.63,1.17645005E9,413.0,NaN,NaN
Raw,241474945914444,658279219000000,,,-1265581155228060257,-0.91168212890625,59.92045043967664,-93.17617839707648,16.755855779612297,209,25,0.0,81935,393034369462312,16,16.4,-704.5358276367188,1.9300000667572021,16,0.0,0.0,1.17645005E9,,,,0,,1,-11.63,1.17645005E9,413.0,NaN,NaN
Raw,241474945914444,658279219000000,,,-1265581155228060257,-0.91168212890625,59.92045043967664,-93.17617839707648,16.755855779612297,209,32,0.0,81935,393034368724565,8,23.1,-623.6151733398438,0.6784999966621399,16,0.0,0.0,1.17645005E9,,,,0,,1,-11.63,1.17645005E9,413.0,NaN,NaN
Raw,241474945914444,658279219000000,,,-1265581155228060257,-0.91168212890625,59.92045043967664,-93.17617839707648,16.755855779612297,209,3,0.0,81935,393034361246441,2,34.4,-336.63427734375,0.01100000087171793,25,-821.8879403087268,0.0020386244039789624,1.17645005E9,,,,0,,6,-11.63,1.17645005E9,413.0,NaN,NaN
Raw,241474945914444,658279219000000,,,-1265581155228060257,-0.91168212890625,59.92045043967664,-93.17617839707648,16.755855779612297,209,24,0.0,81935,393034375034970,2,35.2,-98.7702865600586,0.04610000178217888,25,-242.29510375508164,0.0017837963238157039,1.17645005E9,,,,0,,6,-11.63,1.17645005E9,413.0,NaN,NaN
Raw,241474945914444,658279219000000,,,-1265581155228060257,-0.91168212890625,59.92045043967664,-93.17617839707648,16.755855779612297,209,25,0.0,81935,393034359315999,10,20.1,-490.12744140625,0.10420000553131104,27,-1648.7724339245976,0.25482803839368795,1.17645005E9,,,,0,,6,-11.63,1.17645005E9,413.0,NaN,NaN
Raw,241474945914444,658279219000000,,,-1265581155228060257,-0.91168212890625,59.92045043967664,-93.17617839707648,16.755855779612297,209,26,0.0,81935,393034358300760,16,16.5,80.88241577148438,1.94350004196167,16,0.0,0.0,1.17645005E9,,,,0,,6,-11.63,1.17645005E9,413.0,NaN,NaN
Raw,241474945914444,658279219000000,,,-1265581155228060257,-0.91168212890625,59.92045043967664,-93.17617839707648,16.755855779612297,209,31,0.0,81935,393034363522897,3,33.9,356.2488098144531,0.014999999664723873,25,1191.0500882144074,0.0022170039651624013,1.17645005E9,,,,0,,6,-11.63,1.17645005E9,413.0,NaN,NaN
Raw,241474945914444,658279219000000,,,-1265581155228060257,-0.91168212890625,59.92045043967664,-93.17617839707648,16.755855779612297,209,33,0.0,81935,393034356418731,8,22.3,-366.14227294921875,0.06069999933242798,27,-901.4056213462582,0.25482803839368795,1.17645005E9,,,,0,,6,-11.63,1.17645005E9,413.0,NaN,NaN
Fix,gps,51.524701,-0.133732,116.265747,0.680000,5.354866,1582204218000,241475928367771
Raw,241475966411889,658280219000000,,,-1265581155228060383,-0.7631642818450928,58.01584120490588,-93.80879403347933,15.624893013143986,209,10,0.0,16399,393035368785958,40,21.0,262.4815673828125,0.8585000038146973,16,0.0,0.0,1.57542003E9,,,,0,,1,0.39,1.57542003E9,413.0,NaN,NaN
Raw,241475966411889,658280219000000,,,-1265581155228060383,-0.7631642818450928,58.01584120490588,-93.80879403347933,15.624893013143986,209,12,0.0,16399,393035378212642,16,29.6,-413.753173828125,0.05090000107884407,21,-2414.449925670322,0.00281634630106073,1.57542003E9,,,,0,,1,0.39,1.57542003E9,413.0,NaN,NaN
Raw,241475966411889,658280219000000,,,-1265581155228060383,-0.7631642818450928,58.01584120490588,-93.80879403347933,15.624893013143986,209,15,0.0,16399,393035369017544,14,30.3,667.0184326171875,0.036400001496076584,21,2581.842148974585,0.002397700231676362,1.57542003E9,,,,0,,1,0.39,1.57542003E9,413.0,NaN,NaN
Raw,241475966411889,658280219000000,,,-1265581155228060383,-0.7631642818450928,58.01584120490588,-93.80879403347933,15.624893013143986,209,17,0.0,16399,393035369617827,4,42.3,287.18701171875,0.03160000219941139,17,3289.521721102556,5.899103906353357E-4,1.57542003E9,,,,0,,1,0.39,1.57542003E9,413.0,NaN,NaN
Raw,241475966411889,658280219000000,,,-1265581155228060383,-0.7631642818450928,58.01584120490588,-93.80879403347933,15.624893013143986,209,19,0.0,16399,393035373854808,6,39.6,-24.980661392211914,0.03830000013113022,21,-287.8207876138695,8.372921387687362E-4,1.57542003E9,,,,0,,1,0.39,1.57542003E9,413.0,NaN,NaN
Raw,241475966411889,658280219000000,,,-1265581155228060383,-0.7631642818450928,58.01584120490588,-93.80879403347933,15.624893013143986,209,20,0.0,16399,393035365654652,35,22.4,531.6995849609375,0.793999969959259,16,0.0,0.0,1.57542003E9,,,,0,,1,0.39,1.57542003E9,413.0,NaN,NaN
Raw,241475966411889,658280219000000,,,-1265581155228060383,-0.7631642818450928,58.01584120490588,-93.80879403347933,15.624893013143986,209,24,0.0,16399,393035379958203,10,34.6,59.33686828613281,0.004100000020116568,25,497.31543602143825,0.0015223494237726067,1.57542003E9,,,,0,,1,0.39,1.57542003E9,413.0,NaN,NaN
Raw,241475966411889,658280219000000,,,-1265581155228060383,-0.7631642818450928,58.01584120490588,-93.80879403347933,15.624893013143986,209,25,0.0,16399,393035369456799,24,25.0,-706.753173828125,0.046800002455711365,21,-1673.6724565457953,0.19029366893311156,1.57542003E9,,,,0,,1,0.39,1.57542003E9,413.0,NaN,NaN
Raw,241475966411889,658280219000000,,,-1265581155228060383,-0.7631642818450928,58.01584120490588,-93.80879403347933,15.624893013143986,209,32,0.0,16399,393035368718835,17,28.7,-623.8521118164062,0.03720000013709068,21,-2411.288879298873,0.0030066398239606148,1.57542003E9,,,,0,,1,0.39,1.57542003E9,413.0,NaN,NaN
Raw,241475966411889,658280219000000,,,-1265581155228060383,-0.7631642818450928,58.01584120490588,-93.80879403347933,15.624893013143986,209,14,0.0,49359,58217371244599,19,27.8,617.6678466796875,0.24230000376701355,21,5902.079517795797,0.0031891569808937432,1.59806246E9,,,,0,,3,-2.49,1.59806246E9,413.0,NaN,NaN
Raw,241475966411889,658280219000000,,,-1265581155228060383,-0.7631642818450928,58.01584120490588,-93.80879403347933,15.624893013143986,209,6,0.0,49359,58217379007523,10,34.9,-90.31049346923828,0.249099999666214,25,-321.47737230493806,0.0014991965956729961,1.59975002E9,,,,0,,3,-2.49,1.59975002E9,413.0,NaN,NaN
Raw,241475966411889,658280219000000,,,-1265581155228060383,-0.7631642818450928,58.01584120490588,-93.80879403347933,15.624893013143986,209,16,0.0,49359,58217378220793,27,24.2,-485.6878356933594,0.26829999685287476,19,-1727.5715100433197,0.18720210387987432,1.60143744E9,,,,0,,3,-2.49,1.60143744E9,413.0,NaN,NaN
Raw,241475966411889,658280219000000,,,-1265581155228060383,-0.7631642818450928,58.01584120490588,-93.80879403347933,15.624893013143986,209,15,0.0,49359,58217381971253,7,37.9,181.3238983154297,0.22089999914169312,25,1732.6861926664944,9.918227095612844E-4,1.602E9,,,,0,,3,-2.49,1.602E9,413.0,NaN,NaN
Raw,241475966411889,658280219000000,,,-1265581155228060383,-0.7631642818450928,58.01584120490588,-93.80879403347933,15.624893013143986,209,5,0.0,49359,58217375385082,24,25.5,692.76513671875,0.2558000087738037,21,3846.208374491276,0.18707067385874782,1.60256256E9,,,,0,,3,-2.49,1.60256256E9,413.0,NaN,NaN
Raw,241475966411889,658280219000000,,,-1265581155228060383,-0.7631642818450928,58.01584120490588,-93.80879403347933,15.624893013143986,209,23,0.0,49359,58217369498639,24,25.9,487.9687805175781,0.2468000054359436,21,1733.5095503036484,0.1869394431765222,1.60368755E9,,,,0,,3,-2.49,1.60368755E9,413.0,NaN,NaN
Raw,241475966411889,658280219000000,,,-1265581155228060383,-0.7631642818450928,58.01584120490588,-93.80879403347933,15.624893013143986,209,17,0.0,49359,58217373192751,9,35.8,-658.1259155273438,0.23960000276565552,25,-3655.029994384973,0.001308117370550155,1.60424998E9,,,,0,,3,-2.49,1.60424998E9,413.0,NaN,NaN
Raw,241475966411889,658280219000000,,,-1265581155228060383,-0.7631642818450928,58.01584120490588,-93.80879403347933,15.624893013143986,209,7,0.0,49359,58217369602984,24,25.2,-713.04150390625,0.2468000054359436,21,-2530.3314824322483,0.1868083964827234,1.60481254E9,,,,0,,3,-2.49,1.60481254E9,413.0,NaN,NaN
Raw,241475966411889,658280219000000,,,-1265581155228060383,-0.7631642818450928,58.01584120490588,-93.80879403347933,15.624893013143986,209,36,0.0,16399,393021374278424,8,36.0,-43.017372131347656,0.0406000018119812,17,-235.32250985406293,0.0011714408558922843,1.56109798E9,,,,0,,5,0.42,1.56109798E9,413.0,NaN,NaN
Raw,241475966411889,658280219000000,,,-1265581155228060383,-0.7631642818450928,58.01584120490588,-93.80879403347933,15.624893013143986,209,30,0.0,16399,393021365575245,6,38.0,-557.4869384765625,0.026600001379847527,25,-2421.556701852083,9.409935037250662E-4,1.56109798E9,,,,0,,5,0.42,1.56109798E9,413.0,NaN,NaN
Raw,241475966411889,658280219000000,,,-1265581155228060383,-0.7631642818450928,58.01584120490588,-93.80879403347933,15.624893013143986,209,27,0.0,16399,393021366579135,4,42.3,-78.10279846191406,0.02710000053048134,17,-780.9868172843397,5.953224307615613E-4,1.56109798E9,,,,0,,5,0.42,1.56109798E9,413.0,NaN,NaN
Raw,241475966411889,658280219000000,,,-1265581155228060383,-0.7631642818450928,58.01584120490588,-93.80879403347933,15.624893013143986,209,22,0.0,16399,393021365961636,24,25.6,446.0563049316406,0.040800001472234726,21,4242.73048154176,0.1920394882785269,1.56109798E9,,,,0,,5,0.42,1.56109798E9,413.0,NaN,NaN
Raw,241475966411889,658280219000000,,,-1265581155228060383,-0.7631642818450928,58.01584120490588,-93.80879403347933,15.624893013143986,209,21,0.0,16399,393021366652504,21,26.7,-90.8008804321289,0.0357000008225441,21,-500.077170838686,0.005492329335005111,1.56109798E9,,,,0,,5,0.42,1.56109798E9,413.0,NaN,NaN
Raw,241475966411889,658280219000000,,,-1265581155228060383,-0.7631642818450928,58.01584120490588,-93.80879403347933,15.624893013143986,209,8,0.0,16399,393021311865530,46,20.1,-348.2252197265625,0.9329999685287476,16,0.0,0.0,1.56109798E9,,,,0,,5,0.42,1.56109798E9,413.0,NaN,NaN
Raw,241475966411889,658280219000000,,,-1265581155228060383,-0.7631642818450928,58.01584120490588,-93.80879403347933,15.624893013143986,209,3,0.0,23567,393035361240488,6,39.2,-337.3725891113281,0.04430000111460686,25,-1198.923360528669,0.0018458486430946374,1.57542003E9,,,,0,,6,0.36,1.57542003E9,413.0,NaN,NaN
Raw,241475966411889,658280219000000,,,-1265581155228060383,-0.7631642818450928,58.01584120490588,-93.80879403347933,15.624893013143986,209,5,0.0,23567,393035365875114,21,26.7,204.05538940429688,0.05220000073313713,19,932.1267717954859,0.011874324619302384,1.57542003E9,,,,0,,6,0.36,1.57542003E9,413.0,NaN,NaN
Raw,241475966411889,658280219000000,,,-1265581155228060383,-0.7631642818450928,58.01584120490588,-93.80879403347933,15.624893013143986,209,9,0.0,23567,393035364452158,31,23.3,568.1788330078125,0.6904999613761902,16,0.0,0.0,1.57542003E9,,,,0,,6,0.36,1.57542003E9,413.0,NaN,NaN
Raw,241475966411889,658280219000000,,,-1265581155228060383,-0.7631642818450928,58.01584120490588,-93.80879403347933,15.624893013143986,209,24,0.0,23567,393035375028255,9,35.1,-99.60079956054688,0.048600003123283386,25,-431.6819377572705,0.0028924638165555576,1.57542003E9,,,,0,,6,0.36,1.57542003E9,413.0,NaN,NaN
Raw,241475966411889,658280219000000,,,-1265581155228060383,-0.7631642818450928,58.01584120490588,-93.80879403347933,15.624893013143986,209,25,0.0,23567,393035359310655,31,23.5,-491.14794921875,0.6949999928474426,16,0.0,0.0,1.57542003E9,,,,0,,6,0.36,1.57542003E9,413.0,NaN,NaN
Raw,241475966411889,658280219000000,,,-1265581155228060383,-0.7631642818450928,58.01584120490588,-93.80879403347933,15.624893013143986,209,26,0.0,23567,393035358293415,46,20.7,79.35246276855469,0.8734999895095825,16,0.0,0.0,1.57542003E9,,,,0,,6,0.36,1.57542003E9,413.0,NaN,NaN
Raw,241475966411889,658280219000000,,,-1265581155228060383,-0.7631642818450928,58.01584120490588,-93.80879403347933,15.624893013143986,209,31,0.0,23567,393035363514629,5,40.9,355.8959045410156,0.04110000282526016,25,3989.470737591792,0.001617496273834944,1.57542003E9,,,,0,,6,0.36,1.57542003E9,413.0,NaN,NaN
Raw,241475966411889,658280219000000,,,-1265581155228060383,-0.7631642818450928,58.01584120490588,-93.80879403347933,15.624893013143986,209,33,0.0,23567,393035356412870,21,26.7,-365.36236572265625,0.050700001418590546,21,-566.0388422899265,0.011874324619302384,1.57542003E9,,,,0,,6,0.36,1.57542003E9,413.0,NaN,NaN
Raw,241475966411889,658280219000000,,,-1265581155228060383,-0.7631642818450928,58.01584120490588,-93.80879403347933,15.624893013143986,209,10,0.0,81935,393035368793923,18,15.2,262.6257629394531,2.678500175476074,16,0.0,0.0,1.17645005E9,,,,0,,1,-2.38,1.17645005E9,413.0,NaN,NaN
Raw,241475966411889,658280219000000,,,-1265581155228060383,-0.7631642818450928,58.01584120490588,-93.80879403347933,15.624893013143986,209,24,0.0,81935,393035379966035,2,37.5,59.280311584472656,0.00559999980032444,25,230.7277728372896,0.0013505885638054542,1.17645005E9,,,,0,,1,-2.38,1.17645005E9,413.0,NaN,NaN
Raw,241475966411889,658280219000000,,,-1265581155228060383,-0.7631642818450928,58.01584120490588,-93.80879403347933,15.624893013143986,209,25,0.0,81935,393035369464646,14,17.8,-706.179443359375,1.0899999141693115,16,0.0,0.0,1.17645005E9,,,,0,,1,-2.38,1.17645005E9,413.0,NaN,NaN
Raw,241475966411889,658280219000000,,,-1265581155228060383,-0.7631642818450928,58.01584120490588,-93.80879403347933,15.624893013143986,209,32,0.0,81935,393035368726639,6,25.1,-623.9464721679688,0.5885000228881836,16,0.0,0.0,1.17645005E9,,,,0,,1,-2.38,1.17645005E9,413.0,NaN,NaN
Raw,241475966411889,658280219000000,,,-1265581155228060383,-0.7631642818450928,58.01584120490588,-93.80879403347933,15.624893013143986,209,3,0.0,81935,393035361247565,2,40.0,-337.568115234375,0.007000000216066837,25,-1159.1085580776032,9.938293227750238E-4,1.17645005E9,,,,0,,6,-2.38,1.17645005E9,413.0,NaN,NaN
Raw,241475966411889,658280219000000,,,-1265581155228060383,-0.7631642818450928,58.01584120490588,-93.80879403347933,15.624893013143986,209,5,0.0,81935,393035365882276,16,16.5,204.9964141845703,2.6740000247955322,16,0.0,0.0,1.17645005E9,,,,0,,6,-2.38,1.17645005E9,413.0,NaN,NaN
Raw,241475966411889,658280219000000,,,-1265581155228060383,-0.7631642818450928,58.01584120490588,-93.80879403347933,15.624893013143986,209,9,0.0,81935,393035364459281,20,14.7,567.9225463867188,2.8625001907348633,16,0.0,0.0,1.17645005E9,,,,0,,6,-2.38,1.17645005E9,413.0,NaN,NaN
Raw,241475966411889,658280219000000,,,-1265581155228060383,-0.7631642818450928,58.01584120490588,-93.80879403347933,15.624893013143986,209,24,0.0,81935,393035375035303,3,33.2,-99.83109283447266,0.04800000041723251,29,-341.7860426776323,0.0022170039651624013,1.17645005E9,,,,0,,6,-2.38,1.17645005E9,413.0,NaN,NaN
Raw,241475966411889,658280219000000,,,-1265581155228060383,-0.7631642818450928,58.01584120490588,-93.80879403347933,15.624893013143986,209,26,0.0,81935,393035358300513,11,19.0,80.76774597167969,0.9434999823570251,16,0.0,0.0,1.17645005E9,,,,0,,6,-2.38,1.17645005E9,413.0,NaN,NaN
Raw,241475966411889,658280219000000,,,-1265581155228060383,-0.7631642818450928,58.01584120490588,-93.80879403347933,15.624893013143986,209,31,0.0,81935,393035363521704,4,30.0,355.4497985839844,0.03370000049471855,29,1547.1040655052284,0.0032108332879374254,1.17645005E9,,,,0,,6,-2.38,1.17645005E9,413.0,NaN,NaN
Raw,241475966411889,658280219000000,,,-1265581155228060383,-0.7631642818450928,58.01584120490588,-93.80879403347933,15.624893013143986,209,33,0.0,81935,393035356419964,10,20.6,-365.510498046875,0.09970000386238098,29,-1266.8183563781147,0.34557229348499413,1.17645005E9,,,,0,,6,-2.38,1.17645005E9,413.0,NaN,NaN
Fix,gps,51.524732,-0.133818,97.649475,0.550000,4.727057,1582204219000,241476933834798
Raw,241477011042514,658281219000000,,,-1265581155228060518,-0.655925989151001,55.18483885680325,-95.60997321688755,12.561774215784606,209,10,0.0,16399,393036368785210,35,22.1,262.0439147949219,0.7985000014305115,16,0.0,0.0,1.57542003E9,,,,0,,1,-0.07,1.57542003E9,413.0,NaN,NaN
Raw,241477011042514,658281219000000,,,-1265581155228060518,-0.655925989151001,55.18483885680325,-95.60997321688755,12.561774215784606,209,12,0.0,16399,393036378214097,17,28.7,-412.9892578125,0.05220000073313713,25,-2827.1223106417497,0.0030066398239606148,1.57542003E9,,,,0,,1,-0.07,1.57542003E9,413.0,NaN,NaN
Raw,241477011042514,658281219000000,,,-1265581155228060518,-0.655925989151001,55.18483885680325,-95.60997321688755,12.561774215784606,209,15,0.0,16399,393036369015417,19,27.9,667.2612915039062,0.024300001561641693,21,3249.195869431406,0.003234992547669888,1.57542003E9,,,,0,,1,-0.07,1.57542003E9,413.0,NaN,NaN
Raw,241477011042514,658281219000000,,,-1265581155228060518,-0.655925989151001,55.18483885680325,-95.60997321688755,12.561774215784606,209,17,0.0,16399,393036369616853,4,43.6,287.2783203125,0.03150000050663948,25,3577.1379342233085,5.137929194467054E-4,1.57542003E9,,,,0,,1,-0.07,1.57542003E9,413.0,NaN,NaN
Raw,241477011042514,658281219000000,,,-1265581155228060518,-0.655925989151001,55.18483885680325,-95.60997321688755,12.561774215784606,209,19,0.0,16399,393036373854887,5,41.8,-24.838394165039062,0.037800002843141556,25,-312.3206220449009,6.850571963914755E-4,1.57542003E9,,,,0,,1,-0.07,1.57542003E9,413.0,NaN,NaN
Raw,241477011042514,658281219000000,,,-1265581155228060518,-0.655925989151001,55.18483885680325,-95.60997321688755,12.561774215784606,209,20,0.0,16399,393036365652798,31,23.8,531.5955200195312,0.10370000451803207,27,5920.7882142937115,0.19029366893311156,1.57542003E9,,,,0,,1,-0.07,1.57542003E9,413.0,NaN,NaN
Raw,241477011042514,658281219000000,,,-1265581155228060518,-0.655925989151001,55.18483885680325,-95.60997321688755,12.561774215784606,209,24,0.0,16399,393036379958014,6,38.5,59.1361083984375,0.0026000000070780516,25,556.9964581901065,9.324389888310735E-4,1.57542003E9,,,,0,,1,-0.07,1.57542003E9,413.0,NaN,NaN
Raw,241477011042514,658281219000000,,,-1265581155228060518,-0.655925989151001,55.18483885680325,-95.60997321688755,12.561774215784606,209,32,0.0,16399,393036368720887,12,32.4,-623.89453125,0.03360000252723694,25,-3034.662972862454,0.001807789796734829,1.57542003E9,,,,0,,1,-0.07,1.57542003E9,413.0,NaN,NaN
Raw,241477011042514,658281219000000,,,-1265581155228060518,-0.655925989151001,55.18483885680325,-95.60997321688755,12.561774215784606,209,14,0.0,49359,58218371242545,17,28.9,617.3924560546875,0.24170000851154327,29,6519.854645077758,0.0029640397133290693,1.59806246E9,,,,0,,3,-2.77,1.59806246E9,413.0,NaN,NaN
Raw,241477011042514,658281219000000,,,-1265581155228060518,-0.655925989151001,55.18483885680325,-95.60997321688755,12.561774215784606,209,6,0.0,49359,58218379007816,8,36.5,-90.32840728759766,0.24810001254081726,25,-411.37967477430476,0.0011431373278440271,1.59975002E9,,,,0,,3,-2.77,1.59975002E9,413.0,NaN,NaN
Raw,241477011042514,658281219000000,,,-1265581155228060518,-0.655925989151001,55.18483885680325,-95.60997321688755,12.561774215784606,209,16,0.0,49359,58218378222412,27,24.8,-485.716552734375,0.26829999685287476,29,-2212.974714828187,0.18720210387987432,1.60143744E9,,,,0,,3,-2.77,1.60143744E9,413.0,NaN,NaN
Raw,241477011042514,658281219000000,,,-1265581155228060518,-0.655925989151001,55.18483885680325,-95.60997321688755,12.561774215784606,209,15,0.0,49359,58218381970638,7,37.5,181.27487182617188,0.20589999854564667,25,1914.4772080937896,9.918227095612844E-4,1.602E9,,,,0,,3,-2.77,1.602E9,413.0,NaN,NaN
Raw,241477011042514,658281219000000,,,-1265581155228060518,-0.655925989151001,55.18483885680325,-95.60997321688755,12.561774215784606,209,5,0.0,49359,58218375382675,24,25.2,692.34326171875,0.2558000087738037,29,4538.991623277935,0.18707067385874782,1.60256256E9,,,,0,,3,-2.77,1.60256256E9,413.0,NaN,NaN
Raw,241477011042514,658281219000000,,,-1265581155228060518,-0.655925989151001,55.18483885680325,-95.60997321688755,12.561774215784606,209,23,0.0,49359,58218369496949,24,25.5,487.96148681640625,0.2468000054359436,29,2221.751526832578,0.1869394431765222,1.60368755E9,,,,0,,3,-2.77,1.60368755E9,413.0,NaN,NaN
Raw,241477011042514,658281219000000,,,-1265581155228060518,-0.655925989151001,55.18483885680325,-95.60997321688755,12.561774215784606,209,17,0.0,49359,58218373194922,6,38.3,-658.1778564453125,0.2386000007390976,25,-4312.76654270003,9.156821419811199E-4,1.60424998E9,,,,0,,3,-2.77,1.60424998E9,413.0,NaN,NaN
Raw,241477011042514,658281219000000,,,-1265581155228060518,-0.655925989151001,55.18483885680325,-95.60997321688755,12.561774215784606,209,7,0.0,49359,58218369605450,17,28.2,-713.2034301757812,0.2387000024318695,25,-3242.9848753751744,0.002951572521903534,1.60481254E9,,,,0,,3,-2.77,1.60481254E9,413.0,NaN,NaN
Raw,241477011042514,658281219000000,,,-1265581155228060518,-0.655925989151001,55.18483885680325,-95.60997321688755,12.561774215784606,209,36,0.0,16399,393022374278572,6,39.7,-43.180294036865234,0.0398000031709671,17,-278.03298322476064,8.449737438469402E-4,1.56109798E9,,,,0,,5,0.04,1.56109798E9,413.0,NaN,NaN
Raw,241477011042514,658281219000000,,,-1265581155228060518,-0.655925989151001,55.18483885680325,-95.60997321688755,12.561774215784606,209,30,0.0,16399,393022365577115,7,37.1,-557.6979370117188,0.011900000274181366,25,-2978.7440593027645,0.0010178092579723537,1.56109798E9,,,,0,,5,0.04,1.56109798E9,413.0,NaN,NaN
Raw,241477011042514,658281219000000,,,-1265581155228060518,-0.655925989151001,55.18483885680325,-95.60997321688755,12.561774215784606,209,27,0.0,16399,393022366579398,5,41.1,-78.09370422363281,0.01230000052601099,17,-858.6816216231632,6.913421459270097E-4,1.56109798E9,,,,0,,5,0.04,1.56109798E9,413.0,NaN,NaN
Raw,241477011042514,658281219000000,,,-1265581155228060518,-0.655925989151001,55.18483885680325,-95.60997321688755,12.561774215784606,209,22,0.0,16399,393022365960288,40,21.9,445.9541015625,0.7789999842643738,16,0.0,0.0,1.56109798E9,,,,0,,5,0.04,1.56109798E9,413.0,NaN,NaN
Raw,241477011042514,658281219000000,,,-1265581155228060518,-0.655925989151001,55.18483885680325,-95.60997321688755,12.561774215784606,209,21,0.0,16399,393022366652888,27,24.3,-90.89617919921875,0.03530000150203705,21,-590.6107597204644,0.1920394882785269,1.56109798E9,,,,0,,5,0.04,1.56109798E9,413.0,NaN,NaN
Raw,241477011042514,658281219000000,,,-1265581155228060518,-0.655925989151001,55.18483885680325,-95.60997321688755,12.561774215784606,209,8,0.0,16399,393022311866691,53,19.5,-349.1181945800781,1.0130000114440918,16,0.0,0.0,1.56109798E9,,,,0,,5,0.04,1.56109798E9,413.0,NaN,NaN
Raw,241477011042514,658281219000000,,,-1265581155228060518,-0.655925989151001,55.18483885680325,-95.60997321688755,12.561774215784606,209,5,0.0,17167,393022311229781,31,23.1,-29.746919631958008,5.738100051879883,16,0.0,0.0,1.56109798E9,,,,0,,5,0.04,1.56109798E9,413.0,NaN,NaN
Raw,241477011042514,658281219000000,,,-1265581155228060518,-0.655925989151001,55.18483885680325,-95.60997321688755,12.561774215784606,209,3,0.0,23567,393036361241592,5,40.7,-337.41839599609375,0.04410000145435333,25,-1535.9350229836691,0.001617496273834944,1.57542003E9,,,,0,,6,0.0,1.57542003E9,413.0,NaN,NaN
Raw,241477011042514,658281219000000,,,-1265581155228060518,-0.655925989151001,55.18483885680325,-95.60997321688755,12.561774215784606,209,5,0.0,23567,393036365874450,21,26.6,204.9518585205078,0.05220000073313713,21,1136.9946343022184,0.011874324619302384,1.57542003E9,,,,0,,6,0.0,1.57542003E9,413.0,NaN,NaN
Raw,241477011042514,658281219000000,,,-1265581155228060518,-0.655925989151001,55.18483885680325,-95.60997321688755,12.561774215784606,209,9,0.0,23567,393036364450237,27,24.2,567.7411499023438,0.640500009059906,16,0.0,0.0,1.57542003E9,,,,0,,6,0.0,1.57542003E9,413.0,NaN,NaN
Raw,241477011042514,658281219000000,,,-1265581155228060518,-0.655925989151001,55.18483885680325,-95.60997321688755,12.561774215784606,209,24,0.0,23567,393036375028581,8,36.6,-99.71147918701172,0.048100002110004425,25,-530.9379917373109,0.0025499350854412276,1.57542003E9,,,,0,,6,0.0,1.57542003E9,413.0,NaN,NaN
Raw,241477011042514,658281219000000,,,-1265581155228060518,-0.655925989151001,55.18483885680325,-95.60997321688755,12.561774215784606,209,26,0.0,23567,393036358293157,27,24.2,79.83771514892578,0.643500030040741,16,0.0,0.0,1.57542003E9,,,,0,,6,0.0,1.57542003E9,413.0,NaN,NaN
Raw,241477011042514,658281219000000,,,-1265581155228060518,-0.655925989151001,55.18483885680325,-95.60997321688755,12.561774215784606,209,31,0.0,23567,393036363513437,7,37.5,355.9443054199219,0.04190000146627426,25,4345.741980860952,0.0021883771969841777,1.57542003E9,,,,0,,6,0.0,1.57542003E9,413.0,NaN,NaN
Raw,241477011042514,658281219000000,,,-1265581155228060518,-0.655925989151001,55.18483885680325,-95.60997321688755,12.561774215784606,209,33,0.0,23567,393036356414053,27,24.3,-366.61029052734375,0.640500009059906,16,0.0,0.0,1.57542003E9,,,,0,,6,0.0,1.57542003E9,413.0,NaN,NaN
Raw,241477011042514,658281219000000,,,-1265581155228060518,-0.655925989151001,55.18483885680325,-95.60997321688755,12.561774215784606,209,24,0.0,81935,393036379965838,4,29.7,59.13834762573242,0.014499999582767487,29,290.40922832459813,0.0037714549693657518,1.17645005E9,,,,0,,1,-13.86,1.17645005E9,413.0,NaN,NaN
Raw,241477011042514,658281219000000,,,-1265581155228060518,-0.655925989151001,55.18483885680325,-95.60997321688755,12.561774215784606,209,32,0.0,81935,393036368728733,9,21.5,-624.252197265625,0.7985000014305115,16,0.0,0.0,1.17645005E9,,,,0,,1,-13.86,1.17645005E9,413.0,NaN,NaN
Raw,241477011042514,658281219000000,,,-1265581155228060518,-0.655925989151001,55.18483885680325,-95.60997321688755,12.561774215784606,209,3,0.0,81935,393036361248690,2,35.5,-337.79168701171875,0.010100000537931919,25,-1496.1274798733846,0.0017837963238157039,1.17645005E9,,,,0,,6,-13.86,1.17645005E9,413.0,NaN,NaN
Raw,241477011042514,658281219000000,,,-1265581155228060518,-0.655925989151001,55.18483885680325,-95.60997321688755,12.561774215784606,209,24,0.0,81935,393036375035634,6,25.4,-99.39937591552734,0.07699999958276749,29,-440.75642054566435,0.010753742989341824,1.17645005E9,,,,0,,6,-13.86,1.17645005E9,413.0,NaN,NaN
Raw,241477011042514,658281219000000,,,-1265581155228060518,-0.655925989151001,55.18483885680325,-95.60997321688755,12.561774215784606,209,25,0.0,81935,393036359319296,16,16.8,-491.7798767089844,1.8550000190734863,16,0.0,0.0,1.17645005E9,,,,0,,6,-13.86,1.17645005E9,413.0,NaN,NaN
Raw,241477011042514,658281219000000,,,-1265581155228060518,-0.655925989151001,55.18483885680325,-95.60997321688755,12.561774215784606,209,31,0.0,81935,393036363520522,5,28.2,355.5324401855469,0.022600000724196434,29,1903.2893328909647,0.0040262828122019055,1.17645005E9,,,,0,,6,-13.86,1.17645005E9,413.0,NaN,NaN
Fix,gps,51.524755,-0.133883,93.851379,0.430000,4.945912,1582204220000,241477913540885
Raw,241477940770419,658282219000000,,,-1265581155228060647,-0.021979093551635742,55.81613368121907,-95.92522172375912,11.58294112168756,209,10,0.0,16399,393037368784209,35,22.4,260.04583740234375,0.7985000014305115,16,0.0,0.0,1.57542003E9,,,,0,,1,-2.94,1.57542003E9,413.0,NaN,NaN
Raw,241477940770419,658282219000000,,,-1265581155228060647,-0.021979093551635742,55.81613368121907,-95.92522172375912,11.58294112168756,209,12,0.0,16399,393037378215392,31,23.7,-414.61260986328125,0.13819999992847443,21,-3241.117872307563,0.19029366893311156,1.57542003E9,,,,0,,1,-2.94,1.57542003E9,413.0,NaN,NaN
Raw,241477940770419,658282219000000,,,-1265581155228060647,-0.021979093551635742,55.81613368121907,-95.92522172375912,11.58294112168756,209,15,0.0,16399,393037369013081,19,27.1,661.4798583984375,0.5399999618530273,16,0.0,0.0,1.57542003E9,,,,0,,1,-2.94,1.57542003E9,413.0,NaN,NaN
Raw,241477940770419,658282219000000,,,-1265581155228060647,-0.021979093551635742,55.81613368121907,-95.92522172375912,11.58294112168756,209,17,0.0,16399,393037369615893,4,42.6,284.2108459472656,0.03160000219941139,25,3863.573647919725,5.899103906353357E-4,1.57542003E9,,,,0,,1,-2.94,1.57542003E9,413.0,NaN,NaN
Raw,241477940770419,658282219000000,,,-1265581155228060647,-0.021979093551635742,55.81613368121907,-95.92522172375912,11.58294112168756,209,19,0.0,16399,393037373854963,5,41.1,-27.908479690551758,0.037800002843141556,25,-338.0588925998234,6.850571963914755E-4,1.57542003E9,,,,0,,1,-2.94,1.57542003E9,413.0,NaN,NaN
Raw,241477940770419,658282219000000,,,-1265581155228060647,-0.021979093551635742,55.81613368121907,-95.92522172375912,11.58294112168756,209,20,0.0,16399,393037365651145,31,23.0,530.2299194335938,0.11870000511407852,21,6451.801919640289,0.19029366893311156,1.57542003E9,,,,0,,1,-2.94,1.57542003E9,413.0,NaN,NaN
Raw,241477940770419,658282219000000,,,-1265581155228060647,-0.021979093551635742,55.81613368121907,-95.92522172375912,11.58294112168756,209,24,0.0,16399,393037379957831,7,37.7,55.88143539428711,0.017900001257658005,25,615.2631403237411,0.0010085564157135064,1.57542003E9,,,,0,,1,-2.94,1.57542003E9,413.0,NaN,NaN
Raw,241477940770419,658282219000000,,,-1265581155228060647,-0.021979093551635742,55.81613368121907,-95.92522172375912,11.58294112168756,209,32,0.0,16399,393037368722965,13,31.9,-627.1280517578125,0.0340999998152256,25,-3659.476032618572,0.002074201012354331,1.57542003E9,,,,0,,1,-2.94,1.57542003E9,413.0,NaN,NaN
Raw,241477940770419,658282219000000,,,-1265581155228060647,-0.021979093551635742,55.81613368121907,-95.92522172375912,11.58294112168756,209,14,0.0,49359,58219371240560,21,26.5,616.14453125,0.24320000410079956,21,7136.553124016008,0.005365287306028947,1.59806246E9,,,,0,,3,-5.85,1.59806246E9,413.0,NaN,NaN
Raw,241477940770419,658282219000000,,,-1265581155228060647,-0.021979093551635742,55.81613368121907,-95.92522172375912,11.58294112168756,209,6,0.0,49359,58219379008123,9,35.1,-93.47998809814453,0.24860000610351562,25,-502.6474017111154,0.001311796999397691,1.59975002E9,,,,0,,3,-5.85,1.59975002E9,413.0,NaN,NaN
Raw,241477940770419,658282219000000,,,-1265581155228060647,-0.021979093551635742,55.81613368121907,-95.92522172375912,11.58294112168756,209,16,0.0,49359,58219378223872,35,22.9,-487.3233337402344,0.6087999939918518,21,-2699.8757310308633,0.18720210387987432,1.60143744E9,,,,0,,3,-5.85,1.60143744E9,413.0,NaN,NaN
Raw,241477940770419,658282219000000,,,-1265581155228060647,-0.021979093551635742,55.81613368121907,-95.92522172375912,11.58294112168756,209,15,0.0,49359,58219381970052,8,36.3,178.08050537109375,0.22110000252723694,25,2094.8875541078637,0.001141531809306292,1.602E9,,,,0,,3,-5.85,1.602E9,413.0,NaN,NaN
Raw,241477940770419,658282219000000,,,-1265581155228060647,-0.021979093551635742,55.81613368121907,-95.92522172375912,11.58294112168756,209,5,0.0,49359,58219375380364,31,23.1,690.5765991210938,0.3337000012397766,21,5230.338918975621,0.18707067385874782,1.60256256E9,,,,0,,3,-5.85,1.60256256E9,413.0,NaN,NaN
Raw,241477940770419,658282219000000,,,-1265581155228060647,-0.021979093551635742,55.81613368121907,-95.92522172375912,11.58294112168756,209,23,0.0,49359,58219369495380,27,24.5,486.36004638671875,0.254800021648407,21,2709.1884976348947,0.1869394431765222,1.60368755E9,,,,0,,3,-5.85,1.60368755E9,413.0,NaN,NaN
Raw,241477940770419,658282219000000,,,-1265581155228060647,-0.021979093551635742,55.81613368121907,-95.92522172375912,11.58294112168756,209,17,0.0,49359,58219373197114,7,37.8,-661.3272094726562,0.23890000581741333,25,-4971.878448564247,9.90431663745728E-4,1.60424998E9,,,,0,,3,-5.85,1.60424998E9,413.0,NaN,NaN
Raw,241477940770419,658282219000000,,,-1265581155228060647,-0.021979093551635742,55.81613368121907,-95.92522172375912,11.58294112168756,209,7,0.0,49359,58219369607853,46,20.1,-717.4376831054688,1.0600000619888306,16,0.0,0.0,1.60481254E9,,,,0,,3,-5.85,1.60481254E9,413.0,NaN,NaN
Raw,241477940770419,658282219000000,,,-1265581155228060647,-0.021979093551635742,55.81613368121907,-95.92522172375912,11.58294112168756,209,36,0.0,16399,393023374278721,6,38.3,-46.42319869995117,0.04010000079870224,17,-322.1748182900314,9.409935037250662E-4,1.56109798E9,,,,0,,5,-2.71,1.56109798E9,413.0,NaN,NaN
Raw,241477940770419,658282219000000,,,-1265581155228060647,-0.021979093551635742,55.81613368121907,-95.92522172375912,11.58294112168756,209,30,0.0,16399,393023365578984,11,33.7,-560.939697265625,0.028700001537799835,25,-3537.3611441878875,0.0016707435714883973,1.56109798E9,,,,0,,5,-2.71,1.56109798E9,413.0,NaN,NaN
Raw,241477940770419,658282219000000,,,-1265581155228060647,-0.021979093551635742,55.81613368121907,-95.92522172375912,11.58294112168756,209,27,0.0,16399,393023366579657,7,37.8,-81.13640594482422,0.028400002047419548,17,-937.5746701903649,0.0010178092579723537,1.56109798E9,,,,0,,5,-2.71,1.56109798E9,413.0,NaN,NaN
Raw,241477940770419,658282219000000,,,-1265581155228060647,-0.021979093551635742,55.81613368121907,-95.92522172375912,11.58294112168756,209,22,0.0,16399,393023365958736,31,23.4,444.783203125,0.11870000511407852,19,5135.43937555453,0.1920394882785269,1.56109798E9,,,,0,,5,-2.71,1.56109798E9,413.0,NaN,NaN
Raw,241477940770419,658282219000000,,,-1265581155228060647,-0.021979093551635742,55.81613368121907,-95.92522172375912,11.58294112168756,209,21,0.0,16399,393023366653140,24,25.4,-93.15795135498047,0.04230000078678131,21,-682.3511346034946,0.1920394882785269,1.56109798E9,,,,0,,5,-2.71,1.56109798E9,413.0,NaN,NaN
Raw,241477940770419,658282219000000,,,-1265581155228060647,-0.021979093551635742,55.81613368121907,-95.92522172375912,11.58294112168756,209,3,0.0,23567,393037361242745,6,39.3,-340.5046081542969,0.04430000111460686,25,-1874.3314002049483,0.0018458486430946374,1.57542003E9,,,,0,,6,-3.16,1.57542003E9,413.0,NaN,NaN
Raw,241477940770419,658282219000000,,,-1265581155228060647,-0.021979093551635742,55.81613368121907,-95.92522172375912,11.58294112168756,209,5,0.0,23567,393037365873769,19,27.3,200.8855438232422,0.05130000039935112,25,1340.2680146496125,0.007212130206821385,1.57542003E9,,,,0,,6,-3.16,1.57542003E9,413.0,NaN,NaN
Raw,241477940770419,658282219000000,,,-1265581155228060647,-0.021979093551635742,55.81613368121907,-95.92522172375912,11.58294112168756,209,9,0.0,23567,393037364448438,27,24.1,566.1807861328125,0.6904999613761902,16,0.0,0.0,1.57542003E9,,,,0,,6,-3.16,1.57542003E9,413.0,NaN,NaN
Raw,241477940770419,658282219000000,,,-1265581155228060647,-0.021979093551635742,55.81613368121907,-95.92522172375912,11.58294112168756,209,24,0.0,23567,393037375028902,8,36.0,-102.85780334472656,0.048100002110004425,25,-631.6804271341759,0.0025499350854412276,1.57542003E9,,,,0,,6,-3.16,1.57542003E9,413.0,NaN,NaN
Raw,241477940770419,658282219000000,,,-1265581155228060647,-0.021979093551635742,55.81613368121907,-95.92522172375912,11.58294112168756,209,25,0.0,23567,393037359314013,46,20.7,-493.59326171875,0.8449999690055847,16,0.0,0.0,1.57542003E9,,,,0,,6,-3.16,1.57542003E9,413.0,NaN,NaN
Raw,241477940770419,658282219000000,,,-1265581155228060647,-0.021979093551635742,55.81613368121907,-95.92522172375912,11.58294112168756,209,26,0.0,23567,393037358292835,46,20.1,79.09556579589844,0.9434999823570251,16,0.0,0.0,1.57542003E9,,,,0,,6,-3.16,1.57542003E9,413.0,NaN,NaN
Raw,241477940770419,658282219000000,,,-1265581155228060647,-0.021979093551635742,55.81613368121907,-95.92522172375912,11.58294112168756,209,31,0.0,23567,393037363512255,7,37.8,352.923828125,0.04190000146627426,25,4700.706002930222,0.0021883771969841777,1.57542003E9,,,,0,,6,-3.16,1.57542003E9,413.0,NaN,NaN
Raw,241477940770419,658282219000000,,,-1265581155228060647,-0.021979093551635742,55.81613368121907,-95.92522172375912,11.58294112168756,209,33,0.0,23567,393037356415319,35,22.1,-370.9013977050781,0.8104999661445618,16,0.0,0.0,1.57542003E9,,,,0,,6,-3.16,1.57542003E9,413.0,NaN,NaN
Raw,241477940770419,658282219000000,,,-1265581155228060647,-0.021979093551635742,55.81613368121907,-95.92522172375912,11.58294112168756,209,24,0.0,81935,393037379965644,6,25.8,55.837345123291016,0.05299999937415123,29,348.6803243252131,0.25482803839368795,1.17645005E9,,,,0,,1,-15.83,1.17645005E9,413.0,NaN,NaN
Raw,241477940770419,658282219000000,,,-1265581155228060647,-0.021979093551635742,55.81613368121907,-95.92522172375912,11.58294112168756,209,32,0.0,81935,393037368730809,12,18.8,-626.8387451171875,1.0084999799728394,16,0.0,0.0,1.17645005E9,,,,0,,1,-15.83,1.17645005E9,413.0,NaN,NaN
Raw,241477940770419,658282219000000,,,-1265581155228060647,-0.021979093551635742,55.81613368121907,-95.92522172375912,11.58294112168756,209,3,0.0,81935,393037361249818,3,31.8,-340.1051940917969,0.02930000051856041,25,-1834.5209270380362,0.0027776256465907277,1.17645005E9,,,,0,,6,-15.83,1.17645005E9,413.0,NaN,NaN
Raw,241477940770419,658282219000000,,,-1265581155228060647,-0.021979093551635742,55.81613368121907,-95.92522172375912,11.58294112168756,209,24,0.0,81935,393037375035984,9,21.1,-102.22944641113281,0.06790000200271606,29,-541.2579247606836,0.34557229348499413,1.17645005E9,,,,0,,6,-15.83,1.17645005E9,413.0,NaN,NaN
Raw,241477940770419,658282219000000,,,-1265581155228060647,-0.021979093551635742,55.81613368121907,-95.92522172375912,11.58294112168756,209,31,0.0,81935,393037363519342,9,21.8,353.6630859375,0.7310000061988831,16,0.0,0.0,1.17645005E9,,,,0,,6,-15.83,1.17645005E9,413.0,NaN,NaN
Fix,gps,51.524783,-0.133979,93.902100,0.000000,4.948205,1582204221000,241478917081975
Raw,241478962236146,658283219000000,,,-1265581155228060777,-0.11656689643859863,79.11906141089275,-106.73222047744594,31.408262818571806,209,10,0.0,16399,393038368783201,46,20.5,255.34555053710938,0.9284999966621399,16,0.0,0.0,1.57542003E9,,,,0,,1,-2.98,1.57542003E9,413.0,NaN,NaN
Raw,241478962236146,658283219000000,,,-1265581155228060777,-0.11656689643859863,79.11906141089275,-106.73222047744594,31.408262818571806,209,12,0.0,16399,393038378216781,17,28.6,-420.4253234863281,0.5234999656677246,16,0.0,0.0,1.57542003E9,,,,0,,1,-2.98,1.57542003E9,413.0,NaN,NaN
Raw,241478962236146,658283219000000,,,-1265581155228060777,-0.11656689643859863,79.11906141089275,-106.73222047744594,31.408262818571806,209,17,0.0,16399,393038369614935,4,42.4,280.3496398925781,0.03160000219941139,25,4144.469655073201,5.899103906353357E-4,1.57542003E9,,,,0,,1,-2.98,1.57542003E9,413.0,NaN,NaN
Raw,241478962236146,658283219000000,,,-1265581155228060777,-0.11656689643859863,79.11906141089275,-106.73222047744594,31.408262818571806,209,19,0.0,16399,393038373855083,6,38.3,-31.7874813079834,0.038600001484155655,25,-369.31176189236913,9.324389888310735E-4,1.57542003E9,,,,0,,1,-2.98,1.57542003E9,413.0,NaN,NaN
Raw,241478962236146,658283219000000,,,-1265581155228060777,-0.11656689643859863,79.11906141089275,-106.73222047744594,31.408262818571806,209,20,0.0,16399,393038365649275,27,24.1,524.9346313476562,0.6589999794960022,16,0.0,0.0,1.57542003E9,,,,0,,1,-2.98,1.57542003E9,413.0,NaN,NaN
Raw,241478962236146,658283219000000,,,-1265581155228060777,-0.11656689643859863,79.11906141089275,-106.73222047744594,31.408262818571806,209,24,0.0,16399,393038379957658,9,35.2,51.86506652832031,0.003599999938160181,25,667.7379604373211,0.0013320557236479321,1.57542003E9,,,,0,,1,-2.98,1.57542003E9,413.0,NaN,NaN
Raw,241478962236146,658283219000000,,,-1265581155228060777,-0.11656689643859863,79.11906141089275,-106.73222047744594,31.408262818571806,209,32,0.0,16399,393038368725040,14,30.0,-631.4683837890625,0.03490000218153,25,-4290.2945798004,0.002397700231676362,1.57542003E9,,,,0,,1,-2.98,1.57542003E9,413.0,NaN,NaN
Raw,241478962236146,658283219000000,,,-1265581155228060777,-0.11656689643859863,79.11906141089275,-106.73222047744594,31.408262818571806,209,14,0.0,49359,58220371238432,27,24.0,609.7855224609375,0.8330000042915344,16,0.0,0.0,1.59806246E9,,,,0,,3,-6.83,1.59806246E9,413.0,NaN,NaN
Raw,241478962236146,658283219000000,,,-1265581155228060777,-0.11656689643859863,79.11906141089275,-106.73222047744594,31.408262818571806,209,6,0.0,49359,58220379008455,10,34.4,-97.79557800292969,0.249099999666214,25,-599.7787911672368,0.0014991965956729961,1.59975002E9,,,,0,,3,-6.83,1.59975002E9,413.0,NaN,NaN
Raw,241478962236146,658283219000000,,,-1265581155228060777,-0.11656689643859863,79.11906141089275,-106.73222047744594,31.408262818571806,209,15,0.0,49359,58220381969471,21,26.6,174.55145263671875,0.7129999995231628,16,0.0,0.0,1.602E9,,,,0,,3,-6.83,1.602E9,413.0,NaN,NaN
Raw,241478962236146,658283219000000,,,-1265581155228060777,-0.11656689643859863,79.11906141089275,-106.73222047744594,31.408262818571806,209,5,0.0,49359,58220375378194,46,20.3,685.4830932617188,1.069000005722046,16,0.0,0.0,1.60256256E9,,,,0,,3,-6.83,1.60256256E9,413.0,NaN,NaN
Raw,241478962236146,658283219000000,,,-1265581155228060777,-0.11656689643859863,79.11906141089275,-106.73222047744594,31.408262818571806,209,23,0.0,49359,58220369493841,35,22.4,480.74285888671875,0.9399999976158142,16,0.0,0.0,1.60368755E9,,,,0,,3,-6.83,1.60368755E9,413.0,NaN,NaN
Raw,241478962236146,658283219000000,,,-1265581155228060777,-0.11656689643859863,79.11906141089275,-106.73222047744594,31.408262818571806,209,17,0.0,49359,58220373199368,9,35.7,-665.2935791015625,0.23960000276565552,25,-5636.58158566304,0.001308117370550155,1.60424998E9,,,,0,,3,-6.83,1.60424998E9,413.0,NaN,NaN
Raw,241478962236146,658283219000000,,,-1265581155228060777,-0.11656689643859863,79.11906141089275,-106.73222047744594,31.408262818571806,209,7,0.0,49359,58220369610254,31,23.1,-720.9030151367188,0.8799999356269836,16,0.0,0.0,1.60481254E9,,,,0,,3,-6.83,1.60481254E9,413.0,NaN,NaN
Raw,241478962236146,658283219000000,,,-1265581155228060777,-0.11656689643859863,79.11906141089275,-106.73222047744594,31.408262818571806,209,36,0.0,16399,393024374278879,7,37.5,-50.6307487487793,0.040400002151727676,17,-372.13548146641017,0.0010178092579723537,1.56109798E9,,,,0,,5,-3.37,1.56109798E9,413.0,NaN,NaN
Raw,241478962236146,658283219000000,,,-1265581155228060777,-0.11656689643859863,79.11906141089275,-106.73222047744594,31.408262818571806,209,30,0.0,16399,393024365580872,12,32.6,-564.9528198242188,0.014100000262260437,25,-4101.73465510473,0.0018243750799829725,1.56109798E9,,,,0,,5,-3.37,1.56109798E9,413.0,NaN,NaN
Raw,241478962236146,658283219000000,,,-1265581155228060777,-0.11656689643859863,79.11906141089275,-106.73222047744594,31.408262818571806,209,27,0.0,16399,393024366579911,11,33.9,-84.98487091064453,0.03020000085234642,17,-1022.0114435451353,0.0016707435714883973,1.56109798E9,,,,0,,5,-3.37,1.56109798E9,413.0,NaN,NaN
Raw,241478962236146,658283219000000,,,-1265581155228060777,-0.11656689643859863,79.11906141089275,-106.73222047744594,31.408262818571806,209,22,0.0,16399,393024365957179,24,25.4,438.86785888671875,0.6240000128746033,16,0.0,0.0,1.56109798E9,,,,0,,5,-3.37,1.56109798E9,413.0,NaN,NaN
Raw,241478962236146,658283219000000,,,-1265581155228060777,-0.11656689643859863,79.11906141089275,-106.73222047744594,31.408262818571806,209,21,0.0,16399,393024366653535,35,22.9,-97.41258239746094,0.39079999923706055,21,-778.083275673833,0.1920394882785269,1.56109798E9,,,,0,,5,-3.37,1.56109798E9,413.0,NaN,NaN
Raw,241478962236146,658283219000000,,,-1265581155228060777,-0.11656689643859863,79.11906141089275,-106.73222047744594,31.408262818571806,209,3,0.0,23567,393038361243881,10,34.8,-345.091064453125,0.04610000178217888,25,-2218.680548682265,0.003311109885939926,1.57542003E9,,,,0,,6,-3.86,1.57542003E9,413.0,NaN,NaN
Raw,241478962236146,658283219000000,,,-1265581155228060777,-0.11656689643859863,79.11906141089275,-106.73222047744594,31.408262818571806,209,5,0.0,23567,393038365873137,16,29.2,196.82835388183594,0.049400001764297485,21,1537.6100634275222,0.006146485344343376,1.57542003E9,,,,0,,6,-3.86,1.57542003E9,413.0,NaN,NaN
Raw,241478962236146,658283219000000,,,-1265581155228060777,-0.11656689643859863,79.11906141089275,-106.73222047744594,31.408262818571806,209,9,0.0,23567,393038364446630,61,18.4,561.5946655273438,1.0205000638961792,16,0.0,0.0,1.57542003E9,,,,0,,6,-3.86,1.57542003E9,413.0,NaN,NaN
Raw,241478962236146,658283219000000,,,-1265581155228060777,-0.11656689643859863,79.11906141089275,-106.73222047744594,31.408262818571806,209,24,0.0,23567,393038375029287,14,30.5,-107.32920837402344,0.05140000209212303,25,-738.3219768037258,0.005233075867304602,1.57542003E9,,,,0,,6,-3.86,1.57542003E9,413.0,NaN,NaN
Raw,241478962236146,658283219000000,,,-1265581155228060777,-0.11656689643859863,79.11906141089275,-106.73222047744594,31.408262818571806,209,25,0.0,23567,393038359315534,35,22.3,-497.4466857910156,0.7549999952316284,16,0.0,0.0,1.57542003E9,,,,0,,6,-3.86,1.57542003E9,413.0,NaN,NaN
Raw,241478962236146,658283219000000,,,-1265581155228060777,-0.11656689643859863,79.11906141089275,-106.73222047744594,31.408262818571806,209,31,0.0,23567,393038363511099,8,36.6,348.620849609375,0.042100001126527786,25,5049.99867269073,0.0025499350854412276,1.57542003E9,,,,0,,6,-3.86,1.57542003E9,413.0,NaN,NaN
Raw,241478962236146,658283219000000,,,-1265581155228060777,-0.11656689643859863,79.11906141089275,-106.73222047744594,31.408262818571806,209,33,0.0,23567,393038356416586,31,23.5,-373.1373291015625,0.6904999613761902,16,0.0,0.0,1.57542003E9,,,,0,,6,-3.86,1.57542003E9,413.0,NaN,NaN
Raw,241478962236146,658283219000000,,,-1265581155228060777,-0.11656689643859863,79.11906141089275,-106.73222047744594,31.408262818571806,209,24,0.0,81935,393038379965467,5,28.5,51.843597412109375,0.016599999740719795,25,401.1254417329107,0.0040262828122019055,1.17645005E9,,,,0,,1,-16.22,1.17645005E9,413.0,NaN,NaN
Raw,241478962236146,658283219000000,,,-1265581155228060777,-0.11656689643859863,79.11906141089275,-106.73222047744594,31.408262818571806,209,3,0.0,81935,393038361250965,3,32.8,-344.7607116699219,0.013100000098347664,25,-2178.8789369695082,0.0024208662868967453,1.17645005E9,,,,0,,6,-16.22,1.17645005E9,413.0,NaN,NaN
Raw,241478962236146,658283219000000,,,-1265581155228060777,-0.11656689643859863,79.11906141089275,-106.73222047744594,31.408262818571806,209,24,0.0,81935,393038375036324,7,24.4,-107.95789337158203,0.6389999985694885,16,0.0,0.0,1.17645005E9,,,,0,,6,-16.22,1.17645005E9,413.0,NaN,NaN
Raw,241478962236146,658283219000000,,,-1265581155228060777,-0.11656689643859863,79.11906141089275,-106.73222047744594,31.408262818571806,209,31,0.0,81935,393038363518173,8,22.0,349.42022705078125,0.715999960899353,16,0.0,0.0,1.17645005E9,,,,0,,6,-16.22,1.17645005E9,413.0,NaN,NaN
Fix,gps,51.524786,-0.133999,92.814087,0.190000,5.339577,1582204222000,241479915366762
Raw,241479933232961,658284219000000,,,-1265581155228060914,-0.9299561977386475,69.04009205754846,-121.05947301709796,22.369909984117886,209,10,0.0,16399,393039368782414,61,18.4,258.5615234375,1.088499903678894,16,0.0,0.0,1.57542003E9,,,,0,,1,-2.8,1.57542003E9,413.0,NaN,NaN
Raw,241479933232961,658284219000000,,,-1265581155228060914,-0.9299561977386475,69.04009205754846,-121.05947301709796,22.369909984117886,209,12,0.0,16399,393039378218188,17,28.3,-415.9989318847656,0.05220000073313713,19,-4075.9697133612235,0.0030066398239606148,1.57542003E9,,,,0,,1,-2.8,1.57542003E9,413.0,NaN,NaN
Raw,241479933232961,658284219000000,,,-1265581155228060914,-0.9299561977386475,69.04009205754846,-121.05947301709796,22.369909984117886,209,17,0.0,16399,393039369614021,6,39.2,285.3420715332031,0.03230000287294388,25,4426.531938670125,8.372921387687362E-4,1.57542003E9,,,,0,,1,-2.8,1.57542003E9,413.0,NaN,NaN
Raw,241479933232961,658284219000000,,,-1265581155228060914,-0.9299561977386475,69.04009205754846,-121.05947301709796,22.369909984117886,209,19,0.0,16399,393039373855188,9,35.9,-26.79230308532715,0.03959999978542328,25,-399.36900104961205,0.0013320557236479321,1.57542003E9,,,,0,,1,-2.8,1.57542003E9,413.0,NaN,NaN
Raw,241479933232961,658284219000000,,,-1265581155228060914,-0.9299561977386475,69.04009205754846,-121.05947301709796,22.369909984117886,209,20,0.0,16399,393039365647555,24,25.7,531.2238159179688,0.6240000128746033,16,0.0,0.0,1.57542003E9,,,,0,,1,-2.8,1.57542003E9,413.0,NaN,NaN
Raw,241479933232961,658284219000000,,,-1265581155228060914,-0.9299561977386475,69.04009205754846,-121.05947301709796,22.369909984117886,209,24,0.0,16399,393039379957478,10,34.3,56.85380554199219,0.019100001081824303,25,721.2659342588504,0.0015223494237726067,1.57542003E9,,,,0,,1,-2.8,1.57542003E9,413.0,NaN,NaN
Raw,241479933232961,658284219000000,,,-1265581155228060914,-0.9299561977386475,69.04009205754846,-121.05947301709796,22.369909984117886,209,25,0.0,16399,393039369466360,46,20.0,-708.8248901367188,0.8999999761581421,16,0.0,0.0,1.57542003E9,,,,0,,1,-2.8,1.57542003E9,413.0,NaN,NaN
Raw,241479933232961,658284219000000,,,-1265581155228060914,-0.9299561977386475,69.04009205754846,-121.05947301709796,22.369909984117886,209,32,0.0,16399,393039368727151,16,29.1,-626.56884765625,0.03590000048279762,25,-4920.115036433231,0.00281634630106073,1.57542003E9,,,,0,,1,-2.8,1.57542003E9,413.0,NaN,NaN
Raw,241479933232961,658284219000000,,,-1265581155228060914,-0.9299561977386475,69.04009205754846,-121.05947301709796,22.369909984117886,209,14,0.0,49359,58221371236357,35,22.9,615.3759155273438,0.9429999589920044,16,0.0,0.0,1.59806246E9,,,,0,,3,-6.79,1.59806246E9,413.0,NaN,NaN
Raw,241479933232961,658284219000000,,,-1265581155228060914,-0.9299561977386475,69.04009205754846,-121.05947301709796,22.369909984117886,209,6,0.0,49359,58221379008795,11,33.9,-92.87189483642578,0.2646999955177307,25,-695.8887713449566,0.0016303762432539315,1.59975002E9,,,,0,,3,-6.79,1.59975002E9,413.0,NaN,NaN
Raw,241479933232961,658284219000000,,,-1265581155228060914,-0.9299561977386475,69.04009205754846,-121.05947301709796,22.369909984117886,209,15,0.0,49359,58221381968851,19,27.9,179.12579345703125,0.2273000031709671,19,2443.069151638501,0.0031813183913669513,1.602E9,,,,0,,3,-6.79,1.602E9,413.0,NaN,NaN
Raw,241479933232961,658284219000000,,,-1265581155228060914,-0.9299561977386475,69.04009205754846,-121.05947301709796,22.369909984117886,209,5,0.0,49359,58221375375836,53,19.9,688.8035888671875,1.1389999389648438,16,0.0,0.0,1.60256256E9,,,,0,,3,-6.79,1.60256256E9,413.0,NaN,NaN
Raw,241479933232961,658284219000000,,,-1265581155228060914,-0.9299561977386475,69.04009205754846,-121.05947301709796,22.369909984117886,209,23,0.0,49359,58221369492148,27,24.8,482.8132629394531,0.254800021648407,19,3675.66373168461,0.1869394431765222,1.60368755E9,,,,0,,3,-6.79,1.60368755E9,413.0,NaN,NaN
