# 
# Header Description:
# 
# Version: v2.0.0.1 Platform: 10 Manufacturer: Google Model: Pixel 4
# 
# Raw,ElapsedRealtimeNanos,TimeNanos,LeapSecond,TimeUncertaintyNanos,FullBiasNanos,BiasNanos,BiasUncertaintyNanos,DriftNanosPerSecond,DriftUncertaintyNanosPerSecond,HardwareClockDiscontinuityCount,Svid,TimeOffsetNanos,State,ReceivedSvTimeNanos,ReceivedSvTimeUncertaintyNanos,Cn0DbHz,PseudorangeRateMetersPerSecond,PseudorangeRateUncertaintyMetersPerSecond,AccumulatedDeltaRangeState,AccumulatedDeltaRangeMeters,AccumulatedDeltaRangeUncertaintyMeters,CarrierFrequencyHz,CarrierCycles,CarrierPhase,CarrierPhaseUncertainty,MultipathIndicator,SnrInDb,ConstellationType,AgcDb,CarrierFrequencyHz,UserLatitude,UserLongitude,UserAltitude
# 
# Fix,Provider,Latitude,Longitude,Altitude,Speed,Accuracy,(UTC)TimeInMs,ElapsedRealtimeNanos
# 
# Nav,Svid,Type,Status,MessageId,Sub-messageId,Data(Bytes)
# 
Fix,gps,51.524762,-0.134034,76.893127,0.000000,3.790092,1582203998000,241255916088718
Raw,241255931014865,658060206000000,,,-1265581155229301489,-0.3829822540283203,35.023040254600346,10.100737121496023,11.505355314842511,204,10,0.0,16399,392815357231988,40,21.6,270.94012451171875,0.871999979019165,16,0.0,0.0,1.57542003E9,,,,0,,1,0.44,1.57542003E9,412.0,NaN,NaN
Raw,241255931014865,658060206000000,,,-1265581155229301489,-0.3829822540283203,35.023040254600346,10.100737121496023,11.505355314842511,204,12,0.0,16399,392815366163280,6,38.1,-403.24462890625,0.013100000098347664,25,-7058.5651011162,9.324389888310735E-4,1.57542003E9,,,,0,,1,0.44,1.57542003E9,412.0,NaN,NaN
Raw,241255931014865,658060206000000,,,-1265581155229301489,-0.3829822540283203,35.023040254600346,10.100737121496023,11.505355314842511,204,15,0.0,16399,392815357765816,14,30.5,690.2665405273438,0.04840000346302986,25,36873.38186102827,0.002397700231676362,1.57542003E9,,,,0,,1,0.44,1.57542003E9,412.0,NaN,NaN
Raw,241255931014865,658060206000000,,,-1265581155229301489,-0.3829822540283203,35.023040254600346,10.100737121496023,11.505355314842511,204,17,0.0,16399,392815358082553,16,29.5,296.5627746582031,0.05090000107884407,25,15667.886537707647,0.00281634630106073,1.57542003E9,,,,0,,1,0.44,1.57542003E9,412.0,NaN,NaN
Raw,241255931014865,658060206000000,,,-1265581155229301489,-0.3829822540283203,35.023040254600346,10.100737121496023,11.505355314842511,204,19,0.0,16399,392815362087366,4,42.7,-23.938587188720703,0.006100000347942114,25,-1568.6205551346234,5.899103906353357E-4,1.57542003E9,,,,0,,1,0.44,1.57542003E9,412.0,NaN,NaN
Raw,241255931014865,658060206000000,,,-1265581155229301489,-0.3829822540283203,35.023040254600346,10.100737121496023,11.505355314842511,204,24,0.0,16399,392815368256309,6,38.2,71.05521392822266,0.03110000118613243,25,3584.5492161777684,9.324389888310735E-4,1.57542003E9,,,,0,,1,0.44,1.57542003E9,412.0,NaN,NaN
Raw,241255931014865,658060206000000,,,-1265581155229301489,-0.3829822540283203,35.023040254600346,10.100737121496023,11.505355314842511,204,25,0.0,16399,392815357196898,9,35.2,-683.7030639648438,0.04560000076889992,25,-36657.136614973635,0.0013320557236479321,1.57542003E9,,,,0,,1,0.44,1.57542003E9,412.0,NaN,NaN
Raw,241255931014865,658060206000000,,,-1265581155229301489,-0.3829822540283203,35.023040254600346,10.100737121496023,11.505355314842511,204,14,0.0,49359,57997359958473,46,20.3,645.7198486328125,2.5450000762939453,16,0.0,0.0,1.59806246E9,,,,0,,3,-0.86,1.59806246E9,412.0,NaN,NaN
Raw,241255931014865,658060206000000,,,-1265581155229301489,-0.3829822540283203,35.023040254600346,10.100737121496023,11.505355314842511,204,6,0.0,49359,57997367188845,14,30.6,-97.13397216796875,0.2184000015258789,25,-4762.839263811997,0.0023612345291040655,1.59975002E9,,,,0,,3,-0.86,1.59975002E9,412.0,NaN,NaN
Raw,241255931014865,658060206000000,,,-1265581155229301489,-0.3829822540283203,35.023040254600346,10.100737121496023,11.505355314842511,204,16,0.0,49359,57997366120767,19,27.6,-468.884765625,0.21979999542236328,21,-24804.954179861164,0.0031824359389086444,1.60143744E9,,,,0,,3,-0.86,1.60143744E9,412.0,NaN,NaN
Raw,241255931014865,658060206000000,,,-1265581155229301489,-0.3829822540283203,35.023040254600346,10.100737121496023,11.505355314842511,204,15,0.0,49359,57997370359565,9,35.6,194.47756958007812,0.23510000109672546,25,10146.278729721393,0.001309954600983276,1.602E9,,,,0,,3,-0.86,1.602E9,412.0,NaN,NaN
Raw,241255931014865,658060206000000,,,-1265581155229301489,-0.3829822540283203,35.023040254600346,10.100737121496023,11.505355314842511,204,5,0.0,49359,57997364148073,7,37.4,704.2874145507812,0.21040000021457672,25,36103.88811359674,9.91474542321254E-4,1.60256256E9,,,,0,,3,-0.86,1.60256256E9,412.0,NaN,NaN
Raw,241255931014865,658060206000000,,,-1265581155229301489,-0.3829822540283203,35.023040254600346,10.100737121496023,11.505355314842511,204,23,0.0,49359,57997358108087,80,16.8,491.24884033203125,2.8935000896453857,16,0.0,0.0,1.60368755E9,,,,0,,3,-0.86,1.60368755E9,412.0,NaN,NaN
Raw,241255931014865,658060206000000,,,-1265581155229301489,-0.3829822540283203,35.023040254600346,10.100737121496023,11.505355314842511,204,17,0.0,49359,57997360964055,31,23.6,-646.8932495117188,0.2962000072002411,19,-33547.92729099745,0.1868739043104145,1.60424998E9,,,,0,,3,-0.86,1.60424998E9,412.0,NaN,NaN
Raw,241255931014865,658060206000000,,,-1265581155229301489,-0.3829822540283203,35.023040254600346,10.100737121496023,11.505355314842511,204,36,0.0,16399,392801362503547,6,39.8,-25.395153045654297,0.006800000090152025,25,-1532.5925177068148,8.449737438469402E-4,1.56109798E9,,,,0,,5,0.34,1.56109798E9,412.0,NaN,NaN
Raw,241255931014865,658060206000000,,,-1265581155229301489,-0.3829822540283203,35.023040254600346,10.100737121496023,11.505355314842511,204,30,0.0,16399,392801353423663,7,37.6,-537.5612182617188,0.03890000283718109,25,-28917.359264505878,0.0010178092579723537,1.56109798E9,,,,0,,5,0.34,1.56109798E9,412.0,NaN,NaN
Raw,241255931014865,658060206000000,,,-1265581155229301489,-0.3829822540283203,35.023040254600346,10.100737121496023,11.505355314842511,204,27,0.0,16399,392801354775237,13,31.7,-70.17044067382812,0.04310000315308571,25,-3995.2029506693266,0.0020932304434118673,1.56109798E9,,,,0,,5,0.34,1.56109798E9,412.0,NaN,NaN
Raw,241255931014865,658060206000000,,,-1265581155229301489,-0.3829822540283203,35.023040254600346,10.100737121496023,11.505355314842511,204,22,0.0,16399,392801354545638,27,24.3,462.5411376953125,0.062300004065036774,21,23664.953669591527,0.1920394882785269,1.56109798E9,,,,0,,5,0.34,1.56109798E9,412.0,NaN,NaN
Raw,241255931014865,658060206000000,,,-1265581155229301489,-0.3829822540283203,35.023040254600346,10.100737121496023,11.505355314842511,204,21,0.0,16399,392801354839060,14,30.9,-83.12109375,0.04390000179409981,25,-4502.521883703755,0.0024196975554572116,1.56109798E9,,,,0,,5,0.34,1.56109798E9,412.0,NaN,NaN
Raw,241255931014865,658060206000000,,,-1265581155229301489,-0.3829822540283203,35.023040254600346,10.100737121496023,11.505355314842511,204,8,0.0,16399,392801299869183,17,28.9,-323.1580505371094,0.008700000122189522,17,-16759.53731613198,0.003034223768286223,1.56109798E9,,,,0,,5,0.34,1.56109798E9,412.0,NaN,NaN
Raw,241255931014865,658060206000000,,,-1265581155229301489,-0.3829822540283203,35.023040254600346,10.100737121496023,11.505355314842511,204,3,0.0,23567,392815349248782,16,29.8,-321.6495666503906,0.049400001764297485,25,-17064.665632525765,0.006146485344343376,1.57542003E9,,,,0,,6,0.43,1.57542003E9,412.0,NaN,NaN
Raw,241255931014865,658060206000000,,,-1265581155229301489,-0.3829822540283203,35.023040254600346,10.100737121496023,11.505355314842511,204,5,0.0,23567,392815354280251,16,29.9,217.6544189453125,0.05090000107884407,27,998.5489326253729,0.006146485344343376,1.57542003E9,,,,0,,6,0.43,1.57542003E9,412.0,NaN,NaN
Raw,241255931014865,658060206000000,,,-1265581155229301489,-0.3829822540283203,35.023040254600346,10.100737121496023,11.505355314842511,204,9,0.0,23567,392815353128994,12,32.0,594.3629760742188,0.0471000038087368,25,31690.638152098465,0.003958108324583987,1.57542003E9,,,,0,,6,0.43,1.57542003E9,412.0,NaN,NaN
Raw,241255931014865,658060206000000,,,-1265581155229301489,-0.3829822540283203,35.023040254600346,10.100737121496023,11.505355314842511,204,24,0.0,23567,392815363212387,16,29.2,-80.52842712402344,0.052400000393390656,25,-3946.9606725761773,0.006146485344343376,1.57542003E9,,,,0,,6,0.43,1.57542003E9,412.0,NaN,NaN
Raw,241255931014865,658060206000000,,,-1265581155229301489,-0.3829822540283203,35.023040254600346,10.100737121496023,11.505355314842511,204,25,0.0,23567,392815347210379,35,22.8,-465.1062927246094,0.7549999952316284,16,0.0,0.0,1.57542003E9,,,,0,,6,0.43,1.57542003E9,412.0,NaN,NaN
Raw,241255931014865,658060206000000,,,-1265581155229301489,-0.3829822540283203,35.023040254600346,10.100737121496023,11.505355314842511,204,31,0.0,23567,392815352035735,6,38.7,381.50885009765625,0.04310000315308571,25,20290.70794990015,0.0020551716777868216,1.57542003E9,,,,0,,6,0.43,1.57542003E9,412.0,NaN,NaN
Raw,241255931014865,658060206000000,,,-1265581155229301489,-0.3829822540283203,35.023040254600346,10.100737121496023,11.505355314842511,204,33,0.0,23567,392815344400135,24,25.4,-350.2247314453125,0.05730000138282776,27,-1245.4880608644382,0.017526047264890512,1.57542003E9,,,,0,,6,0.43,1.57542003E9,412.0,NaN,NaN
Raw,241255931014865,658060206000000,,,-1265581155229301489,-0.3829822540283203,35.023040254600346,10.100737121496023,11.505355314842511,204,24,0.0,81935,392815368264113,5,28.2,71.01551818847656,0.045099999755620956,25,3143.1252453099155,0.0040262828122019055,1.17645005E9,,,,0,,1,-8.25,1.17645005E9,412.0,NaN,NaN
Raw,241255931014865,658060206000000,,,-1265581155229301489,-0.3829822540283203,35.023040254600346,10.100737121496023,11.505355314842511,204,25,0.0,81935,392815357204724,4,29.7,-683.7139892578125,0.05650000274181366,25,-31793.052732924407,0.0037714549693657518,1.17645005E9,,,,0,,1,-8.25,1.17645005E9,412.0,NaN,NaN
Raw,241255931014865,658060206000000,,,-1265581155229301489,-0.3829822540283203,35.023040254600346,10.100737121496023,11.505355314842511,204,3,0.0,81935,392815349255887,6,26.1,-323.0552673339844,0.05560000240802765,29,-15361.89765602925,0.007288081858568245,1.17645005E9,,,,0,,6,-8.25,1.17645005E9,412.0,NaN,NaN
Raw,241255931014865,658060206000000,,,-1265581155229301489,-0.3829822540283203,35.023040254600346,10.100737121496023,11.505355314842511,204,5,0.0,81935,392815354287368,5,27.2,217.52325439453125,0.05700000375509262,29,10159.4064163797,0.004332076888121183,1.17645005E9,,,,0,,6,-8.25,1.17645005E9,412.0,NaN,NaN
Raw,241255931014865,658060206000000,,,-1265581155229301489,-0.3829822540283203,35.023040254600346,10.100737121496023,11.505355314842511,204,9,0.0,81935,392815353136072,3,32.7,594.505615234375,0.04610000178217888,25,28051.225684812922,0.0024208662868967453,1.17645005E9,,,,0,,6,-8.25,1.17645005E9,412.0,NaN,NaN
Raw,241255931014865,658060206000000,,,-1265581155229301489,-0.3829822540283203,35.023040254600346,10.100737121496023,11.505355314842511,204,24,0.0,81935,392815363219413,6,25.0,-80.4057388305664,0.04399999976158142,29,-3925.8512287700214,0.010753742989341824,1.17645005E9,,,,0,,6,-8.25,1.17645005E9,412.0,NaN,NaN
Raw,241255931014865,658060206000000,,,-1265581155229301489,-0.3829822540283203,35.023040254600346,10.100737121496023,11.505355314842511,204,25,0.0,81935,392815347217458,11,19.5,-465.4306945800781,0.9120000004768372,16,0.0,0.0,1.17645005E9,,,,0,,6,-8.25,1.17645005E9,412.0,NaN,NaN
Raw,241255931014865,658060206000000,,,-1265581155229301489,-0.3829822540283203,35.023040254600346,10.100737121496023,11.505355314842511,204,31,0.0,81935,392815352042825,8,23.5,381.51934814453125,0.05220000073313713,25,17966.118467547905,0.34557229348499413,1.17645005E9,,,,0,,6,-8.25,1.17645005E9,412.0,NaN,NaN
Fix,gps,51.524762,-0.134032,76.989136,0.000000,3.790092,1582203999000,241256927395798
Raw,241256946590956,658061206000000,,,-1265581155229301476,-0.03154182434082031,34.604789107106626,11.00176888819968,11.501107730899017,204,12,0.0,16399,392816366164649,8,36.6,-402.78302001953125,0.028600001707673073,25,-7461.789494782947,0.001160791358090767,1.57542003E9,,,,0,,1,0.7,1.57542003E9,412.0,NaN,NaN
Raw,241256946590956,658061206000000,,,-1265581155229301476,-0.03154182434082031,34.604789107106626,11.00176888819968,11.501107730899017,204,15,0.0,16399,392816357763555,17,28.1,690.6287841796875,0.050700001418590546,25,37563.62768749073,0.0030066398239606148,1.57542003E9,,,,0,,1,0.7,1.57542003E9,412.0,NaN,NaN
Raw,241256946590956,658061206000000,,,-1265581155229301476,-0.03154182434082031,34.604789107106626,11.00176888819968,11.501107730899017,204,17,0.0,16399,392816358081559,16,29.2,297.0370178222656,0.05090000107884407,25,15964.50523406582,0.00281634630106073,1.57542003E9,,,,0,,1,0.7,1.57542003E9,412.0,NaN,NaN
Raw,241256946590956,658061206000000,,,-1265581155229301476,-0.03154182434082031,34.604789107106626,11.00176888819968,11.501107730899017,204,19,0.0,16399,392816362087449,5,41.7,-23.404560089111328,0.006300000008195639,25,-1592.5069297162104,6.850571963914755E-4,1.57542003E9,,,,0,,1,0.7,1.57542003E9,412.0,NaN,NaN
Raw,241256946590956,658061206000000,,,-1265581155229301476,-0.03154182434082031,34.604789107106626,11.00176888819968,11.501107730899017,204,24,0.0,16399,392816368256076,6,38.1,71.49034881591797,0.03110000118613243,25,3655.61208554149,9.324389888310735E-4,1.57542003E9,,,,0,,1,0.7,1.57542003E9,412.0,NaN,NaN
Raw,241256946590956,658061206000000,,,-1265581155229301476,-0.03154182434082031,34.604789107106626,11.00176888819968,11.501107730899017,204,25,0.0,16399,392816357199175,8,36.6,-683.31689453125,0.045100003480911255,25,-37340.84737315274,0.001160791358090767,1.57542003E9,,,,0,,1,0.7,1.57542003E9,412.0,NaN,NaN
Raw,241256946590956,658061206000000,,,-1265581155229301476,-0.03154182434082031,34.604789107106626,11.00176888819968,11.501107730899017,204,28,0.0,16399,392816349367243,139,12.3,629.18701171875,9.99000072479248,16,0.0,0.0,1.57542003E9,,,,0,,1,0.7,1.57542003E9,412.0,NaN,NaN
Raw,241256946590956,658061206000000,,,-1265581155229301476,-0.03154182434082031,34.604789107106626,11.00176888819968,11.501107730899017,204,14,0.0,49359,57998359956412,31,23.4,646.1105346679688,0.2946999967098236,27,34474.68283385775,0.18759745926927673,1.59806246E9,,,,0,,3,-0.71,1.59806246E9,412.0,NaN,NaN
Raw,241256946590956,658061206000000,,,-1265581155229301476,-0.03154182434082031,34.604789107106626,11.00176888819968,11.501107730899017,204,6,0.0,49359,57998367189187,13,31.5,-96.60454559326172,0.23260000348091125,25,-4859.8998621567,0.002042655285247825,1.59975002E9,,,,0,,3,-0.71,1.59975002E9,412.0,NaN,NaN
Raw,241256946590956,658061206000000,,,-1265581155229301476,-0.03154182434082031,34.604789107106626,11.00176888819968,11.501107730899017,204,16,0.0,49359,57998366122311,19,27.2,-468.45697021484375,0.23480001091957092,25,-25273.758346539667,0.0031824359389086444,1.60143744E9,,,,0,,3,-0.71,1.60143744E9,412.0,NaN,NaN
Raw,241256946590956,658061206000000,,,-1265581155229301476,-0.03154182434082031,34.604789107106626,11.00176888819968,11.501107730899017,204,15,0.0,49359,57998370358899,8,36.0,194.93133544921875,0.2346000075340271,25,10340.790489407913,0.001141531809306292,1.602E9,,,,0,,3,-0.71,1.602E9,412.0,NaN,NaN
Raw,241256946590956,658061206000000,,,-1265581155229301476,-0.03154182434082031,34.604789107106626,11.00176888819968,11.501107730899017,204,5,0.0,49359,57998364145721,7,37.1,704.7393188476562,0.21040000021457672,25,36808.17806045789,9.91474542321254E-4,1.60256256E9,,,,0,,3,-0.71,1.60256256E9,412.0,NaN,NaN
Raw,241256946590956,658061206000000,,,-1265581155229301476,-0.03154182434082031,34.604789107106626,11.00176888819968,11.501107730899017,204,23,0.0,49359,57998358106701,35,22.7,492.068359375,0.6087999939918518,27,23179.738384499797,0.1869394431765222,1.60368755E9,,,,0,,3,-0.71,1.60368755E9,412.0,NaN,NaN
Raw,241256946590956,658061206000000,,,-1265581155229301476,-0.03154182434082031,34.604789107106626,11.00176888819968,11.501107730899017,204,17,0.0,49359,57998360966423,46,20.9,-646.0511474609375,1.031499981880188,16,0.0,0.0,1.60424998E9,,,,0,,3,-0.71,1.60424998E9,412.0,NaN,NaN
Raw,241256946590956,658061206000000,,,-1265581155229301476,-0.03154182434082031,34.604789107106626,11.00176888819968,11.501107730899017,204,36,0.0,16399,392802362503636,5,40.9,-24.959720611572266,0.006599999964237213,25,-1557.9865943456116,7.489539839688142E-4,1.56109798E9,,,,0,,5,0.56,1.56109798E9,412.0,NaN,NaN
Raw,241256946590956,658061206000000,,,-1265581155229301476,-0.03154182434082031,34.604789107106626,11.00176888819968,11.501107730899017,204,30,0.0,16399,392802353425447,8,36.2,-537.1434326171875,0.039100002497434616,25,-29454.91425100937,0.0011714408558922843,1.56109798E9,,,,0,,5,0.56,1.56109798E9,412.0,NaN,NaN
Raw,241256946590956,658061206000000,,,-1265581155229301476,-0.03154182434082031,34.604789107106626,11.00176888819968,11.501107730899017,204,27,0.0,16399,392802354775498,13,31.6,-69.68781280517578,0.04310000315308571,25,-4065.325957875155,0.0020932304434118673,1.56109798E9,,,,0,,5,0.56,1.56109798E9,412.0,NaN,NaN
Raw,241256946590956,658061206000000,,,-1265581155229301476,-0.03154182434082031,34.604789107106626,11.00176888819968,11.501107730899017,204,22,0.0,16399,392802354544130,16,29.2,462.9661865234375,0.04490000009536743,17,24127.493817581395,0.0028421844273806814,1.56109798E9,,,,0,,5,0.56,1.56109798E9,412.0,NaN,NaN
Raw,241256946590956,658061206000000,,,-1265581155229301476,-0.03154182434082031,34.604789107106626,11.00176888819968,11.501107730899017,204,21,0.0,16399,392802354839293,11,33.9,-82.68093872070312,0.0422000028192997,25,-4585.622273393037,0.0016707435714883973,1.56109798E9,,,,0,,5,0.56,1.56109798E9,412.0,NaN,NaN
Raw,241256946590956,658061206000000,,,-1265581155229301476,-0.03154182434082031,34.604789107106626,11.00176888819968,11.501107730899017,204,8,0.0,16399,392802299870256,19,27.5,-322.7771911621094,0.00930000003427267,17,-17082.712901451512,0.0032646714781548623,1.56109798E9,,,,0,,5,0.56,1.56109798E9,412.0,NaN,NaN
Raw,241256946590956,658061206000000,,,-1265581155229301476,-0.03154182434082031,34.604789107106626,11.00176888819968,11.501107730899017,204,3,0.0,23567,392816349249881,13,31.0,-321.3013000488281,0.047600001096725464,25,-17386.325114256546,0.004528989424958011,1.57542003E9,,,,0,,6,0.61,1.57542003E9,412.0,NaN,NaN
Raw,241256946590956,658061206000000,,,-1265581155229301476,-0.03154182434082031,34.604789107106626,11.00176888819968,11.501107730899017,204,5,0.0,23567,392816354279521,12,32.4,217.92771911621094,0.048600003123283386,25,1216.100138364303,0.003958108324583987,1.57542003E9,,,,0,,6,0.61,1.57542003E9,412.0,NaN,NaN
Raw,241256946590956,658061206000000,,,-1265581155229301476,-0.03154182434082031,34.604789107106626,11.00176888819968,11.501107730899017,204,9,0.0,23567,392816353127039,14,30.6,594.6417236328125,0.04840000346302986,25,32284.937303853774,0.005233075867304602,1.57542003E9,,,,0,,6,0.61,1.57542003E9,412.0,NaN,NaN
Raw,241256946590956,658061206000000,,,-1265581155229301476,-0.03154182434082031,34.604789107106626,11.00176888819968,11.501107730899017,204,24,0.0,23567,392816363212647,13,31.6,-80.16687774658203,0.05060000345110893,25,-4027.4740103355166,0.004528989424958011,1.57542003E9,,,,0,,6,0.61,1.57542003E9,412.0,NaN,NaN
Raw,241256946590956,658061206000000,,,-1265581155229301476,-0.03154182434082031,34.604789107106626,11.00176888819968,11.501107730899017,204,25,0.0,23567,392816347211885,35,22.9,-464.9540710449219,0.7549999952316284,16,0.0,0.0,1.57542003E9,,,,0,,6,0.61,1.57542003E9,412.0,NaN,NaN
Raw,241256946590956,658061206000000,,,-1265581155229301476,-0.03154182434082031,34.604789107106626,11.00176888819968,11.501107730899017,204,31,0.0,23567,392816352034472,7,37.8,381.8695983886719,0.04340000078082085,25,20672.19861534138,0.0021883771969841777,1.57542003E9,,,,0,,6,0.61,1.57542003E9,412.0,NaN,NaN
Raw,241256946590956,658061206000000,,,-1265581155229301476,-0.03154182434082031,34.604789107106626,11.00176888819968,11.501107730899017,204,33,0.0,23567,392816344401313,24,25.0,-349.90130615234375,0.05730000138282776,21,-1595.7823993724508,0.017526047264890512,1.57542003E9,,,,0,,6,0.61,1.57542003E9,412.0,NaN,NaN
Raw,241256946590956,658061206000000,,,-1265581155229301476,-0.03154182434082031,34.604789107106626,11.00176888819968,11.501107730899017,204,24,0.0,81935,392816368263880,3,31.1,71.51740264892578,0.0398000031709671,25,3214.1947139943777,0.0027776256465907277,1.17645005E9,,,,0,,1,-2.26,1.17645005E9,412.0,NaN,NaN
Raw,241256946590956,658061206000000,,,-1265581155229301476,-0.03154182434082031,34.604789107106626,11.00176888819968,11.501107730899017,204,25,0.0,81935,392816357207005,3,31.8,-683.3076782226562,0.053300000727176666,25,-32476.75517877306,0.0027776256465907277,1.17645005E9,,,,0,,1,-2.26,1.17645005E9,412.0,NaN,NaN
Raw,241256946590956,658061206000000,,,-1265581155229301476,-0.03154182434082031,34.604789107106626,11.00176888819968,11.501107730899017,204,3,0.0,81935,392816349256958,3,31.1,-321.2470397949219,0.04130000248551369,25,-15683.514901533963,0.0027776256465907277,1.17645005E9,,,,0,,6,-2.26,1.17645005E9,412.0,NaN,NaN
Raw,241256946590956,658061206000000,,,-1265581155229301476,-0.03154182434082031,34.604789107106626,11.00176888819968,11.501107730899017,204,5,0.0,81935,392816354286643,3,31.4,218.0516815185547,0.04880000278353691,25,10376.973424156065,0.0027776256465907277,1.17645005E9,,,,0,,6,-2.26,1.17645005E9,412.0,NaN,NaN
Raw,241256946590956,658061206000000,,,-1265581155229301476,-0.03154182434082031,34.604789107106626,11.00176888819968,11.501107730899017,204,9,0.0,81935,392816353134087,3,33.4,594.7615356445312,0.04500000178813934,25,28645.523073140535,0.0022170039651624013,1.17645005E9,,,,0,,6,-2.26,1.17645005E9,412.0,NaN,NaN
Raw,241256946590956,658061206000000,,,-1265581155229301476,-0.03154182434082031,34.604789107106626,11.00176888819968,11.501107730899017,204,24,0.0,81935,392816363219684,6,26.2,-80.01321411132812,0.031599998474121094,25,-4006.3470528221055,0.007288081858568245,1.17645005E9,,,,0,,6,-2.26,1.17645005E9,412.0,NaN,NaN
Raw,241256946590956,658061206000000,,,-1265581155229301476,-0.03154182434082031,34.604789107106626,11.00176888819968,11.501107730899017,204,25,0.0,81935,392816347219009,12,18.4,-464.6087646484375,0.05590000003576279,27,-22544.12676386133,0.25482803839368795,1.17645005E9,,,,0,,6,-2.26,1.17645005E9,412.0,NaN,NaN
Raw,241256946590956,658061206000000,,,-1265581155229301476,-0.03154182434082031,34.604789107106626,11.00176888819968,11.501107730899017,204,31,0.0,81935,392816352041550,4,29.9,381.9173583984375,0.049000002443790436,25,18347.614691876926,0.0037714549693657518,1.17645005E9,,,,0,,6,-2.26,1.17645005E9,412.0,NaN,NaN
Fix,gps,51.524761,-0.134031,77.179565,0.000000,3.790092,1582204000000,241257917348709
Raw,241257934725013,658062206000000,,,-1265581155229301466,-0.13717079162597656,35.44753053574823,12.100675557758358,12.437523836190557,204,12,0.0,16399,392817366166038,13,31.8,-402.00689697265625,0.016100000590085983,25,-7863.9870655562145,0.002074201012354331,1.57542003E9,,,,0,,1,0.72,1.57542003E9,412.0,NaN,NaN
Raw,241257934725013,658062206000000,,,-1265581155229301466,-0.13717079162597656,35.44753053574823,12.100675557758358,12.437523836190557,204,15,0.0,16399,392817357761260,24,25.4,691.7039184570312,0.058800000697374344,21,38254.86778099553,0.19029366893311156,1.57542003E9,,,,0,,1,0.72,1.57542003E9,412.0,NaN,NaN
Raw,241257934725013,658062206000000,,,-1265581155229301466,-0.13717079162597656,35.44753053574823,12.100675557758358,12.437523836190557,204,17,0.0,16399,392817358080579,13,31.1,297.7747802734375,0.04910000041127205,25,16262.12825486777,0.002074201012354331,1.57542003E9,,,,0,,1,0.72,1.57542003E9,412.0,NaN,NaN
Raw,241257934725013,658062206000000,,,-1265581155229301466,-0.13717079162597656,35.44753053574823,12.100675557758358,12.437523836190557,204,19,0.0,16399,392817362087534,6,39.9,-22.682735443115234,0.006800000090152025,25,-1615.3280897992113,8.372921387687362E-4,1.57542003E9,,,,0,,1,0.72,1.57542003E9,412.0,NaN,NaN
Raw,241257934725013,658062206000000,,,-1265581155229301466,-0.13717079162597656,35.44753053574823,12.100675557758358,12.437523836190557,204,24,0.0,16399,392817368255834,7,37.5,72.21688079833984,0.03140000253915787,25,3727.6778712078694,0.0010085564157135064,1.57542003E9,,,,0,,1,0.72,1.57542003E9,412.0,NaN,NaN
Raw,241257934725013,658062206000000,,,-1265581155229301466,-0.13717079162597656,35.44753053574823,12.100675557758358,12.437523836190557,204,25,0.0,16399,392817357201472,8,36.5,-682.6331787109375,0.045100003480911255,25,-38023.58889760203,0.001160791358090767,1.57542003E9,,,,0,,1,0.72,1.57542003E9,412.0,NaN,NaN
Raw,241257934725013,658062206000000,,,-1265581155229301466,-0.13717079162597656,35.44753053574823,12.100675557758358,12.437523836190557,204,14,0.0,49359,57999359954181,16,29.1,646.7543334960938,0.20740000903606415,21,35121.25286944176,0.0027764423980239216,1.59806246E9,,,,0,,3,-0.71,1.59806246E9,412.0,NaN,NaN
Raw,241257934725013,658062206000000,,,-1265581155229301466,-0.13717079162597656,35.44753053574823,12.100675557758358,12.437523836190557,204,6,0.0,49359,57999367189457,10,34.2,-95.78996276855469,0.23110000789165497,25,-4955.894074939596,0.0014991965956729961,1.59975002E9,,,,0,,3,-0.71,1.59975002E9,412.0,NaN,NaN
Raw,241257934725013,658062206000000,,,-1265581155229301466,-0.13717079162597656,35.44753053574823,12.100675557758358,12.437523836190557,204,16,0.0,49359,57999366123973,21,26.2,-467.78253173828125,0.2206999957561493,21,-25741.778026612345,0.005353980141953307,1.60143744E9,,,,0,,3,-0.71,1.60143744E9,412.0,NaN,NaN
Raw,241257934725013,658062206000000,,,-1265581155229301466,-0.13717079162597656,35.44753053574823,12.100675557758358,12.437523836190557,204,15,0.0,49359,57999370358270,11,33.7,195.6381378173828,0.2362000048160553,25,10536.265804771614,0.0016280864052631069,1.602E9,,,,0,,3,-0.71,1.602E9,412.0,NaN,NaN
Raw,241257934725013,658062206000000,,,-1265581155229301466,-0.13717079162597656,35.44753053574823,12.100675557758358,12.437523836190557,204,5,0.0,49359,57999364143364,8,36.4,705.4775390625,0.21060000360012054,25,37513.50093634239,0.0011411310885165566,1.60256256E9,,,,0,,3,-0.71,1.60256256E9,412.0,NaN,NaN
Raw,241257934725013,658062206000000,,,-1265581155229301466,-0.13717079162597656,35.44753053574823,12.100675557758358,12.437523836190557,204,23,0.0,49359,57999358105292,40,21.4,492.8658447265625,1.0134999752044678,16,0.0,0.0,1.60368755E9,,,,0,,3,-0.71,1.60368755E9,412.0,NaN,NaN
Raw,241257934725013,658062206000000,,,-1265581155229301466,-0.13717079162597656,35.44753053574823,12.100675557758358,12.437523836190557,204,17,0.0,49359,57999360968423,40,21.7,-646.0137329101562,0.9714999794960022,16,0.0,0.0,1.60424998E9,,,,0,,3,-0.71,1.60424998E9,412.0,NaN,NaN
Raw,241257934725013,658062206000000,,,-1265581155229301466,-0.13717079162597656,35.44753053574823,12.100675557758358,12.437523836190557,204,36,0.0,16399,392803362503723,5,40.0,-24.287141799926758,0.006599999964237213,25,-1582.4089781133748,7.489539839688142E-4,1.56109798E9,,,,0,,5,0.51,1.56109798E9,412.0,NaN,NaN
Raw,241257934725013,658062206000000,,,-1265581155229301466,-0.13717079162597656,35.44753053574823,12.100675557758358,12.437523836190557,204,30,0.0,16399,392803353427260,8,36.9,-536.4259643554688,0.039100002497434616,25,-29991.47081157565,0.0011714408558922843,1.56109798E9,,,,0,,5,0.51,1.56109798E9,412.0,NaN,NaN
Raw,241257934725013,658062206000000,,,-1265581155229301466,-0.13717079162597656,35.44753053574823,12.100675557758358,12.437523836190557,204,27,0.0,16399,392803354775710,12,32.9,-68.95572662353516,0.04260000213980675,25,-4134.445099706622,0.0018243750799829725,1.56109798E9,,,,0,,5,0.51,1.56109798E9,412.0,NaN,NaN
Raw,241257934725013,658062206000000,,,-1265581155229301466,-0.13717079162597656,35.44753053574823,12.100675557758358,12.437523836190557,204,22,0.0,16399,392803354542575,14,30.6,463.7530517578125,0.04390000179409981,25,24591.095378704482,0.0024196975554572116,1.56109798E9,,,,0,,5,0.51,1.56109798E9,412.0,NaN,NaN
Raw,241257934725013,658062206000000,,,-1265581155229301466,-0.13717079162597656,35.44753053574823,12.100675557758358,12.437523836190557,204,21,0.0,16399,392803354839644,9,35.3,-81.9688491821289,0.04110000282526016,25,-4667.742577642636,0.0013442764594430532,1.56109798E9,,,,0,,5,0.51,1.56109798E9,412.0,NaN,NaN
Raw,241257934725013,658062206000000,,,-1265581155229301466,-0.13717079162597656,35.44753053574823,12.100675557758358,12.437523836190557,204,8,0.0,16399,392803299871376,21,26.1,-322.1020202636719,0.010200000368058681,25,-17404.937889970814,0.005492329335005111,1.56109798E9,,,,0,,5,0.51,1.56109798E9,412.0,NaN,NaN
Raw,241257934725013,658062206000000,,,-1265581155229301466,-0.13717079162597656,35.44753053574823,12.100675557758358,12.437523836190557,204,3,0.0,23567,392817349250932,11,33.4,-320.50543212890625,0.04670000076293945,25,-17707.002000736444,0.003596550258902148,1.57542003E9,,,,0,,6,0.67,1.57542003E9,412.0,NaN,NaN
Raw,241257934725013,658062206000000,,,-1265581155229301466,-0.13717079162597656,35.44753053574823,12.100675557758358,12.437523836190557,204,5,0.0,23567,392817354278818,13,31.5,218.74826049804688,0.04910000041127205,25,1434.6856332307727,0.004528989424958011,1.57542003E9,,,,0,,6,0.67,1.57542003E9,412.0,NaN,NaN
Raw,241257934725013,658062206000000,,,-1265581155229301466,-0.13717079162597656,35.44753053574823,12.100675557758358,12.437523836190557,204,9,0.0,23567,392817353125029,16,29.9,595.4188842773438,0.049400001764297485,25,32880.22874779311,0.006146485344343376,1.57542003E9,,,,0,,6,0.67,1.57542003E9,412.0,NaN,NaN
Raw,241257934725013,658062206000000,,,-1265581155229301466,-0.13717079162597656,35.44753053574823,12.100675557758358,12.437523836190557,204,24,0.0,23567,392817363212897,11,33.2,-79.37574768066406,0.04970000311732292,25,-4107.013104574672,0.003596550258902148,1.57542003E9,,,,0,,6,0.67,1.57542003E9,412.0,NaN,NaN
Raw,241257934725013,658062206000000,,,-1265581155229301466,-0.13717079162597656,35.44753053574823,12.100675557758358,12.437523836190557,204,31,0.0,23567,392817352033196,7,37.4,382.5677185058594,0.04340000078082085,25,21054.64298144802,0.0021883771969841777,1.57542003E9,,,,0,,6,0.67,1.57542003E9,412.0,NaN,NaN
Raw,241257934725013,658062206000000,,,-1265581155229301466,-0.13717079162597656,35.44753053574823,12.100675557758358,12.437523836190557,204,33,0.0,23567,392817344402502,53,19.2,-348.9605407714844,0.9404999613761902,16,0.0,0.0,1.57542003E9,,,,0,,6,0.67,1.57542003E9,412.0,NaN,NaN
Raw,241257934725013,658062206000000,,,-1265581155229301466,-0.13717079162597656,35.44753053574823,12.100675557758358,12.437523836190557,204,24,0.0,81935,392817368263640,3,31.2,72.21552276611328,0.0398000031709671,25,3286.228321260872,0.0027776256465907277,1.17645005E9,,,,0,,1,-4.25,1.17645005E9,412.0,NaN,NaN
Raw,241257934725013,658062206000000,,,-1265581155229301466,-0.13717079162597656,35.44753053574823,12.100675557758358,12.437523836190557,204,25,0.0,81935,392817357209289,4,29.5,-682.617431640625,0.05650000274181366,29,-33159.50232999494,0.0037714549693657518,1.17645005E9,,,,0,,1,-4.25,1.17645005E9,412.0,NaN,NaN
Raw,241257934725013,658062206000000,,,-1265581155229301466,-0.13717079162597656,35.44753053574823,12.100675557758358,12.437523836190557,204,3,0.0,81935,392817349258029,3,31.9,-320.54095458984375,0.04130000248551369,25,-16004.208411556938,0.0027776256465907277,1.17645005E9,,,,0,,6,-4.25,1.17645005E9,412.0,NaN,NaN
Raw,241257934725013,658062206000000,,,-1265581155229301466,-0.13717079162597656,35.44753053574823,12.100675557758358,12.437523836190557,204,5,0.0,81935,392817354285906,3,32.9,218.74745178222656,0.047600001096725464,29,10595.541332430392,0.0024208662868967453,1.17645005E9,,,,0,,6,-4.25,1.17645005E9,412.0,NaN,NaN
Raw,241257934725013,658062206000000,,,-1265581155229301466,-0.13717079162597656,35.44753053574823,12.100675557758358,12.437523836190557,204,9,0.0,81935,392817353132096,3,31.6,595.4063720703125,0.047300003468990326,25,29240.808196350685,0.0027776256465907277,1.17645005E9,,,,0,,6,-4.25,1.17645005E9,412.0,NaN,NaN
Raw,241257934725013,658062206000000,,,-1265581155229301466,-0.13717079162597656,35.44753053574823,12.100675557758358,12.437523836190557,204,24,0.0,81935,392817363219955,6,25.9,-79.41517639160156,0.04399999976158142,29,-4085.9036728732485,0.010753742989341824,1.17645005E9,,,,0,,6,-4.25,1.17645005E9,412.0,NaN,NaN
Raw,241257934725013,658062206000000,,,-1265581155229301466,-0.13717079162597656,35.44753053574823,12.100675557758358,12.437523836190557,204,25,0.0,81935,392817347220578,10,20.1,-463.9069519042969,0.047200001776218414,25,-23008.16937584635,0.25482803839368795,1.17645005E9,,,,0,,6,-4.25,1.17645005E9,412.0,NaN,NaN
Raw,241257934725013,658062206000000,,,-1265581155229301466,-0.13717079162597656,35.44753053574823,12.100675557758358,12.437523836190557,204,31,0.0,81935,392817352040269,4,29.6,382.6340637207031,0.049000002443790436,29,18730.058457708685,0.0037714549693657518,1.17645005E9,,,,0,,6,-4.25,1.17645005E9,412.0,NaN,NaN
Fix,gps,51.524760,-0.134031,77.260132,0.000000,3.790092,1582204001000,241258914830371
Raw,241258930712612,658063206000000,,,-1265581155229301454,-0.067230224609375,34.8638859577477,14.242335853048296,12.446799172556963,204,12,0.0,16399,392818366167300,10,34.7,-401.7270202636719,0.029600001871585846,25,-8265.88591974136,0.0015223494237726067,1.57542003E9,,,,0,,1,0.67,1.57542003E9,412.0,NaN,NaN
Raw,241258930712612,658063206000000,,,-1265581155229301454,-0.067230224609375,34.8638859577477,14.242335853048296,12.446799172556963,204,15,0.0,16399,392818357758813,16,29.2,691.5643920898438,0.049400001764297485,21,38946.61684029883,0.00281634630106073,1.57542003E9,,,,0,,1,0.67,1.57542003E9,412.0,NaN,NaN
Raw,241258930712612,658063206000000,,,-1265581155229301454,-0.067230224609375,34.8638859577477,14.242335853048296,12.446799172556963,204,17,0.0,16399,392818358079530,14,30.7,298.12347412109375,0.04990000277757645,25,16560.034001823416,0.002397700231676362,1.57542003E9,,,,0,,1,0.67,1.57542003E9,412.0,NaN,NaN
Raw,241258930712612,658063206000000,,,-1265581155229301454,-0.067230224609375,34.8638859577477,14.242335853048296,12.446799172556963,204,19,0.0,16399,392818362087592,5,41.0,-22.284225463867188,0.006300000008195639,25,-1637.8670430121979,6.850571963914755E-4,1.57542003E9,,,,0,,1,0.67,1.57542003E9,412.0,NaN,NaN
Raw,241258930712612,658063206000000,,,-1265581155229301454,-0.067230224609375,34.8638859577477,14.242335853048296,12.446799172556963,204,20,0.0,16399,392818354298503,35,22.5,557.0194702148438,0.37279999256134033,19,253.0101798227796,0.19029366893311156,1.57542003E9,,,,0,,1,0.67,1.57542003E9,412.0,NaN,NaN
Raw,241258930712612,658063206000000,,,-1265581155229301454,-0.067230224609375,34.8638859577477,14.242335853048296,12.446799172556963,204,24,0.0,16399,392818368255561,5,41.3,72.5238265991211,0.030300000682473183,25,3800.0037431362416,6.850571963914755E-4,1.57542003E9,,,,0,,1,0.67,1.57542003E9,412.0,NaN,NaN
Raw,241258930712612,658063206000000,,,-1265581155229301454,-0.067230224609375,34.8638859577477,14.242335853048296,12.446799172556963,204,25,0.0,16399,392818357203712,12,32.5,-682.3924560546875,0.0471000038087368,25,-38706.172655507515,0.001807789796734829,1.57542003E9,,,,0,,1,0.67,1.57542003E9,412.0,NaN,NaN
Raw,241258930712612,658063206000000,,,-1265581155229301454,-0.067230224609375,34.8638859577477,14.242335853048296,12.446799172556963,204,32,0.0,16399,392818356524115,31,23.2,-603.0881958007812,1.4704999923706055,16,0.0,0.0,1.57542003E9,,,,0,,1,0.67,1.57542003E9,412.0,NaN,NaN
Raw,241258930712612,658063206000000,,,-1265581155229301454,-0.067230224609375,34.8638859577477,14.242335853048296,12.446799172556963,204,14,0.0,49359,58000359952024,21,26.5,647.0257568359375,0.2101999968290329,29,35768.16166245383,0.005365287306028947,1.59806246E9,,,,0,,3,-0.7,1.59806246E9,412.0,NaN,NaN
Raw,241258930712612,658063206000000,,,-1265581155229301454,-0.067230224609375,34.8638859577477,14.242335853048296,12.446799172556963,204,6,0.0,49359,58000367189803,12,32.4,-95.39144897460938,0.2321000099182129,25,-5051.549779238223,0.0017802958155565083,1.59975002E9,,,,0,,3,-0.7,1.59975002E9,412.0,NaN,NaN
Raw,241258930712612,658063206000000,,,-1265581155229301454,-0.067230224609375,34.8638859577477,14.242335853048296,12.446799172556963,204,16,0.0,49359,58000366125502,40,21.2,-467.8180236816406,0.9954999685287476,16,0.0,0.0,1.60143744E9,,,,0,,3,-0.7,1.60143744E9,412.0,NaN,NaN
Raw,241258930712612,658063206000000,,,-1265581155229301454,-0.067230224609375,34.8638859577477,14.242335853048296,12.446799172556963,204,15,0.0,49359,58000370357657,10,34.8,195.95046997070312,0.23560000956058502,25,10732.01134090011,0.0014970909974500758,1.602E9,,,,0,,3,-0.7,1.602E9,412.0,NaN,NaN
Raw,241258930712612,658063206000000,,,-1265581155229301454,-0.067230224609375,34.8638859577477,14.242335853048296,12.446799172556963,204,5,0.0,49359,58000364141089,9,35.3,705.81494140625,0.22609999775886536,25,38219.108867386465,0.0013094947574310036,1.60256256E9,,,,0,,3,-0.7,1.60256256E9,412.0,NaN,NaN
Raw,241258930712612,658063206000000,,,-1265581155229301454,-0.067230224609375,34.8638859577477,14.242335853048296,12.446799172556963,204,23,0.0,49359,58000358103489,19,27.4,493.151611328125,0.25280001759529114,27,24165.454771830246,0.0031779707067089934,1.60368755E9,,,,0,,3,-0.7,1.60368755E9,412.0,NaN,NaN
Raw,241258930712612,658063206000000,,,-1265581155229301454,-0.067230224609375,34.8638859577477,14.242335853048296,12.446799172556963,204,7,0.0,49359,58000357341728,92,15.3,-697.9349365234375,3.7320003509521484,16,0.0,0.0,1.60481254E9,,,,0,,3,-0.7,1.60481254E9,412.0,NaN,NaN
Raw,241258930712612,658063206000000,,,-1265581155229301454,-0.067230224609375,34.8638859577477,14.242335853048296,12.446799172556963,204,36,0.0,16399,392804362503818,6,38.6,-23.97877311706543,0.022100001573562622,25,-1606.5983517903005,9.409935037250662E-4,1.56109798E9,,,,0,,5,0.56,1.56109798E9,412.0,NaN,NaN
Raw,241258930712612,658063206000000,,,-1265581155229301454,-0.067230224609375,34.8638859577477,14.242335853048296,12.446799172556963,204,30,0.0,16399,392804353429050,6,38.2,-536.1486206054688,0.038600001484155655,25,-30527.804304546655,9.409935037250662E-4,1.56109798E9,,,,0,,5,0.56,1.56109798E9,412.0,NaN,NaN
Raw,241258930712612,658063206000000,,,-1265581155229301454,-0.067230224609375,34.8638859577477,14.242335853048296,12.446799172556963,204,27,0.0,16399,392804354775870,13,31.4,-68.61971282958984,0.04310000315308571,25,-4203.280329373675,0.0020932304434118673,1.56109798E9,,,,0,,5,0.56,1.56109798E9,412.0,NaN,NaN
Raw,241258930712612,658063206000000,,,-1265581155229301454,-0.067230224609375,34.8638859577477,14.242335853048296,12.446799172556963,204,22,0.0,16399,392804354540994,16,29.8,464.00140380859375,0.04490000009536743,25,25054.899754734357,0.0028421844273806814,1.56109798E9,,,,0,,5,0.56,1.56109798E9,412.0,NaN,NaN
Raw,241258930712612,658063206000000,,,-1265581155229301454,-0.067230224609375,34.8638859577477,14.242335853048296,12.446799172556963,204,21,0.0,16399,392804354839900,8,36.0,-81.61016082763672,0.0406000018119812,25,-4749.581028709674,0.0011714408558922843,1.56109798E9,,,,0,,5,0.56,1.56109798E9,412.0,NaN,NaN
Raw,241258930712612,658063206000000,,,-1265581155229301454,-0.067230224609375,34.8638859577477,14.242335853048296,12.446799172556963,204,8,0.0,16399,392804299872440,27,24.8,-321.8480224609375,0.024800000712275505,25,-17726.946352718856,0.1920394882785269,1.56109798E9,,,,0,,5,0.56,1.56109798E9,412.0,NaN,NaN
Raw,241258930712612,658063206000000,,,-1265581155229301454,-0.067230224609375,34.8638859577477,14.242335853048296,12.446799172556963,204,3,0.0,23567,392818349252016,11,33.0,-320.3102111816406,0.04670000076293945,25,-18027.465143883786,0.003596550258902148,1.57542003E9,,,,0,,6,0.61,1.57542003E9,412.0,NaN,NaN
Raw,241258930712612,658063206000000,,,-1265581155229301454,-0.067230224609375,34.8638859577477,14.242335853048296,12.446799172556963,204,5,0.0,23567,392818354278156,17,28.8,219.0363311767578,0.05220000073313713,25,1653.5441059390846,0.006565131413727744,1.57542003E9,,,,0,,6,0.61,1.57542003E9,412.0,NaN,NaN
Raw,241258930712612,658063206000000,,,-1265581155229301454,-0.067230224609375,34.8638859577477,14.242335853048296,12.446799172556963,204,9,0.0,23567,392818353123054,14,30.5,595.616943359375,0.04840000346302986,25,33475.73199961807,0.005233075867304602,1.57542003E9,,,,0,,6,0.61,1.57542003E9,412.0,NaN,NaN
Raw,241258930712612,658063206000000,,,-1265581155229301454,-0.067230224609375,34.8638859577477,14.242335853048296,12.446799172556963,204,24,0.0,23567,392818363213145,9,35.4,-79.16084289550781,0.048600003123283386,25,-4186.317996282605,0.0028924638165555576,1.57542003E9,,,,0,,6,0.61,1.57542003E9,412.0,NaN,NaN
Raw,241258930712612,658063206000000,,,-1265581155229301454,-0.067230224609375,34.8638859577477,14.242335853048296,12.446799172556963,204,31,0.0,23567,392818352031896,6,39.4,382.785400390625,0.04280000180006027,25,21437.27292990185,0.0018458486430946374,1.57542003E9,,,,0,,6,0.61,1.57542003E9,412.0,NaN,NaN
Raw,241258930712612,658063206000000,,,-1265581155229301454,-0.067230224609375,34.8638859577477,14.242335853048296,12.446799172556963,204,33,0.0,23567,392818344403629,31,23.6,-348.2469482421875,0.6904999613761902,16,0.0,0.0,1.57542003E9,,,,0,,6,0.61,1.57542003E9,412.0,NaN,NaN
Raw,241258930712612,658063206000000,,,-1265581155229301454,-0.067230224609375,34.8638859577477,14.242335853048296,12.446799172556963,204,24,0.0,81935,392818368263411,4,29.8,72.5236587524414,0.0430000014603138,25,3358.5712126568433,0.0037714549693657518,1.17645005E9,,,,0,,1,-4.25,1.17645005E9,412.0,NaN,NaN
Raw,241258930712612,658063206000000,,,-1265581155229301454,-0.067230224609375,34.8638859577477,14.242335853048296,12.446799172556963,204,25,0.0,81935,392818357211565,6,26.7,-682.3352661132812,0.06760000437498093,29,-33842.0408129205,0.007288081858568245,1.17645005E9,,,,0,,1,-4.25,1.17645005E9,412.0,NaN,NaN
Raw,241258930712612,658063206000000,,,-1265581155229301454,-0.067230224609375,34.8638859577477,14.242335853048296,12.446799172556963,204,3,0.0,81935,392818349259097,3,32.5,-320.3194274902344,0.04010000079870224,25,-16324.674364552635,0.0024208662868967453,1.17645005E9,,,,0,,6,-4.25,1.17645005E9,412.0,NaN,NaN
Raw,241258930712612,658063206000000,,,-1265581155229301454,-0.067230224609375,34.8638859577477,14.242335853048296,12.446799172556963,204,5,0.0,81935,392818354285173,3,33.5,218.97340393066406,0.04650000110268593,25,10814.370263834464,0.0022170039651624013,1.17645005E9,,,,0,,6,-4.25,1.17645005E9,412.0,NaN,NaN
Raw,241258930712612,658063206000000,,,-1265581155229301454,-0.067230224609375,34.8638859577477,14.242335853048296,12.446799172556963,204,9,0.0,81935,392818353130106,3,32.6,595.4967651367188,0.04610000178217888,25,29836.290229865,0.0024208662868967453,1.17645005E9,,,,0,,6,-4.25,1.17645005E9,412.0,NaN,NaN
Raw,241258930712612,658063206000000,,,-1265581155229301454,-0.067230224609375,34.8638859577477,14.242335853048296,12.446799172556963,204,24,0.0,81935,392818363220222,7,24.0,-79.21682739257812,0.07959999889135361,29,-4165.185680890957,0.0411037634920868,1.17645005E9,,,,0,,6,-4.25,1.17645005E9,412.0,NaN,NaN
Raw,241258930712612,658063206000000,,,-1265581155229301454,-0.067230224609375,34.8638859577477,14.242335853048296,12.446799172556963,204,25,0.0,81935,392818347222123,8,23.1,-463.6353454589844,0.04470000043511391,25,-23472.020637669502,0.25482803839368795,1.17645005E9,,,,0,,6,-4.25,1.17645005E9,412.0,NaN,NaN
Raw,241258930712612,658063206000000,,,-1265581155229301454,-0.067230224609375,34.8638859577477,14.242335853048296,12.446799172556963,204,31,0.0,81935,392818352038992,3,32.0,382.7277526855469,0.044600002467632294,25,19112.687111570605,0.0024208662868967453,1.17645005E9,,,,0,,6,-4.25,1.17645005E9,412.0,NaN,NaN
Fix,gps,51.524760,-0.134031,77.303833,0.000000,3.790092,1582204002000,241259919154846
Raw,241259938068077,658064206000000,,,-1265581155229301441,-0.7588710784912109,37.04702976392582,14.949634528763196,12.440954668830932,204,12,0.0,16399,392819366168632,8,36.6,-402.20477294921875,0.028600001707673073,25,-8667.785036338008,0.001160791358090767,1.57542003E9,,,,0,,1,0.62,1.57542003E9,412.0,NaN,NaN
Raw,241259938068077,658064206000000,,,-1265581155229301441,-0.7588710784912109,37.04702976392582,14.949634528763196,12.440954668830932,204,15,0.0,16399,392819357756554,17,28.8,691.0875854492188,0.050700001418590546,17,39638.015906819266,0.0030066398239606148,1.57542003E9,,,,0,,1,0.62,1.57542003E9,412.0,NaN,NaN
Raw,241259938068077,658064206000000,,,-1265581155229301441,-0.7588710784912109,37.04702976392582,14.949634528763196,12.440954668830932,204,17,0.0,16399,392819358078519,17,28.9,297.6740417480469,0.05220000073313713,25,16858.00792307908,0.0030066398239606148,1.57542003E9,,,,0,,1,0.62,1.57542003E9,412.0,NaN,NaN
Raw,241259938068077,658064206000000,,,-1265581155229301441,-0.7588710784912109,37.04702976392582,14.949634528763196,12.440954668830932,204,19,0.0,16399,392819362087657,5,41.5,-22.683523178100586,0.021300001069903374,25,-1660.2861167161968,6.850571963914755E-4,1.57542003E9,,,,0,,1,0.62,1.57542003E9,412.0,NaN,NaN
Raw,241259938068077,658064206000000,,,-1265581155229301441,-0.7588710784912109,37.04702976392582,14.949634528763196,12.440954668830932,204,24,0.0,16399,392819368255332,5,41.3,72.06697845458984,0.030300000682473183,25,3872.3687190955966,6.850571963914755E-4,1.57542003E9,,,,0,,1,0.62,1.57542003E9,412.0,NaN,NaN
Raw,241259938068077,658064206000000,,,-1265581155229301441,-0.7588710784912109,37.04702976392582,14.949634528763196,12.440954668830932,204,25,0.0,16399,392819357205980,14,30.7,-682.8811645507812,0.04840000346302986,25,-39388.731786001306,0.002397700231676362,1.57542003E9,,,,0,,1,0.62,1.57542003E9,412.0,NaN,NaN
Raw,241259938068077,658064206000000,,,-1265581155229301441,-0.7588710784912109,37.04702976392582,14.949634528763196,12.440954668830932,204,32,0.0,16399,392819356526073,35,22.8,-603.2042236328125,0.4058000147342682,19,-1482.4813832516606,0.19029366893311156,1.57542003E9,,,,0,,1,0.62,1.57542003E9,412.0,NaN,NaN
Raw,241259938068077,658064206000000,,,-1265581155229301441,-0.7588710784912109,37.04702976392582,14.949634528763196,12.440954668830932,204,14,0.0,49359,58001359949775,35,22.0,646.5077514648438,0.9099999666213989,16,0.0,0.0,1.59806246E9,,,,0,,3,-0.73,1.59806246E9,412.0,NaN,NaN
Raw,241259938068077,658064206000000,,,-1265581155229301441,-0.7588710784912109,37.04702976392582,14.949634528763196,12.440954668830932,204,6,0.0,49359,58001367190159,11,33.1,-95.76549530029297,0.23170000314712524,25,-5147.056819132329,0.0016303762432539315,1.59975002E9,,,,0,,3,-0.73,1.59975002E9,412.0,NaN,NaN
Raw,241259938068077,658064206000000,,,-1265581155229301441,-0.7588710784912109,37.04702976392582,14.949634528763196,12.440954668830932,204,16,0.0,49359,58001366127077,35,22.4,-467.6214599609375,0.9354999661445618,16,0.0,0.0,1.60143744E9,,,,0,,3,-0.73,1.60143744E9,412.0,NaN,NaN
Raw,241259938068077,658064206000000,,,-1265581155229301441,-0.7588710784912109,37.04702976392582,14.949634528763196,12.440954668830932,204,15,0.0,49359,58001370357022,9,35.5,195.49411010742188,0.23510000109672546,25,10927.800712005053,0.001309954600983276,1.602E9,,,,0,,3,-0.73,1.602E9,412.0,NaN,NaN
Raw,241259938068077,658064206000000,,,-1265581155229301441,-0.7588710784912109,37.04702976392582,14.949634528763196,12.440954668830932,204,5,0.0,49359,58001364138691,9,35.1,705.2967529296875,0.22609999775886536,25,38924.72481726801,0.0013094947574310036,1.60256256E9,,,,0,,3,-0.73,1.60256256E9,412.0,NaN,NaN
Raw,241259938068077,658064206000000,,,-1265581155229301441,-0.7588710784912109,37.04702976392582,14.949634528763196,12.440954668830932,204,23,0.0,49359,58001358101878,17,28.8,492.7275695800781,0.25220000743865967,25,24658.48603865059,0.002953643059565574,1.60368755E9,,,,0,,3,-0.73,1.60368755E9,412.0,NaN,NaN
Raw,241259938068077,658064206000000,,,-1265581155229301441,-0.7588710784912109,37.04702976392582,14.949634528763196,12.440954668830932,204,17,0.0,49359,58001360972727,53,19.4,-646.1725463867188,1.8515000343322754,16,0.0,0.0,1.60424998E9,,,,0,,3,-0.73,1.60424998E9,412.0,NaN,NaN
Raw,241259938068077,658064206000000,,,-1265581155229301441,-0.7588710784912109,37.04702976392582,14.949634528763196,12.440954668830932,204,7,0.0,49359,58001357344209,70,17.6,-698.392578125,1.3020000457763672,16,0.0,0.0,1.60481254E9,,,,0,,3,-0.73,1.60481254E9,412.0,NaN,NaN
Raw,241259938068077,658064206000000,,,-1265581155229301441,-0.7588710784912109,37.04702976392582,14.949634528763196,12.440954668830932,204,36,0.0,16399,392805362503896,6,38.4,-24.493085861206055,0.022100001573562622,25,-1630.7684535810802,9.409935037250662E-4,1.56109798E9,,,,0,,5,0.56,1.56109798E9,412.0,NaN,NaN
Raw,241259938068077,658064206000000,,,-1265581155229301441,-0.7588710784912109,37.04702976392582,14.949634528763196,12.440954668830932,204,30,0.0,16399,392805353430848,6,38.0,-536.6844482421875,0.038600001484155655,25,-31064.1646132983,9.409935037250662E-4,1.56109798E9,,,,0,,5,0.56,1.56109798E9,412.0,NaN,NaN
Raw,241259938068077,658064206000000,,,-1265581155229301441,-0.7588710784912109,37.04702976392582,14.949634528763196,12.440954668830932,204,27,0.0,16399,392805354776128,14,30.2,-69.04984283447266,0.04390000179409981,25,-4272.042734819191,0.0024196975554572116,1.56109798E9,,,,0,,5,0.56,1.56109798E9,412.0,NaN,NaN
Raw,241259938068077,658064206000000,,,-1265581155229301441,-0.7588710784912109,37.04702976392582,14.949634528763196,12.440954668830932,204,22,0.0,16399,392805354539520,24,25.7,463.66949462890625,0.05430000275373459,21,25518.846180803845,0.1920394882785269,1.56109798E9,,,,0,,5,0.56,1.56109798E9,412.0,NaN,NaN
Raw,241259938068077,658064206000000,,,-1265581155229301441,-0.7588710784912109,37.04702976392582,14.949634528763196,12.440954668830932,204,21,0.0,16399,392805354840183,9,35.7,-82.02975463867188,0.04110000282526016,25,-4831.315962659513,0.0013442764594430532,1.56109798E9,,,,0,,5,0.56,1.56109798E9,412.0,NaN,NaN
Raw,241259938068077,658064206000000,,,-1265581155229301441,-0.7588710784912109,37.04702976392582,14.949634528763196,12.440954668830932,204,8,0.0,16399,392805299873479,31,23.2,-322.44879150390625,0.10970000177621841,21,-18049.024776218477,0.1920394882785269,1.56109798E9,,,,0,,5,0.56,1.56109798E9,412.0,NaN,NaN
Raw,241259938068077,658064206000000,,,-1265581155229301441,-0.7588710784912109,37.04702976392582,14.949634528763196,12.440954668830932,204,3,0.0,23567,392819349253069,11,33.1,-320.6368103027344,0.04670000076293945,25,-18347.85290838973,0.003596550258902148,1.57542003E9,,,,0,,6,0.55,1.57542003E9,412.0,NaN,NaN
Raw,241259938068077,658064206000000,,,-1265581155229301441,-0.7588710784912109,37.04702976392582,14.949634528763196,12.440954668830932,204,5,0.0,23567,392819354277401,16,29.0,218.60003662109375,0.05090000107884407,25,1872.3986259502212,0.006146485344343376,1.57542003E9,,,,0,,6,0.55,1.57542003E9,412.0,NaN,NaN
Raw,241259938068077,658064206000000,,,-1265581155229301441,-0.7588710784912109,37.04702976392582,14.949634528763196,12.440954668830932,204,9,0.0,23567,392819353121057,13,31.4,595.1281127929688,0.047600001096725464,25,34071.1502504395,0.004528989424958011,1.57542003E9,,,,0,,6,0.55,1.57542003E9,412.0,NaN,NaN
Raw,241259938068077,658064206000000,,,-1265581155229301441,-0.7588710784912109,37.04702976392582,14.949634528763196,12.440954668830932,204,24,0.0,23567,392819363213420,10,34.8,-79.55485534667969,0.04910000041127205,25,-4265.601351147928,0.003311109885939926,1.57542003E9,,,,0,,6,0.55,1.57542003E9,412.0,NaN,NaN
Raw,241259938068077,658064206000000,,,-1265581155229301441,-0.7588710784912109,37.04702976392582,14.949634528763196,12.440954668830932,204,25,0.0,23567,392819347216701,80,16.4,-463.6505126953125,2.695000171661377,16,0.0,0.0,1.57542003E9,,,,0,,6,0.55,1.57542003E9,412.0,NaN,NaN
Raw,241259938068077,658064206000000,,,-1265581155229301441,-0.7588710784912109,37.04702976392582,14.949634528763196,12.440954668830932,204,31,0.0,23567,392819352030622,6,39.2,382.3655700683594,0.04280000180006027,25,21819.915434466617,0.0018458486430946374,1.57542003E9,,,,0,,6,0.55,1.57542003E9,412.0,NaN,NaN
Raw,241259938068077,658064206000000,,,-1265581155229301441,-0.7588710784912109,37.04702976392582,14.949634528763196,12.440954668830932,204,33,0.0,23567,392819344404797,31,23.0,-349.2079162597656,0.750499963760376,16,0.0,0.0,1.57542003E9,,,,0,,6,0.55,1.57542003E9,412.0,NaN,NaN
Raw,241259938068077,658064206000000,,,-1265581155229301441,-0.7588710784912109,37.04702976392582,14.949634528763196,12.440954668830932,204,10,0.0,81935,392819357236358,23,13.9,272.8443908691406,5.147000312805176,16,0.0,0.0,1.17645005E9,,,,0,,1,-3.15,1.17645005E9,412.0,NaN,NaN
Raw,241259938068077,658064206000000,,,-1265581155229301441,-0.7588710784912109,37.04702976392582,14.949634528763196,12.440954668830932,204,24,0.0,81935,392819368263171,4,29.0,72.03118896484375,0.0430000014603138,25,3430.9341381664776,0.0037714549693657518,1.17645005E9,,,,0,,1,-3.15,1.17645005E9,412.0,NaN,NaN
Raw,241259938068077,658064206000000,,,-1265581155229301441,-0.7588710784912109,37.04702976392582,14.949634528763196,12.440954668830932,204,25,0.0,81935,392819357213841,5,27.8,-682.904541015625,0.061500001698732376,25,-34524.627905330315,0.004332076888121183,1.17645005E9,,,,0,,1,-3.15,1.17645005E9,412.0,NaN,NaN
Raw,241259938068077,658064206000000,,,-1265581155229301441,-0.7588710784912109,37.04702976392582,14.949634528763196,12.440954668830932,204,3,0.0,81935,392819349260163,3,32.2,-321.0247802734375,0.04010000079870224,25,-16645.076365331362,0.0024208662868967453,1.17645005E9,,,,0,,6,-3.15,1.17645005E9,412.0,NaN,NaN
Raw,241259938068077,658064206000000,,,-1265581155229301441,-0.7588710784912109,37.04702976392582,14.949634528763196,12.440954668830932,204,5,0.0,81935,392819354284439,3,33.3,218.25689697265625,0.04650000110268593,25,11033.232905019098,0.0022170039651624013,1.17645005E9,,,,0,,6,-3.15,1.17645005E9,412.0,NaN,NaN
Raw,241259938068077,658064206000000,,,-1265581155229301441,-0.7588710784912109,37.04702976392582,14.949634528763196,12.440954668830932,204,9,0.0,81935,392819353128121,3,32.4,594.7672119140625,0.04610000178217888,25,30431.70244011915,0.0024208662868967453,1.17645005E9,,,,0,,6,-3.15,1.17645005E9,412.0,NaN,NaN
Raw,241259938068077,658064206000000,,,-1265581155229301441,-0.7588710784912109,37.04702976392582,14.949634528763196,12.440954668830932,204,24,0.0,81935,392819363220484,7,24.8,-79.8818588256836,0.07959999889135361,29,-4244.479047254814,0.0411037634920868,1.17645005E9,,,,0,,6,-3.15,1.17645005E9,412.0,NaN,NaN
Raw,241259938068077,658064206000000,,,-1265581155229301441,-0.7588710784912109,37.04702976392582,14.949634528763196,12.440954668830932,204,25,0.0,81935,392819347223659,8,22.7,-464.3187561035156,0.047200001776218414,29,-23935.881636156137,0.25482803839368795,1.17645005E9,,,,0,,6,-3.15,1.17645005E9,412.0,NaN,NaN
Raw,241259938068077,658064206000000,,,-1265581155229301441,-0.7588710784912109,37.04702976392582,14.949634528763196,12.440954668830932,204,31,0.0,81935,392819352037719,3,31.1,381.9902648925781,0.04580000042915344,25,19495.322705331484,0.0027776256465907277,1.17645005E9,,,,0,,6,-3.15,1.17645005E9,412.0,NaN,NaN
Fix,gps,51.524760,-0.134031,77.335083,0.000000,3.790092,1582204003000,241260916191247
Raw,241260935332030,658065206000000,,,-1265581155229301431,-0.7452907562255859,36.59735375549644,13.29574256525818,11.48385415785013,204,12,0.0,16399,392820366169992,10,34.8,-401.4081115722656,0.029600001871585846,25,-9069.705581996333,0.0015223494237726067,1.57542003E9,,,,0,,1,0.72,1.57542003E9,412.0,NaN,NaN
Raw,241260935332030,658065206000000,,,-1265581155229301431,-0.7452907562255859,36.59735375549644,13.29574256525818,11.48385415785013,204,15,0.0,16399,392820357754254,16,29.9,691.8121948242188,0.049400001764297485,25,40329.42684535389,0.00281634630106073,1.57542003E9,,,,0,,1,0.72,1.57542003E9,412.0,NaN,NaN
Raw,241260935332030,658065206000000,,,-1265581155229301431,-0.7452907562255859,36.59735375549644,13.29574256525818,11.48385415785013,204,17,0.0,16399,392820358077628,16,29.2,298.47894287109375,0.05090000107884407,25,17155.972629659944,0.00281634630106073,1.57542003E9,,,,0,,1,0.72,1.57542003E9,412.0,NaN,NaN
Raw,241260935332030,658065206000000,,,-1265581155229301431,-0.7452907562255859,36.59735375549644,13.29574256525818,11.48385415785013,204,19,0.0,16399,392820362087732,5,41.7,-21.84832763671875,0.021300001069903374,25,-1682.6687857238721,6.850571963914755E-4,1.57542003E9,,,,0,,1,0.72,1.57542003E9,412.0,NaN,NaN
Raw,241260935332030,658065206000000,,,-1265581155229301431,-0.7452907562255859,36.59735375549644,13.29574256525818,11.48385415785013,204,24,0.0,16399,392820368255081,5,40.9,72.8442611694336,0.03060000203549862,25,3944.701684954019,7.42145288706399E-4,1.57542003E9,,,,0,,1,0.72,1.57542003E9,412.0,NaN,NaN
Raw,241260935332030,658065206000000,,,-1265581155229301431,-0.7452907562255859,36.59735375549644,13.29574256525818,11.48385415785013,204,25,0.0,16399,392820357208272,13,31.9,-682.1463012695312,0.047600001096725464,25,-40071.334382040564,0.002074201012354331,1.57542003E9,,,,0,,1,0.72,1.57542003E9,412.0,NaN,NaN
Raw,241260935332030,658065206000000,,,-1265581155229301431,-0.7452907562255859,36.59735375549644,13.29574256525818,11.48385415785013,204,32,0.0,16399,392820356528124,31,23.5,-603.1016845703125,0.13520000874996185,21,-2085.921391448701,0.19029366893311156,1.57542003E9,,,,0,,1,0.72,1.57542003E9,412.0,NaN,NaN
Raw,241260935332030,658065206000000,,,-1265581155229301431,-0.7452907562255859,36.59735375549644,13.29574256525818,11.48385415785013,204,14,0.0,49359,58002359947730,24,25.1,647.1853637695312,0.2168000042438507,27,37061.62175815405,0.18759745926927673,1.59806246E9,,,,0,,3,-0.63,1.59806246E9,412.0,NaN,NaN
Raw,241260935332030,658065206000000,,,-1265581155229301431,-0.7452907562255859,36.59735375549644,13.29574256525818,11.48385415785013,204,6,0.0,49359,58002367190450,11,33.9,-94.94083404541016,0.23170000314712524,25,-5242.533356045041,0.0016303762432539315,1.59975002E9,,,,0,,3,-0.63,1.59975002E9,412.0,NaN,NaN
Raw,241260935332030,658065206000000,,,-1265581155229301431,-0.7452907562255859,36.59735375549644,13.29574256525818,11.48385415785013,204,16,0.0,49359,58002366128736,40,21.1,-467.2096252441406,0.9954999685287476,16,0.0,0.0,1.60143744E9,,,,0,,3,-0.63,1.60143744E9,412.0,NaN,NaN
Raw,241260935332030,658065206000000,,,-1265581155229301431,-0.7452907562255859,36.59735375549644,13.29574256525818,11.48385415785013,204,15,0.0,49359,58002370356340,9,35.1,196.25245666503906,0.23510000109672546,25,11123.55457850202,0.001309954600983276,1.602E9,,,,0,,3,-0.63,1.602E9,412.0,NaN,NaN
Raw,241260935332030,658065206000000,,,-1265581155229301431,-0.7452907562255859,36.59735375549644,13.29574256525818,11.48385415785013,204,5,0.0,49359,58002364136369,11,33.8,706.1287231445312,0.2272000014781952,25,39630.29679771677,0.0016275148854291823,1.60256256E9,,,,0,,3,-0.63,1.60256256E9,412.0,NaN,NaN
Raw,241260935332030,658065206000000,,,-1265581155229301431,-0.7452907562255859,36.59735375549644,13.29574256525818,11.48385415785013,204,23,0.0,49359,58002358100228,17,28.6,493.5545654296875,0.25220000743865967,25,25151.51522672653,0.002953643059565574,1.60368755E9,,,,0,,3,-0.63,1.60368755E9,412.0,NaN,NaN
Raw,241260935332030,658065206000000,,,-1265581155229301431,-0.7452907562255859,36.59735375549644,13.29574256525818,11.48385415785013,204,36,0.0,16399,392806362503966,6,39.3,-23.725719451904297,0.021800000220537186,25,-1654.9936652449453,8.449737438469402E-4,1.56109798E9,,,,0,,5,0.65,1.56109798E9,412.0,NaN,NaN
Raw,241260935332030,658065206000000,,,-1265581155229301431,-0.7452907562255859,36.59735375549644,13.29574256525818,11.48385415785013,204,30,0.0,16399,392806353432626,6,38.8,-535.9116821289062,0.038600001484155655,25,-31600.588683714494,9.409935037250662E-4,1.56109798E9,,,,0,,5,0.65,1.56109798E9,412.0,NaN,NaN
Raw,241260935332030,658065206000000,,,-1265581155229301431,-0.7452907562255859,36.59735375549644,13.29574256525818,11.48385415785013,204,27,0.0,16399,392806354776364,13,31.9,-68.24662017822266,0.04310000315308571,25,-4340.800011449442,0.0020932304434118673,1.56109798E9,,,,0,,5,0.65,1.56109798E9,412.0,NaN,NaN
