# 
# Header Description:
# 
# Version: v2.0.0.1 Platform: 10 Manufacturer: Google Model: Pixel 4
# 
# Raw,ElapsedRealtimeNanos,TimeNanos,LeapSecond,TimeUncertaintyNanos,FullBiasNanos,BiasNanos,BiasUncertaintyNanos,DriftNanosPerSecond,DriftUncertaintyNanosPerSecond,HardwareClockDiscontinuityCount,Svid,TimeOffsetNanos,State,ReceivedSvTimeNanos,ReceivedSvTimeUncertaintyNanos,Cn0DbHz,PseudorangeRateMetersPerSecond,PseudorangeRateUncertaintyMetersPerSecond,AccumulatedDeltaRangeState,AccumulatedDeltaRangeMeters,AccumulatedDeltaRangeUncertaintyMeters,CarrierFrequencyHz,CarrierCycles,CarrierPhase,CarrierPhaseUncertainty,MultipathIndicator,SnrInDb,ConstellationType,AgcDb,CarrierFrequencyHz,UserLatitude,UserLongitude,UserAltitude
# 
# Fix,Provider,Latitude,Longitude,Altitude,Speed,Accuracy,(UTC)TimeInMs,ElapsedRealtimeNanos
# 
# Nav,Svid,Type,Status,MessageId,Sub-messageId,Data(Bytes)
# 
Fix,gps,51.524761,-0.134225,79.114380,0.000000,3.790092,1582195185000,232442908160215
Raw,232442925954436,649247197000000,,,-1265581155251429521,-0.2924480438232422,34.49276846367866,21.03536698485435,10.360852131931223,120,5,0.0,16399,384002367714507,31,23.0,727.4356079101562,0.7369999885559082,16,0.0,0.0,1.57542003E9,,,,0,,1,-0.19,1.57542003E9,353.0,NaN,NaN
Raw,232442925954436,649247197000000,,,-1265581155251429521,-0.2924480438232422,34.49276846367866,21.03536698485435,10.360852131931223,120,13,0.0,16399,384002380552824,13,31.4,215.15489196777344,0.022099999710917473,17,2787.7928164228842,0.002074201012354331,1.57542003E9,,,,0,,1,-0.19,1.57542003E9,353.0,NaN,NaN
Raw,232442925954436,649247197000000,,,-1265581155251429521,-0.2924480438232422,34.49276846367866,21.03536698485435,10.360852131931223,120,15,0.0,16399,384002380697460,7,37.0,-121.05736541748047,0.01940000057220459,25,-1623.7202342132484,0.0010085564157135064,1.57542003E9,,,,0,,1,-0.19,1.57542003E9,353.0,NaN,NaN
Raw,232442925954436,649247197000000,,,-1265581155251429521,-0.2924480438232422,34.49276846367866,21.03536698485435,10.360852131931223,120,17,0.0,16399,384002365759583,31,23.7,-538.4024047851562,0.11870000511407852,21,-3705.045169105383,0.19029366893311156,1.57542003E9,,,,0,,1,-0.19,1.57542003E9,353.0,NaN,NaN
Raw,232442925954436,649247197000000,,,-1265581155251429521,-0.2924480438232422,34.49276846367866,21.03536698485435,10.360852131931223,120,20,0.0,16399,384002371674375,17,28.1,-366.1481628417969,0.011700000613927841,19,-165.2557540352841,0.0030066398239606148,1.57542003E9,,,,0,,1,-0.19,1.57542003E9,353.0,NaN,NaN
Raw,232442925954436,649247197000000,,,-1265581155251429521,-0.2924480438232422,34.49276846367866,21.03536698485435,10.360852131931223,120,24,0.0,16399,384002372641110,21,26.0,-587.4075927734375,0.04470000043511391,21,-7685.777000978571,0.005442398901996786,1.57542003E9,,,,0,,1,-0.19,1.57542003E9,353.0,NaN,NaN
Raw,232442925954436,649247197000000,,,-1265581155251429521,-0.2924480438232422,34.49276846367866,21.03536698485435,10.360852131931223,120,28,0.0,16399,384002376931898,5,40.2,179.1273193359375,0.04260000213980675,17,2356.6859302472676,7.42145288706399E-4,1.57542003E9,,,,0,,1,-0.19,1.57542003E9,353.0,NaN,NaN
Raw,232442925954436,649247197000000,,,-1265581155251429521,-0.2924480438232422,34.49276846367866,21.03536698485435,10.360852131931223,120,30,0.0,16399,384002370664100,9,35.3,591.4266967773438,0.035100001841783524,17,7704.648265885147,0.0013320557236479321,1.57542003E9,,,,0,,1,-0.19,1.57542003E9,353.0,NaN,NaN
Raw,232442925954436,649247197000000,,,-1265581155251429521,-0.2924480438232422,34.49276846367866,21.03536698485435,10.360852131931223,120,14,0.0,49359,49184384558814,14,30.3,-43.44709777832031,0.2289000004529953,25,-579.1866489920302,0.0023637279898678486,1.59806246E9,,,,0,,3,-2.47,1.59806246E9,353.0,NaN,NaN
Raw,232442925954436,649247197000000,,,-1265581155251429521,-0.2924480438232422,34.49276846367866,21.03536698485435,10.360852131931223,120,22,0.0,49359,49184370843993,24,25.6,-180.14984130859375,0.2483000010251999,29,-2102.4725047383463,0.18733370372433672,1.60031245E9,,,,0,,3,-2.47,1.60031245E9,353.0,NaN,NaN
Raw,232442925954436,649247197000000,,,-1265581155251429521,-0.2924480438232422,34.49276846367866,21.03536698485435,10.360852131931223,120,13,0.0,49359,49184377701540,16,29.3,638.30712890625,0.24940000474452972,29,8202.744238927644,0.0027715645241306536,1.60087501E9,,,,0,,3,-2.47,1.60087501E9,353.0,NaN,NaN
Raw,232442925954436,649247197000000,,,-1265581155251429521,-0.2924480438232422,34.49276846367866,21.03536698485435,10.360852131931223,120,15,0.0,49359,49184376193408,24,25.5,-663.8958129882812,0.2573000192642212,29,-8566.837527443478,0.18713636579275905,1.602E9,,,,0,,3,-2.47,1.602E9,353.0,NaN,NaN
Raw,232442925954436,649247197000000,,,-1265581155251429521,-0.2924480438232422,34.49276846367866,21.03536698485435,10.360852131931223,120,5,0.0,49359,49184379142506,7,37.6,-566.6957397460938,0.24790000915527344,25,-7315.537642820877,9.91474542321254E-4,1.60256256E9,,,,0,,3,-2.47,1.60256256E9,353.0,NaN,NaN
Raw,232442925954436,649247197000000,,,-1265581155251429521,-0.2924480438232422,34.49276846367866,21.03536698485435,10.360852131931223,120,3,0.0,49359,49184374500360,11,33.0,769.2163696289062,0.24220000207424164,25,9889.915097262057,0.0016252330722257222,1.60481254E9,,,,0,,3,-2.47,1.60481254E9,353.0,NaN,NaN
Raw,232442925954436,649247197000000,,,-1265581155251429521,-0.2924480438232422,34.49276846367866,21.03536698485435,10.360852131931223,120,4,0.0,49359,49184384083816,12,32.2,190.44313049316406,0.22760000824928284,25,2428.6824865055773,0.0017740579627804397,1.60537498E9,,,,0,,3,-2.47,1.60537498E9,353.0,NaN,NaN
Raw,232442925954436,649247197000000,,,-1265581155251429521,-0.2924480438232422,34.49276846367866,21.03536698485435,10.360852131931223,120,37,0.0,16399,383988369069767,5,41.8,478.20452880859375,0.03180000185966492,17,6311.296937418011,6.913421459270097E-4,1.56109798E9,,,,0,,5,0.02,1.56109798E9,353.0,NaN,NaN
Raw,232442925954436,649247197000000,,,-1265581155251429521,-0.2924480438232422,34.49276846367866,21.03536698485435,10.360852131931223,120,22,0.0,16399,383988368364132,11,33.8,-408.7943115234375,0.03319999948143959,25,-5423.2059116172,0.0016707435714883973,1.56109798E9,,,,0,,5,0.02,1.56109798E9,353.0,NaN,NaN
Raw,232442925954436,649247197000000,,,-1265581155251429521,-0.2924480438232422,34.49276846367866,21.03536698485435,10.360852131931223,120,20,0.0,16399,383988365747772,14,30.6,637.5696411132812,0.030400000512599945,21,7232.228352563406,0.0024196975554572116,1.56109798E9,,,,0,,5,0.02,1.56109798E9,353.0,NaN,NaN
Raw,232442925954436,649247197000000,,,-1265581155251429521,-0.2924480438232422,34.49276846367866,21.03536698485435,10.360852131931223,120,19,0.0,16399,383988374997681,21,26.4,192.31072998046875,0.047700002789497375,17,1886.9419073804652,0.005492329335005111,1.56109798E9,,,,0,,5,0.02,1.56109798E9,353.0,NaN,NaN
Raw,232442925954436,649247197000000,,,-1265581155251429521,-0.2924480438232422,34.49276846367866,21.03536698485435,10.360852131931223,120,10,0.0,16399,383988316119727,13,31.4,172.63015747070312,0.04610000178217888,17,1950.0994674577817,0.0020932304434118673,1.56109798E9,,,,0,,5,0.02,1.56109798E9,353.0,NaN,NaN
Raw,232442925954436,649247197000000,,,-1265581155251429521,-0.2924480438232422,34.49276846367866,21.03536698485435,10.360852131931223,120,1,0.0,23567,384002364184752,6,38.3,385.9943542480469,0.04310000315308571,25,5069.0315321679,0.0020551716777868216,1.57542003E9,,,,0,,6,-0.19,1.57542003E9,353.0,NaN,NaN
Raw,232442925954436,649247197000000,,,-1265581155251429521,-0.2924480438232422,34.49276846367866,21.03536698485435,10.360852131931223,120,4,0.0,23567,384002362245187,7,37.9,500.9056701660156,0.046400003135204315,25,6587.886484787987,0.0021883771969841777,1.57542003E9,,,,0,,6,-0.19,1.57542003E9,353.0,NaN,NaN
Raw,232442925954436,649247197000000,,,-1265581155251429521,-0.2924480438232422,34.49276846367866,21.03536698485435,10.360852131931223,120,5,0.0,23567,384002363134421,6,38.5,-423.2608947753906,0.047600001096725464,25,-5590.533868907483,0.0020551716777868216,1.57542003E9,,,,0,,6,-0.19,1.57542003E9,353.0,NaN,NaN
Raw,232442925954436,649247197000000,,,-1265581155251429521,-0.2924480438232422,34.49276846367866,21.03536698485435,10.360852131931223,120,9,0.0,23567,384002376735107,24,25.4,54.15336227416992,0.05730000138282776,25,697.2221607831017,0.017526047264890512,1.57542003E9,,,,0,,6,-0.19,1.57542003E9,353.0,NaN,NaN
Raw,232442925954436,649247197000000,,,-1265581155251429521,-0.2924480438232422,34.49276846367866,21.03536698485435,10.360852131931223,120,24,0.0,23567,384002366396768,35,22.1,-552.65087890625,0.8134999871253967,16,0.0,0.0,1.57542003E9,,,,0,,6,-0.19,1.57542003E9,353.0,NaN,NaN
Raw,232442925954436,649247197000000,,,-1265581155251429521,-0.2924480438232422,34.49276846367866,21.03536698485435,10.360852131931223,120,31,0.0,23567,384002369599614,14,30.3,-150.1547088623047,0.04840000346302986,21,-1598.9899551577346,0.005233075867304602,1.57542003E9,,,,0,,6,-0.19,1.57542003E9,353.0,NaN,NaN
Raw,232442925954436,649247197000000,,,-1265581155251429521,-0.2924480438232422,34.49276846367866,21.03536698485435,10.360852131931223,120,30,0.0,81935,384002370671916,2,34.2,591.3948364257812,0.039500001817941666,25,4041.274825970355,0.0020386244039789624,1.17645005E9,,,,0,,1,1.69,1.17645005E9,353.0,NaN,NaN
Raw,232442925954436,649247197000000,,,-1265581155251429521,-0.2924480438232422,34.49276846367866,21.03536698485435,10.360852131931223,120,1,0.0,81935,384002364191837,5,27.4,385.6544189453125,0.04200000315904617,25,2822.3249471157574,0.004332076888121183,1.17645005E9,,,,0,,6,1.69,1.17645005E9,353.0,NaN,NaN
Raw,232442925954436,649247197000000,,,-1265581155251429521,-0.2924480438232422,34.49276846367866,21.03536698485435,10.360852131931223,120,4,0.0,81935,384002362252277,8,23.7,500.81597900390625,0.03720000013709068,25,3668.6910721700096,0.34557229348499413,1.17645005E9,,,,0,,6,1.69,1.17645005E9,353.0,NaN,NaN
Raw,232442925954436,649247197000000,,,-1265581155251429521,-0.2924480438232422,34.49276846367866,21.03536698485435,10.360852131931223,120,5,0.0,81935,384002363141520,6,26.5,-423.7099304199219,0.04659999907016754,29,-3116.614525635606,0.007288081858568245,1.17645005E9,,,,0,,6,1.69,1.17645005E9,353.0,NaN,NaN
Raw,232442925954436,649247197000000,,,-1265581155251429521,-0.2924480438232422,34.49276846367866,21.03536698485435,10.360852131931223,120,9,0.0,81935,384002376742173,8,23.4,53.91527557373047,0.05820000171661377,27,388.3724319145622,0.34557229348499413,1.17645005E9,,,,0,,6,1.69,1.17645005E9,353.0,NaN,NaN
Raw,232442925954436,649247197000000,,,-1265581155251429521,-0.2924480438232422,34.49276846367866,21.03536698485435,10.360852131931223,120,31,0.0,81935,384002369606686,9,21.0,-150.43594360351562,0.058900002390146255,29,-1114.5178126073854,0.34557229348499413,1.17645005E9,,,,0,,6,1.69,1.17645005E9,353.0,NaN,NaN
Fix,gps,51.524759,-0.134225,79.515747,0.000000,3.790092,1582195186000,232443905447346
Raw,232443915300368,649248197000000,,,-1265581155251429513,-0.6034488677978516,34.4236395903863,17.75980457273939,9.579020724592969,120,5,0.0,16399,384003367712098,19,27.0,727.8508911132812,0.03629999980330467,19,10221.859929596028,0.003234992547669888,1.57542003E9,,,,0,,1,-0.02,1.57542003E9,353.0,NaN,NaN
Raw,232443915300368,649248197000000,,,-1265581155251429513,-0.6034488677978516,34.4236395903863,17.75980457273939,9.579020724592969,120,13,0.0,16399,384003380552064,10,34.1,214.89561462402344,0.020600000396370888,17,3002.6200940107515,0.0015223494237726067,1.57542003E9,,,,0,,1,-0.02,1.57542003E9,353.0,NaN,NaN
Raw,232443915300368,649248197000000,,,-1265581155251429513,-0.6034488677978516,34.4236395903863,17.75980457273939,9.579020724592969,120,15,0.0,16399,384003380697860,6,38.2,-121.32098388671875,0.019100001081824303,25,-1745.1120278912624,9.324389888310735E-4,1.57542003E9,,,,0,,1,-0.02,1.57542003E9,353.0,NaN,NaN
Raw,232443915300368,649248197000000,,,-1265581155251429513,-0.6034488677978516,34.4236395903863,17.75980457273939,9.579020724592969,120,17,0.0,16399,384003365761206,40,21.4,-539.292236328125,0.8539999723434448,16,0.0,0.0,1.57542003E9,,,,0,,1,-0.02,1.57542003E9,353.0,NaN,NaN
Raw,232443915300368,649248197000000,,,-1265581155251429513,-0.6034488677978516,34.4236395903863,17.75980457273939,9.579020724592969,120,20,0.0,16399,384003371675505,21,26.8,-366.3174133300781,0.04320000112056732,17,-531.672741832477,0.005442398901996786,1.57542003E9,,,,0,,1,-0.02,1.57542003E9,353.0,NaN,NaN
Raw,232443915300368,649248197000000,,,-1265581155251429513,-0.6034488677978516,34.4236395903863,17.75980457273939,9.579020724592969,120,24,0.0,16399,384003372642994,17,28.7,-588.0531005859375,0.04320000112056732,21,-8273.87269760619,0.0030066398239606148,1.57542003E9,,,,0,,1,-0.02,1.57542003E9,353.0,NaN,NaN
Raw,232443915300368,649248197000000,,,-1265581155251429513,-0.6034488677978516,34.4236395903863,17.75980457273939,9.579020724592969,120,28,0.0,16399,384003376931312,4,42.9,178.90904235839844,0.042100001126527786,17,2535.501330672085,5.899103906353357E-4,1.57542003E9,,,,0,,1,-0.02,1.57542003E9,353.0,NaN,NaN
Raw,232443915300368,649248197000000,,,-1265581155251429513,-0.6034488677978516,34.4236395903863,17.75980457273939,9.579020724592969,120,14,0.0,49359,49185384558956,14,30.5,-43.661808013916016,0.2289000004529953,25,-622.93663357444,0.0023637279898678486,1.59806246E9,,,,0,,3,-2.34,1.59806246E9,353.0,NaN,NaN
Raw,232443915300368,649248197000000,,,-1265581155251429513,-0.6034488677978516,34.4236395903863,17.75980457273939,9.579020724592969,120,22,0.0,49359,49185370844151,31,23.3,-180.5438690185547,0.326200008392334,21,-2282.9014270222174,0.18733370372433672,1.60031245E9,,,,0,,3,-2.34,1.60031245E9,353.0,NaN,NaN
Raw,232443915300368,649248197000000,,,-1265581155251429513,-0.6034488677978516,34.4236395903863,17.75980457273939,9.579020724592969,120,13,0.0,49359,49185377699364,14,30.9,638.0414428710938,0.2484000027179718,25,8840.704873276458,0.0023595752053329456,1.60087501E9,,,,0,,3,-2.34,1.60087501E9,353.0,NaN,NaN
Raw,232443915300368,649248197000000,,,-1265581155251429513,-0.6034488677978516,34.4236395903863,17.75980457273939,9.579020724592969,120,15,0.0,49359,49185376195552,13,31.9,-664.2320556640625,0.24610000848770142,25,-9231.097958309274,0.0020397864077763375,1.602E9,,,,0,,3,-2.34,1.602E9,353.0,NaN,NaN
Raw,232443915300368,649248197000000,,,-1265581155251429513,-0.6034488677978516,34.4236395903863,17.75980457273939,9.579020724592969,120,5,0.0,49359,49185379144348,5,40.5,-566.979248046875,0.24710001051425934,25,-7882.580403842547,7.295756082573676E-4,1.60256256E9,,,,0,,3,-2.34,1.60256256E9,353.0,NaN,NaN
Raw,232443915300368,649248197000000,,,-1265581155251429513,-0.6034488677978516,34.4236395903863,17.75980457273939,9.579020724592969,120,3,0.0,49359,49185374497783,8,36.7,768.9234619140625,0.24060000479221344,25,10658.75201667031,0.0011395311965536827,1.60481254E9,,,,0,,3,-2.34,1.60481254E9,353.0,NaN,NaN
Raw,232443915300368,649248197000000,,,-1265581155251429513,-0.6034488677978516,34.4236395903863,17.75980457273939,9.579020724592969,120,4,0.0,49359,49185384083254,16,29.7,190.27102661132812,0.22990000247955322,25,2618.8519841750044,0.002763795652773509,1.60537498E9,,,,0,,3,-2.34,1.60537498E9,353.0,NaN,NaN
Raw,232443915300368,649248197000000,,,-1265581155251429513,-0.6034488677978516,34.4236395903863,17.75980457273939,9.579020724592969,120,37,0.0,16399,383989369068168,6,38.6,477.99603271484375,0.032600000500679016,25,6789.213434484001,9.409935037250662E-4,1.56109798E9,,,,0,,5,0.24,1.56109798E9,353.0,NaN,NaN
Raw,232443915300368,649248197000000,,,-1265581155251429513,-0.6034488677978516,34.4236395903863,17.75980457273939,9.579020724592969,120,22,0.0,16399,383989368365547,16,29.8,-409.0636291503906,0.03590000048279762,25,-5832.343520262601,0.0028421844273806814,1.56109798E9,,,,0,,5,0.24,1.56109798E9,353.0,NaN,NaN
Raw,232443915300368,649248197000000,,,-1265581155251429513,-0.6034488677978516,34.4236395903863,17.75980457273939,9.579020724592969,120,20,0.0,16399,383989365745622,10,34.9,637.0384521484375,0.02810000069439411,25,7869.244359225751,0.001536315979199305,1.56109798E9,,,,0,,5,0.24,1.56109798E9,353.0,NaN,NaN
Raw,232443915300368,649248197000000,,,-1265581155251429513,-0.6034488677978516,34.4236395903863,17.75980457273939,9.579020724592969,120,19,0.0,16399,383989374997029,27,24.8,191.91326904296875,0.062300004065036774,25,2078.935919326706,0.1920394882785269,1.56109798E9,,,,0,,5,0.24,1.56109798E9,353.0,NaN,NaN
Raw,232443915300368,649248197000000,,,-1265581155251429513,-0.6034488677978516,34.4236395903863,17.75980457273939,9.579020724592969,120,10,0.0,16399,383989316119146,16,29.2,172.37039184570312,0.0479000024497509,25,2122.39363415925,0.0028421844273806814,1.56109798E9,,,,0,,5,0.24,1.56109798E9,353.0,NaN,NaN
Raw,232443915300368,649248197000000,,,-1265581155251429513,-0.6034488677978516,34.4236395903863,17.75980457273939,9.579020724592969,120,1,0.0,23567,384003364183448,4,42.0,385.7124328613281,0.042100001126527786,25,5454.662430751672,0.0012749675427206138,1.57542003E9,,,,0,,6,0.0,1.57542003E9,353.0,NaN,NaN
Raw,232443915300368,649248197000000,,,-1265581155251429513,-0.6034488677978516,34.4236395903863,17.75980457273939,9.579020724592969,120,4,0.0,23567,384003362243500,6,38.7,500.5609130859375,0.04610000178217888,25,7088.378169018664,0.0020551716777868216,1.57542003E9,,,,0,,6,0.0,1.57542003E9,353.0,NaN,NaN
Raw,232443915300368,649248197000000,,,-1265581155251429513,-0.6034488677978516,34.4236395903863,17.75980457273939,9.579020724592969,120,5,0.0,23567,384003363135862,7,37.2,-423.66326904296875,0.0479000024497509,25,-6014.22055186174,0.0021883771969841777,1.57542003E9,,,,0,,6,0.0,1.57542003E9,353.0,NaN,NaN
Raw,232443915300368,649248197000000,,,-1265581155251429513,-0.6034488677978516,34.4236395903863,17.75980457273939,9.579020724592969,120,9,0.0,23567,384003376734917,17,28.7,53.7210807800293,0.04920000210404396,25,750.9125591566474,0.006565131413727744,1.57542003E9,,,,0,,6,0.0,1.57542003E9,353.0,NaN,NaN
Raw,232443915300368,649248197000000,,,-1265581155251429513,-0.6034488677978516,34.4236395903863,17.75980457273939,9.579020724592969,120,24,0.0,23567,384003366398582,21,26.9,-553.2824096679688,0.053700003772974014,19,-304.29297125206864,0.011874324619302384,1.57542003E9,,,,0,,6,0.0,1.57542003E9,353.0,NaN,NaN
Raw,232443915300368,649248197000000,,,-1265581155251429513,-0.6034488677978516,34.4236395903863,17.75980457273939,9.579020724592969,120,31,0.0,23567,384003369600163,19,27.1,-150.4972686767578,0.05130000039935112,21,-1749.5196802764349,0.007212130206821385,1.57542003E9,,,,0,,6,0.0,1.57542003E9,353.0,NaN,NaN
Raw,232443915300368,649248197000000,,,-1265581155251429513,-0.6034488677978516,34.4236395903863,17.75980457273939,9.579020724592969,120,30,0.0,81935,384003370669946,2,36.0,591.1687622070312,0.03790000081062317,25,4632.370831714049,0.0015544510042033504,1.17645005E9,,,,0,,1,3.89,1.17645005E9,353.0,NaN,NaN
Raw,232443915300368,649248197000000,,,-1265581155251429513,-0.6034488677978516,34.4236395903863,17.75980457273939,9.579020724592969,120,4,0.0,81935,384003362250606,6,25.6,500.55145263671875,0.033399999141693115,25,4169.167618083256,0.02346966281299121,1.17645005E9,,,,0,,6,3.89,1.17645005E9,353.0,NaN,NaN
Raw,232443915300368,649248197000000,,,-1265581155251429513,-0.6034488677978516,34.4236395903863,17.75980457273939,9.579020724592969,120,5,0.0,81935,384003363142931,4,30.5,-424.031982421875,0.03370000049471855,25,-3540.279676369409,0.0032108332879374254,1.17645005E9,,,,0,,6,3.89,1.17645005E9,353.0,NaN,NaN
Raw,232443915300368,649248197000000,,,-1265581155251429513,-0.6034488677978516,34.4236395903863,17.75980457273939,9.579020724592969,120,9,0.0,81935,384003376742004,6,26.9,53.360450744628906,0.06610000133514404,25,442.0714614021762,0.007288081858568245,1.17645005E9,,,,0,,6,3.89,1.17645005E9,353.0,NaN,NaN
Raw,232443915300368,649248197000000,,,-1265581155251429513,-0.6034488677978516,34.4236395903863,17.75980457273939,9.579020724592969,120,31,0.0,81935,384003369607176,6,25.6,-150.5038299560547,0.04390000179409981,25,-1265.1250902854995,0.02346966281299121,1.17645005E9,,,,0,,6,3.89,1.17645005E9,353.0,NaN,NaN
Fix,gps,51.524758,-0.134226,79.678345,0.000000,3.790092,1582195187000,232444901063382
Raw,232444912702863,649249197000000,,,-1265581155251429496,-0.40750885009765625,39.32159233954735,16.226615250207953,9.744153204954525,120,5,0.0,16399,384004367709590,17,28.9,728.4962768554688,0.0357000008225441,17,10950.04410594488,0.0030066398239606148,1.57542003E9,,,,0,,1,0.14,1.57542003E9,353.0,NaN,NaN
Raw,232444912702863,649249197000000,,,-1265581155251429496,-0.40750885009765625,39.32159233954735,16.226615250207953,9.744153204954525,120,13,0.0,16399,384004380551341,8,36.2,215.5895538330078,0.019600000232458115,17,3217.8875154791212,0.001160791358090767,1.57542003E9,,,,0,,1,0.14,1.57542003E9,353.0,NaN,NaN
Raw,232444912702863,649249197000000,,,-1265581155251429496,-0.40750885009765625,39.32159233954735,16.226615250207953,9.744153204954525,120,15,0.0,16399,384004380698278,7,37.5,-120.62108612060547,0.01940000057220459,25,-1866.073404323168,0.0010085564157135064,1.57542003E9,,,,0,,1,0.14,1.57542003E9,353.0,NaN,NaN
Raw,232444912702863,649249197000000,,,-1265581155251429496,-0.40750885009765625,39.32159233954735,16.226615250207953,9.744153204954525,120,17,0.0,16399,384004365763052,46,20.4,-537.95068359375,0.9239999651908875,16,0.0,0.0,1.57542003E9,,,,0,,1,0.14,1.57542003E9,353.0,NaN,NaN
Raw,232444912702863,649249197000000,,,-1265581155251429496,-0.40750885009765625,39.32159233954735,16.226615250207953,9.744153204954525,120,20,0.0,16399,384004371676753,21,26.0,-365.6231384277344,0.04320000112056732,17,-897.636049205736,0.005442398901996786,1.57542003E9,,,,0,,1,0.14,1.57542003E9,353.0,NaN,NaN
Raw,232444912702863,649249197000000,,,-1265581155251429496,-0.40750885009765625,39.32159233954735,16.226615250207953,9.744153204954525,120,24,0.0,16399,384004372645010,17,28.1,-587.38623046875,0.04320000112056732,17,-8861.574813924399,0.0030066398239606148,1.57542003E9,,,,0,,1,0.14,1.57542003E9,353.0,NaN,NaN
Raw,232444912702863,649249197000000,,,-1265581155251429496,-0.40750885009765625,39.32159233954735,16.226615250207953,9.744153204954525,120,28,0.0,16399,384004376930709,4,42.9,179.6216583251953,0.042100001126527786,17,2714.7892117162037,5.899103906353357E-4,1.57542003E9,,,,0,,1,0.14,1.57542003E9,353.0,NaN,NaN
Raw,232444912702863,649249197000000,,,-1265581155251429496,-0.40750885009765625,39.32159233954735,16.226615250207953,9.744153204954525,120,14,0.0,49359,49186384559089,12,32.3,-42.94681930541992,0.22760000824928284,25,-666.2268322795468,0.0017821758057520194,1.59806246E9,,,,0,,3,-2.16,1.59806246E9,353.0,NaN,NaN
Raw,232444912702863,649249197000000,,,-1265581155251429496,-0.40750885009765625,39.32159233954735,16.226615250207953,9.744153204954525,120,22,0.0,49359,49186370845009,27,24.8,-179.63304138183594,0.2563000023365021,29,-2463.088671934764,0.18733370372433672,1.60031245E9,,,,0,,3,-2.16,1.60031245E9,353.0,NaN,NaN
Raw,232444912702863,649249197000000,,,-1265581155251429496,-0.40750885009765625,39.32159233954735,16.226615250207953,9.744153204954525,120,13,0.0,49359,49186377697325,13,31.1,638.7238159179688,0.2476000040769577,25,9479.108922300962,0.0020412198384807895,1.60087501E9,,,,0,,3,-2.16,1.60087501E9,353.0,NaN,NaN
Raw,232444912702863,649249197000000,,,-1265581155251429496,-0.40750885009765625,39.32159233954735,16.226615250207953,9.744153204954525,120,15,0.0,49359,49186376197651,14,30.3,-663.5988159179688,0.24690000712871552,25,-9895.020531249009,0.0023579182120561683,1.602E9,,,,0,,3,-2.16,1.602E9,353.0,NaN,NaN
Raw,232444912702863,649249197000000,,,-1265581155251429496,-0.40750885009765625,39.32159233954735,16.226615250207953,9.744153204954525,120,5,0.0,49359,49186379146197,5,40.8,-566.2871704101562,0.24710001051425934,25,-8449.208325021282,7.295756082573676E-4,1.60256256E9,,,,0,,3,-2.16,1.60256256E9,353.0,NaN,NaN
Raw,232444912702863,649249197000000,,,-1265581155251429496,-0.40750885009765625,39.32159233954735,16.226615250207953,9.744153204954525,120,3,0.0,49359,49186374495235,8,36.0,769.5419311523438,0.24060000479221344,25,11428.000865705535,0.0011395311965536827,1.60481254E9,,,,0,,3,-2.16,1.60481254E9,353.0,NaN,NaN
Raw,232444912702863,649249197000000,,,-1265581155251429496,-0.40750885009765625,39.32159233954735,16.226615250207953,9.744153204954525,120,4,0.0,49359,49186384082623,19,27.8,191.01089477539062,0.23180000483989716,25,2809.509187160913,0.0031746303132669834,1.60537498E9,,,,0,,3,-2.16,1.60537498E9,353.0,NaN,NaN
Raw,232444912702863,649249197000000,,,-1265581155251429496,-0.40750885009765625,39.32159233954735,16.226615250207953,9.744153204954525,120,37,0.0,16399,383990369066574,6,38.4,478.64263916015625,0.032600000500679016,25,7267.5459873742075,9.409935037250662E-4,1.56109798E9,,,,0,,5,0.49,1.56109798E9,353.0,NaN,NaN
Raw,232444912702863,649249197000000,,,-1265581155251429496,-0.40750885009765625,39.32159233954735,16.226615250207953,9.744153204954525,120,22,0.0,16399,383990368366920,17,28.5,-408.429931640625,0.03720000013709068,25,-6241.111617590657,0.003034223768286223,1.56109798E9,,,,0,,5,0.49,1.56109798E9,353.0,NaN,NaN
Raw,232444912702863,649249197000000,,,-1265581155251429496,-0.40750885009765625,39.32159233954735,16.226615250207953,9.744153204954525,120,20,0.0,16399,383990365743495,11,33.6,637.6726684570312,0.028700001537799835,25,8506.620135031317,0.0016707435714883973,1.56109798E9,,,,0,,5,0.49,1.56109798E9,353.0,NaN,NaN
Raw,232444912702863,649249197000000,,,-1265581155251429496,-0.40750885009765625,39.32159233954735,16.226615250207953,9.744153204954525,120,19,0.0,16399,383990374996383,35,22.7,192.74771118164062,0.4027999937534332,21,2271.2340892561265,0.1920394882785269,1.56109798E9,,,,0,,5,0.49,1.56109798E9,353.0,NaN,NaN
Raw,232444912702863,649249197000000,,,-1265581155251429496,-0.40750885009765625,39.32159233954735,16.226615250207953,9.744153204954525,120,10,0.0,16399,383990316118546,17,28.7,172.98121643066406,0.04920000210404396,25,2295.0938045187672,0.003034223768286223,1.56109798E9,,,,0,,5,0.49,1.56109798E9,353.0,NaN,NaN
Raw,232444912702863,649249197000000,,,-1265581155251429496,-0.40750885009765625,39.32159233954735,16.226615250207953,9.744153204954525,120,1,0.0,23567,384004364182171,4,43.3,386.3865966796875,0.04200000315904617,25,5840.741987227881,0.0011227326889557481,1.57542003E9,,,,0,,6,0.13,1.57542003E9,353.0,NaN,NaN
Raw,232444912702863,649249197000000,,,-1265581155251429496,-0.40750885009765625,39.32159233954735,16.226615250207953,9.744153204954525,120,4,0.0,23567,384004362241833,6,38.6,501.21527099609375,0.04610000178217888,25,7589.295127867962,0.0020551716777868216,1.57542003E9,,,,0,,6,0.13,1.57542003E9,353.0,NaN,NaN
Raw,232444912702863,649249197000000,,,-1265581155251429496,-0.40750885009765625,39.32159233954735,16.226615250207953,9.744153204954525,120,5,0.0,23567,384004363137276,8,36.3,-422.9999694824219,0.048100002110004425,25,-6437.545057029303,0.0025499350854412276,1.57542003E9,,,,0,,6,0.13,1.57542003E9,353.0,NaN,NaN
Raw,232444912702863,649249197000000,,,-1265581155251429496,-0.40750885009765625,39.32159233954735,16.226615250207953,9.744153204954525,120,9,0.0,23567,384004376734742,17,28.9,54.4396858215332,0.04920000210404396,25,805.0364228182667,0.006565131413727744,1.57542003E9,,,,0,,6,0.13,1.57542003E9,353.0,NaN,NaN
Raw,232444912702863,649249197000000,,,-1265581155251429496,-0.40750885009765625,39.32159233954735,16.226615250207953,9.744153204954525,120,24,0.0,23567,384004366400462,19,27.6,-552.6884155273438,0.052800003439188004,25,-857.2290287684525,0.007212130206821385,1.57542003E9,,,,0,,6,0.13,1.57542003E9,353.0,NaN,NaN
Raw,232444912702863,649249197000000,,,-1265581155251429496,-0.40750885009765625,39.32159233954735,16.226615250207953,9.744153204954525,120,31,0.0,23567,384004369600660,17,28.0,-149.87351989746094,0.050700001418590546,25,-1899.5585617768356,0.006565131413727744,1.57542003E9,,,,0,,6,0.13,1.57542003E9,353.0,NaN,NaN
Raw,232444912702863,649249197000000,,,-1265581155251429496,-0.40750885009765625,39.32159233954735,16.226615250207953,9.744153204954525,120,24,0.0,81935,384004372652919,16,16.5,-588.4362182617188,2.684499979019165,16,0.0,0.0,1.17645005E9,,,,0,,1,8.77,1.17645005E9,353.0,NaN,NaN
Raw,232444912702863,649249197000000,,,-1265581155251429496,-0.40750885009765625,39.32159233954735,16.226615250207953,9.744153204954525,120,30,0.0,81935,384004370667973,2,39.1,591.825439453125,0.036000002175569534,25,5223.90257170553,0.001121243362856653,1.17645005E9,,,,0,,1,8.77,1.17645005E9,353.0,NaN,NaN
Raw,232444912702863,649249197000000,,,-1265581155251429496,-0.40750885009765625,39.32159233954735,16.226615250207953,9.744153204954525,120,1,0.0,81935,384004364189261,16,16.3,385.9625244140625,1.9225000143051147,16,0.0,0.0,1.17645005E9,,,,0,,6,8.77,1.17645005E9,353.0,NaN,NaN
Raw,232444912702863,649249197000000,,,-1265581155251429496,-0.40750885009765625,39.32159233954735,16.226615250207953,9.744153204954525,120,4,0.0,81935,384004362248936,5,28.0,501.30523681640625,0.03610000014305115,29,4670.062433901715,0.0040262828122019055,1.17645005E9,,,,0,,6,8.77,1.17645005E9,353.0,NaN,NaN
Raw,232444912702863,649249197000000,,,-1265581155251429496,-0.40750885009765625,39.32159233954735,16.226615250207953,9.744153204954525,120,5,0.0,81935,384004363144346,3,32.7,-422.9587707519531,0.03110000118613243,25,-3963.596670252851,0.0024208662868967453,1.17645005E9,,,,0,,6,8.77,1.17645005E9,353.0,NaN,NaN
Raw,232444912702863,649249197000000,,,-1265581155251429496,-0.40750885009765625,39.32159233954735,16.226615250207953,9.744153204954525,120,9,0.0,81935,384004376741824,4,30.0,54.48356246948242,0.05320000275969505,25,496.19776283716874,0.0032108332879374254,1.17645005E9,,,,0,,6,8.77,1.17645005E9,353.0,NaN,NaN
Raw,232444912702863,649249197000000,,,-1265581155251429496,-0.40750885009765625,39.32159233954735,16.226615250207953,9.744153204954525,120,31,0.0,81935,384004369607676,4,29.2,-149.77687072753906,0.04450000077486038,25,-1415.25938178584,0.0037714549693657518,1.17645005E9,,,,0,,6,8.77,1.17645005E9,353.0,NaN,NaN
Fix,gps,51.524757,-0.134229,79.940735,0.000000,3.790092,1582195188000,232445896159002
Raw,232445911363535,649250197000000,,,-1265581155251429481,-0.17852210998535156,41.734299884410575,18.32064789015096,9.743451769073948,120,5,0.0,16399,384005367707145,14,30.0,729.059814453125,0.033400002866983414,17,11678.812453674871,0.002397700231676362,1.57542003E9,,,,0,,1,0.02,1.57542003E9,353.0,NaN,NaN
Raw,232445911363535,649250197000000,,,-1265581155251429481,-0.17852210998535156,41.734299884410575,18.32064789015096,9.743451769073948,120,10,0.0,16399,384005363220595,159,11.8,-639.5960693359375,8.765999794006348,16,0.0,0.0,1.57542003E9,,,,0,,1,0.02,1.57542003E9,353.0,NaN,NaN
Raw,232445911363535,649250197000000,,,-1265581155251429481,-0.17852210998535156,41.734299884410575,18.32064789015096,9.743451769073948,120,13,0.0,16399,384005380550630,8,36.5,216.2874298095703,0.004600000102072954,17,3433.812599183132,0.001160791358090767,1.57542003E9,,,,0,,1,0.02,1.57542003E9,353.0,NaN,NaN
Raw,232445911363535,649250197000000,,,-1265581155251429481,-0.17852210998535156,41.734299884410575,18.32064789015096,9.743451769073948,120,15,0.0,16399,384005380698661,7,37.4,-119.91529083251953,0.004399999976158142,25,-1986.3376606226302,0.0010085564157135064,1.57542003E9,,,,0,,1,0.02,1.57542003E9,353.0,NaN,NaN
Raw,232445911363535,649250197000000,,,-1265581155251429481,-0.17852210998535156,41.734299884410575,18.32064789015096,9.743451769073948,120,20,0.0,16399,384005371678003,40,21.3,-365.3162841796875,0.8629999756813049,16,0.0,0.0,1.57542003E9,,,,0,,1,0.02,1.57542003E9,353.0,NaN,NaN
Raw,232445911363535,649250197000000,,,-1265581155251429481,-0.17852210998535156,41.734299884410575,18.32064789015096,9.743451769073948,120,24,0.0,16399,384005372646948,16,29.5,-586.7533569335938,0.04190000146627426,17,-9448.658826134166,0.00281634630106073,1.57542003E9,,,,0,,1,0.02,1.57542003E9,353.0,NaN,NaN
Raw,232445911363535,649250197000000,,,-1265581155251429481,-0.17852210998535156,41.734299884410575,18.32064789015096,9.743451769073948,120,28,0.0,16399,384005376930115,4,42.4,180.30833435058594,0.042100001126527786,17,2894.755037539938,5.899103906353357E-4,1.57542003E9,,,,0,,1,0.02,1.57542003E9,353.0,NaN,NaN
Raw,232445911363535,649250197000000,,,-1265581155251429481,-0.17852210998535156,41.734299884410575,18.32064789015096,9.743451769073948,120,14,0.0,49359,49187384559263,12,32.8,-42.192474365234375,0.2126000076532364,25,-708.8141657012607,0.0017821758057520194,1.59806246E9,,,,0,,3,-2.23,1.59806246E9,353.0,NaN,NaN
Raw,232445911363535,649250197000000,,,-1265581155251429481,-0.17852210998535156,41.734299884410575,18.32064789015096,9.743451769073948,120,22,0.0,49359,49187370845662,17,28.6,-178.88990783691406,0.240200012922287,25,-2642.3584108873556,0.002959872375920247,1.60031245E9,,,,0,,3,-2.23,1.60031245E9,353.0,NaN,NaN
Raw,232445911363535,649250197000000,,,-1265581155251429481,-0.17852210998535156,41.734299884410575,18.32064789015096,9.743451769073948,120,13,0.0,49359,49187377695146,13,31.9,639.3387451171875,0.2476000040769577,25,10118.15401201279,0.0020412198384807895,1.60087501E9,,,,0,,3,-2.23,1.60087501E9,353.0,NaN,NaN
Raw,232445911363535,649250197000000,,,-1265581155251429481,-0.17852210998535156,41.734299884410575,18.32064789015096,9.743451769073948,120,15,0.0,49359,49187376199878,14,30.3,-662.909423828125,0.24690000712871552,25,-10558.251632105013,0.0023579182120561683,1.602E9,,,,0,,3,-2.23,1.602E9,353.0,NaN,NaN
Raw,232445911363535,649250197000000,,,-1265581155251429481,-0.17852210998535156,41.734299884410575,18.32064789015096,9.743451769073948,120,5,0.0,49359,49187379148126,5,40.4,-565.600830078125,0.24710001051425934,25,-9015.128127896696,7.295756082573676E-4,1.60256256E9,,,,0,,3,-2.23,1.60256256E9,353.0,NaN,NaN
Raw,232445911363535,649250197000000,,,-1265581155251429481,-0.17852210998535156,41.734299884410575,18.32064789015096,9.743451769073948,120,3,0.0,49359,49187374492646,6,39.2,770.2057495117188,0.23980000615119934,25,12197.843358390386,8.219569400701237E-4,1.60481254E9,,,,0,,3,-2.23,1.60481254E9,353.0,NaN,NaN
Raw,232445911363535,649250197000000,,,-1265581155251429481,-0.17852210998535156,41.734299884410575,18.32064789015096,9.743451769073948,120,4,0.0,49359,49187384081974,16,29.8,191.76239013671875,0.21490000188350677,25,3000.8887971838562,0.002763795652773509,1.60537498E9,,,,0,,3,-2.23,1.60537498E9,353.0,NaN,NaN
Raw,232445911363535,649250197000000,,,-1265581155251429481,-0.17852210998535156,41.734299884410575,18.32064789015096,9.743451769073948,120,37,0.0,16399,383991369064982,7,37.6,479.2533874511719,0.03290000185370445,25,7746.501310330042,0.0010178092579723537,1.56109798E9,,,,0,,5,0.41,1.56109798E9,353.0,NaN,NaN
Raw,232445911363535,649250197000000,,,-1265581155251429481,-0.17852210998535156,41.734299884410575,18.32064789015096,9.743451769073948,120,22,0.0,16399,383991368368241,13,31.5,-407.78277587890625,0.0340999998152256,25,-6649.196695973579,0.0020932304434118673,1.56109798E9,,,,0,,5,0.41,1.56109798E9,353.0,NaN,NaN
Raw,232445911363535,649250197000000,,,-1265581155251429481,-0.17852210998535156,41.734299884410575,18.32064789015096,9.743451769073948,120,20,0.0,16399,383991365741293,17,28.5,638.3519287109375,0.03270000219345093,21,9144.669895028866,0.003034223768286223,1.56109798E9,,,,0,,5,0.41,1.56109798E9,353.0,NaN,NaN
Raw,232445911363535,649250197000000,,,-1265581155251429481,-0.17852210998535156,41.734299884410575,18.32064789015096,9.743451769073948,120,19,0.0,16399,383991374995777,27,24.6,193.41233825683594,0.062300004065036774,21,2464.2983535299786,0.1920394882785269,1.56109798E9,,,,0,,5,0.41,1.56109798E9,353.0,NaN,NaN
Raw,232445911363535,649250197000000,,,-1265581155251429481,-0.17852210998535156,41.734299884410575,18.32064789015096,9.743451769073948,120,10,0.0,16399,383991316117969,14,30.9,173.57345581054688,0.04690000042319298,25,2468.370587580697,0.0024196975554572116,1.56109798E9,,,,0,,5,0.41,1.56109798E9,353.0,NaN,NaN
Raw,232445911363535,649250197000000,,,-1265581155251429481,-0.17852210998535156,41.734299884410575,18.32064789015096,9.743451769073948,120,1,0.0,23567,384005364180869,4,44.0,386.9956359863281,0.04180000349879265,25,6227.434041971045,0.0010656445080284298,1.57542003E9,,,,0,,6,0.03,1.57542003E9,353.0,NaN,NaN
Raw,232445911363535,649250197000000,,,-1265581155251429481,-0.17852210998535156,41.734299884410575,18.32064789015096,9.743451769073948,120,4,0.0,23567,384005362240144,5,40.7,501.8092956542969,0.04560000076889992,25,8090.783320270107,0.001617496273834944,1.57542003E9,,,,0,,6,0.03,1.57542003E9,353.0,NaN,NaN
Raw,232445911363535,649250197000000,,,-1265581155251429481,-0.17852210998535156,41.734299884410575,18.32064789015096,9.743451769073948,120,5,0.0,23567,384005363138696,10,34.5,-422.4023742675781,0.04910000041127205,25,-6860.22812487204,0.003311109885939926,1.57542003E9,,,,0,,6,0.03,1.57542003E9,353.0,NaN,NaN
Raw,232445911363535,649250197000000,,,-1265581155251429481,-0.17852210998535156,41.734299884410575,18.32064789015096,9.743451769073948,120,9,0.0,23567,384005376734569,19,27.3,55.04340362548828,0.049800001084804535,25,859.7829465660906,0.007212130206821385,1.57542003E9,,,,0,,6,0.03,1.57542003E9,353.0,NaN,NaN
Raw,232445911363535,649250197000000,,,-1265581155251429481,-0.17852210998535156,41.734299884410575,18.32064789015096,9.743451769073948,120,24,0.0,23567,384005366402300,19,27.5,-552.1095581054688,0.052800003439188004,25,-1409.6694995353855,0.007212130206821385,1.57542003E9,,,,0,,6,0.03,1.57542003E9,353.0,NaN,NaN
Raw,232445911363535,649250197000000,,,-1265581155251429481,-0.17852210998535156,41.734299884410575,18.32064789015096,9.743451769073948,120,31,0.0,23567,384005369601131,16,29.7,-149.18600463867188,0.049400001764297485,25,-2049.0489045018485,0.006146485344343376,1.57542003E9,,,,0,,6,0.03,1.57542003E9,353.0,NaN,NaN
Raw,232445911363535,649250197000000,,,-1265581155251429481,-0.17852210998535156,41.734299884410575,18.32064789015096,9.743451769073948,120,30,0.0,81935,384005370665999,2,38.1,592.4256591796875,0.036500003188848495,25,5816.005746260931,0.0012486574029382824,1.17645005E9,,,,0,,1,4.81,1.17645005E9,353.0,NaN,NaN
Raw,232445911363535,649250197000000,,,-1265581155251429481,-0.17852210998535156,41.734299884410575,18.32064789015096,9.743451769073948,120,1,0.0,81935,384005364187990,12,18.0,386.3320617675781,0.987500011920929,16,0.0,0.0,1.17645005E9,,,,0,,6,4.81,1.17645005E9,353.0,NaN,NaN
Raw,232445911363535,649250197000000,,,-1265581155251429481,-0.17852210998535156,41.734299884410575,18.32064789015096,9.743451769073948,120,4,0.0,81935,384005362247257,5,28.2,501.88787841796875,0.0210999995470047,25,5171.569094809256,0.0040262828122019055,1.17645005E9,,,,0,,6,4.81,1.17645005E9,353.0,NaN,NaN
Raw,232445911363535,649250197000000,,,-1265581155251429481,-0.17852210998535156,41.734299884410575,18.32064789015096,9.743451769073948,120,5,0.0,81935,384005363145758,3,32.1,-422.2433166503906,0.016100000590085983,25,-4386.290082293266,0.0024208662868967453,1.17645005E9,,,,0,,6,4.81,1.17645005E9,353.0,NaN,NaN
Raw,232445911363535,649250197000000,,,-1265581155251429481,-0.17852210998535156,41.734299884410575,18.32064789015096,9.743451769073948,120,9,0.0,81935,384005376741638,5,28.3,55.12910461425781,0.057100001722574234,25,550.9517130643807,0.0040262828122019055,1.17645005E9,,,,0,,6,4.81,1.17645005E9,353.0,NaN,NaN
Raw,232445911363535,649250197000000,,,-1265581155251429481,-0.17852210998535156,41.734299884410575,18.32064789015096,9.743451769073948,120,31,0.0,81935,384005369608178,3,31.1,-149.0357208251953,0.04130000248551369,25,-1564.7274576231196,0.0027776256465907277,1.17645005E9,,,,0,,6,4.81,1.17645005E9,353.0,NaN,NaN
Fix,gps,51.524756,-0.134233,80.127869,0.000000,3.790092,1582195189000,232446906498738
Raw,232446927796970,649251197000000,,,-1265581155251429459,-0.8400592803955078,38.84557736455463,20.085409667841056,9.570752211157188,120,5,0.0,16399,384006367704708,13,31.2,728.4085083007812,0.032600000500679016,25,12407.60874327333,0.002074201012354331,1.57542003E9,,,,0,,1,0.08,1.57542003E9,353.0,NaN,NaN
Raw,232446927796970,649251197000000,,,-1265581155251429459,-0.8400592803955078,38.84557736455463,20.085409667841056,9.570752211157188,120,13,0.0,16399,384006380549907,8,36.3,215.62957763671875,0.019600000232458115,25,3649.902231416261,0.001160791358090767,1.57542003E9,,,,0,,1,0.08,1.57542003E9,353.0,NaN,NaN
Raw,232446927796970,649251197000000,,,-1265581155251429459,-0.8400592803955078,38.84557736455463,20.085409667841056,9.570752211157188,120,15,0.0,16399,384006380699059,6,38.3,-120.53996276855469,0.019100001081824303,25,-2106.5398288257034,9.324389888310735E-4,1.57542003E9,,,,0,,1,0.08,1.57542003E9,353.0,NaN,NaN
Raw,232446927796970,649251197000000,,,-1265581155251429459,-0.8400592803955078,38.84557736455463,20.085409667841056,9.570752211157188,120,20,0.0,16399,384006371678964,53,19.8,-365.2687072753906,0.9329999685287476,16,0.0,0.0,1.57542003E9,,,,0,,1,0.08,1.57542003E9,353.0,NaN,NaN
Raw,232446927796970,649251197000000,,,-1265581155251429459,-0.8400592803955078,38.84557736455463,20.085409667841056,9.570752211157188,120,24,0.0,16399,384006372648908,14,30.2,-587.4251708984375,0.04090000316500664,25,-10035.605259834247,0.002397700231676362,1.57542003E9,,,,0,,1,0.08,1.57542003E9,353.0,NaN,NaN
Raw,232446927796970,649251197000000,,,-1265581155251429459,-0.8400592803955078,38.84557736455463,20.085409667841056,9.570752211157188,120,28,0.0,16399,384006376929510,4,42.9,179.71453857421875,0.042100001126527786,25,3074.9163211812315,5.899103906353357E-4,1.57542003E9,,,,0,,1,0.08,1.57542003E9,353.0,NaN,NaN
Raw,232446927796970,649251197000000,,,-1265581155251429459,-0.8400592803955078,38.84557736455463,20.085409667841056,9.570752211157188,120,30,0.0,16399,384006370656160,19,27.2,591.7210693359375,0.01080000028014183,27,266.69629959559575,0.003234992547669888,1.57542003E9,,,,0,,1,0.08,1.57542003E9,353.0,NaN,NaN
Raw,232446927796970,649251197000000,,,-1265581155251429459,-0.8400592803955078,38.84557736455463,20.085409667841056,9.570752211157188,120,14,0.0,49359,49188384559435,11,33.5,-42.804935455322266,0.2272000014781952,25,-751.2694819758462,0.0016320979185651513,1.59806246E9,,,,0,,3,-2.19,1.59806246E9,353.0,NaN,NaN
Raw,232446927796970,649251197000000,,,-1265581155251429459,-0.8400592803955078,38.84557736455463,20.085409667841056,9.570752211157188,120,22,0.0,49359,49188370846312,14,30.3,-179.4374237060547,0.2379000037908554,25,-2821.460329160858,0.002360404669997281,1.60031245E9,,,,0,,3,-2.19,1.60031245E9,353.0,NaN,NaN
Raw,232446927796970,649251197000000,,,-1265581155251429459,-0.8400592803955078,38.84557736455463,20.085409667841056,9.570752211157188,120,13,0.0,49359,49188377693032,14,30.9,638.7108764648438,0.2484000027179718,25,10757.224354925718,0.0023595752053329456,1.60087501E9,,,,0,,3,-2.19,1.60087501E9,353.0,NaN,NaN
Raw,232446927796970,649251197000000,,,-1265581155251429459,-0.8400592803955078,38.84557736455463,20.085409667841056,9.570752211157188,120,15,0.0,49359,49188376202143,17,28.7,-663.5841674804688,0.2492000013589859,25,-11221.458136289635,0.0029567544367518762,1.602E9,,,,0,,3,-2.19,1.602E9,353.0,NaN,NaN
Raw,232446927796970,649251197000000,,,-1265581155251429459,-0.8400592803955078,38.84557736455463,20.085409667841056,9.570752211157188,120,5,0.0,49359,49188379150001,5,40.8,-566.218505859375,0.24710001051425934,25,-9581.000752608694,7.295756082573676E-4,1.60256256E9,,,,0,,3,-2.19,1.60256256E9,353.0,NaN,NaN
Raw,232446927796970,649251197000000,,,-1265581155251429459,-0.8400592803955078,38.84557736455463,20.085409667841056,9.570752211157188,120,3,0.0,49359,49188374490093,6,38.2,769.5859375,0.24009999632835388,25,12967.795433053287,9.153611536216265E-4,1.60481254E9,,,,0,,3,-2.19,1.60481254E9,353.0,NaN,NaN
Raw,232446927796970,649251197000000,,,-1265581155251429459,-0.8400592803955078,38.84557736455463,20.085409667841056,9.570752211157188,120,4,0.0,49359,49188384081282,17,28.7,191.18045043945312,0.23120000958442688,25,3192.4051744652106,0.002950538458920457,1.60537498E9,,,,0,,3,-2.19,1.60537498E9,353.0,NaN,NaN
Raw,232446927796970,649251197000000,,,-1265581155251429459,-0.8400592803955078,38.84557736455463,20.085409667841056,9.570752211157188,120,37,0.0,16399,383992369063382,7,37.3,478.58642578125,0.03290000185370445,25,8225.46002456635,0.0010178092579723537,1.56109798E9,,,,0,,5,0.45,1.56109798E9,353.0,NaN,NaN
Raw,232446927796970,649251197000000,,,-1265581155251429459,-0.8400592803955078,38.84557736455463,20.085409667841056,9.570752211157188,120,22,0.0,16399,383992368369611,14,30.7,-408.4123840332031,0.03490000218153,25,-7057.248180053463,0.0024196975554572116,1.56109798E9,,,,0,,5,0.45,1.56109798E9,353.0,NaN,NaN
Raw,232446927796970,649251197000000,,,-1265581155251429459,-0.8400592803955078,38.84557736455463,20.085409667841056,9.570752211157188,120,20,0.0,16399,383992365739135,17,28.5,637.6248168945312,0.03270000219345093,17,9782.645437931204,0.003034223768286223,1.56109798E9,,,,0,,5,0.45,1.56109798E9,353.0,NaN,NaN
Raw,232446927796970,649251197000000,,,-1265581155251429459,-0.8400592803955078,38.84557736455463,20.085409667841056,9.570752211157188,120,19,0.0,16399,383992374995118,35,22.9,192.80726623535156,0.4027999937534332,21,2657.4664213213578,0.1920394882785269,1.56109798E9,,,,0,,5,0.45,1.56109798E9,353.0,NaN,NaN
Raw,232446927796970,649251197000000,,,-1265581155251429459,-0.8400592803955078,38.84557736455463,20.085409667841056,9.570752211157188,120,10,0.0,16399,383992316117383,14,30.1,172.8721160888672,0.04690000042319298,25,2641.6496160729525,0.0024196975554572116,1.56109798E9,,,,0,,5,0.45,1.56109798E9,353.0,NaN,NaN
Raw,232446927796970,649251197000000,,,-1265581155251429459,-0.8400592803955078,38.84557736455463,20.085409667841056,9.570752211157188,120,1,0.0,23567,384006364179596,4,44.0,386.38189697265625,0.04180000349879265,25,6614.164898662965,0.0010656445080284298,1.57542003E9,,,,0,,6,0.06,1.57542003E9,353.0,NaN,NaN
Raw,232446927796970,649251197000000,,,-1265581155251429459,-0.8400592803955078,38.84557736455463,20.085409667841056,9.570752211157188,120,4,0.0,23567,384006362238475,6,39.7,501.2085876464844,0.04580000042915344,25,8592.341006468463,0.0018458486430946374,1.57542003E9,,,,0,,6,0.06,1.57542003E9,353.0,NaN,NaN
Raw,232446927796970,649251197000000,,,-1265581155251429459,-0.8400592803955078,38.84557736455463,20.085409667841056,9.570752211157188,120,5,0.0,23567,384006363140116,10,34.6,-423.05352783203125,0.04910000041127205,25,-7282.930393551946,0.003311109885939926,1.57542003E9,,,,0,,6,0.06,1.57542003E9,353.0,NaN,NaN
Raw,232446927796970,649251197000000,,,-1265581155251429459,-0.8400592803955078,38.84557736455463,20.085409667841056,9.570752211157188,120,9,0.0,23567,384006376734360,19,27.6,54.48566818237305,0.049800001084804535,25,914.621128778069,0.007212130206821385,1.57542003E9,,,,0,,6,0.06,1.57542003E9,353.0,NaN,NaN
Raw,232446927796970,649251197000000,,,-1265581155251429459,-0.8400592803955078,38.84557736455463,20.085409667841056,9.570752211157188,120,24,0.0,23567,384006366404159,17,28.0,-552.7186279296875,0.05220000073313713,25,-1962.0543285698964,0.006565131413727744,1.57542003E9,,,,0,,6,0.06,1.57542003E9,353.0,NaN,NaN
Raw,232446927796970,649251197000000,,,-1265581155251429459,-0.8400592803955078,38.84557736455463,20.085409667841056,9.570752211157188,120,31,0.0,23567,384006369601645,16,29.9,-149.75669860839844,0.049400001764297485,25,-2198.4419927263802,0.006146485344343376,1.57542003E9,,,,0,,6,0.06,1.57542003E9,353.0,NaN,NaN
Raw,232446927796970,649251197000000,,,-1265581155251429459,-0.8400592803955078,38.84557736455463,20.085409667841056,9.570752211157188,120,24,0.0,81935,384006372656830,14,17.1,-587.4168701171875,1.844499945640564,16,0.0,0.0,1.17645005E9,,,,0,,1,8.21,1.17645005E9,353.0,NaN,NaN
Raw,232446927796970,649251197000000,,,-1265581155251429459,-0.8400592803955078,38.84557736455463,20.085409667841056,9.570752211157188,120,30,0.0,81935,384006370664023,2,38.8,591.7491455078125,0.036500003188848495,25,6408.135067302738,0.0012486574029382824,1.17645005E9,,,,0,,1,8.21,1.17645005E9,353.0,NaN,NaN
Raw,232446927796970,649251197000000,,,-1265581155251429459,-0.8400592803955078,38.84557736455463,20.085409667841056,9.570752211157188,120,1,0.0,81935,384006364186705,12,18.6,388.2559814453125,1.002500057220459,16,0.0,0.0,1.17645005E9,,,,0,,6,8.21,1.17645005E9,353.0,NaN,NaN
Raw,232446927796970,649251197000000,,,-1265581155251429459,-0.8400592803955078,38.84557736455463,20.085409667841056,9.570752211157188,120,4,0.0,81935,384006362245584,4,29.0,500.9736328125,0.03400000184774399,25,5673.120057933217,0.0037714549693657518,1.17645005E9,,,,0,,6,8.21,1.17645005E9,353.0,NaN,NaN
Raw,232446927796970,649251197000000,,,-1265581155251429459,-0.8400592803955078,38.84557736455463,20.085409667841056,9.570752211157188,120,5,0.0,81935,384006363147167,3,32.6,-423.341796875,0.03110000118613243,25,-4808.98346909022,0.0024208662868967453,1.17645005E9,,,,0,,6,8.21,1.17645005E9,353.0,NaN,NaN
Raw,232446927796970,649251197000000,,,-1265581155251429459,-0.8400592803955078,38.84557736455463,20.085409667841056,9.570752211157188,120,9,0.0,81935,384006376741457,5,28.9,54.18569564819336,0.057100001722574234,25,605.7794252371069,0.0040262828122019055,1.17645005E9,,,,0,,6,8.21,1.17645005E9,353.0,NaN,NaN
Raw,232446927796970,649251197000000,,,-1265581155251429459,-0.8400592803955078,38.84557736455463,20.085409667841056,9.570752211157188,120,31,0.0,81935,384006369608675,3,31.9,-149.98716735839844,0.04130000248551369,25,-1714.133812037408,0.0027776256465907277,1.17645005E9,,,,0,,6,8.21,1.17645005E9,353.0,NaN,NaN
Fix,gps,51.524756,-0.134235,80.540161,0.000000,3.790092,1582195190000,232447894962379
Raw,232447905173369,649252197000000,,,-1265581155251429445,-0.2965259552001953,39.21051393263042,17.899306013423946,10.518761890447653,120,5,0.0,16399,384007367702272,14,30.6,728.7094116210938,0.033400002866983414,25,13136.21792437558,0.002397700231676362,1.57542003E9,,,,0,,1,-0.02,1.57542003E9,353.0,NaN,NaN
Raw,232447905173369,649252197000000,,,-1265581155251429445,-0.2965259552001953,39.21051393263042,17.899306013423946,10.518761890447653,120,13,0.0,16399,384007380549175,8,36.9,216.0108184814453,0.004600000102072954,25,3865.8030855271013,0.001160791358090767,1.57542003E9,,,,0,,1,-0.02,1.57542003E9,353.0,NaN,NaN
Raw,232447905173369,649252197000000,,,-1265581155251429445,-0.2965259552001953,39.21051393263042,17.899306013423946,10.518761890447653,120,15,0.0,16399,384007380699472,6,38.0,-120.1507568359375,0.004100000020116568,25,-2226.828094261755,9.324389888310735E-4,1.57542003E9,,,,0,,1,-0.02,1.57542003E9,353.0,NaN,NaN
Raw,232447905173369,649252197000000,,,-1265581155251429445,-0.2965259552001953,39.21051393263042,17.899306013423946,10.518761890447653,120,17,0.0,16399,384007365768227,61,18.5,-538.4645385742188,2.569000005722046,16,0.0,0.0,1.57542003E9,,,,0,,1,-0.02,1.57542003E9,353.0,NaN,NaN
Raw,232447905173369,649252197000000,,,-1265581155251429445,-0.2965259552001953,39.21051393263042,17.899306013423946,10.518761890447653,120,20,0.0,16399,384007371680282,35,22.5,-365.08917236328125,0.3982999920845032,19,-1992.9332942837025,0.19029366893311156,1.57542003E9,,,,0,,1,-0.02,1.57542003E9,353.0,NaN,NaN
Raw,232447905173369,649252197000000,,,-1265581155251429445,-0.2965259552001953,39.21051393263042,17.899306013423946,10.518761890447653,120,24,0.0,16399,384007372650855,14,30.3,-587.0820922851562,0.04090000316500664,25,-10622.805434579435,0.002397700231676362,1.57542003E9,,,,0,,1,-0.02,1.57542003E9,353.0,NaN,NaN
Raw,232447905173369,649252197000000,,,-1265581155251429445,-0.2965259552001953,39.21051393263042,17.899306013423946,10.518761890447653,120,28,0.0,16399,384007376928913,4,42.6,180.10989379882812,0.042100001126527786,25,3254.8832367783393,5.899103906353357E-4,1.57542003E9,,,,0,,1,-0.02,1.57542003E9,353.0,NaN,NaN
Raw,232447905173369,649252197000000,,,-1265581155251429445,-0.2965259552001953,39.21051393263042,17.899306013423946,10.518761890447653,120,30,0.0,16399,384007370654251,35,22.4,592.27001953125,0.8014999628067017,16,0.0,0.0,1.57542003E9,,,,0,,1,-0.02,1.57542003E9,353.0,NaN,NaN
Raw,232447905173369,649252197000000,,,-1265581155251429445,-0.2965259552001953,39.21051393263042,17.899306013423946,10.518761890447653,120,14,0.0,49359,49189384559576,11,33.0,-42.375755310058594,0.2272000014781952,25,-793.7875704656957,0.0016320979185651513,1.59806246E9,,,,0,,3,-2.26,1.59806246E9,353.0,NaN,NaN
Raw,232447905173369,649252197000000,,,-1265581155251429445,-0.2965259552001953,39.21051393263042,17.899306013423946,10.518761890447653,120,22,0.0,49359,49189370846858,14,30.0,-178.9888458251953,0.2379000037908554,25,-3000.6050863195323,0.002360404669997281,1.60031245E9,,,,0,,3,-2.26,1.60031245E9,353.0,NaN,NaN
Raw,232447905173369,649252197000000,,,-1265581155251429445,-0.2965259552001953,39.21051393263042,17.899306013423946,10.518761890447653,120,13,0.0,49359,49189377690872,14,30.9,639.056396484375,0.2484000027179718,25,11396.15820693717,0.0023595752053329456,1.60087501E9,,,,0,,3,-2.26,1.60087501E9,353.0,NaN,NaN
Raw,232447905173369,649252197000000,,,-1265581155251429445,-0.2965259552001953,39.21051393263042,17.899306013423946,10.518761890447653,120,15,0.0,49359,49189376204344,16,29.3,-663.1931762695312,0.24790000915527344,25,-11884.785524362222,0.002769618214569399,1.602E9,,,,0,,3,-2.26,1.602E9,353.0,NaN,NaN
Raw,232447905173369,649252197000000,,,-1265581155251429445,-0.2965259552001953,39.21051393263042,17.899306013423946,10.518761890447653,120,5,0.0,49359,49189379151908,5,40.5,-565.8326416015625,0.24710001051425934,25,-10146.975105226966,7.295756082573676E-4,1.60256256E9,,,,0,,3,-2.26,1.60256256E9,353.0,NaN,NaN
Raw,232447905173369,649252197000000,,,-1265581155251429445,-0.2965259552001953,39.21051393263042,17.899306013423946,10.518761890447653,120,3,0.0,49359,49189374487530,7,37.6,769.9307861328125,0.24040000140666962,25,13737.602176284207,9.900844722691658E-4,1.60481254E9,,,,0,,3,-2.26,1.60481254E9,353.0,NaN,NaN
Raw,232447905173369,649252197000000,,,-1265581155251429445,-0.2965259552001953,39.21051393263042,17.899306013423946,10.518761890447653,120,4,0.0,49359,49189384080676,17,28.4,191.6201934814453,0.23120000958442688,25,3383.8730198753915,0.002950538458920457,1.60537498E9,,,,0,,3,-2.26,1.60537498E9,353.0,NaN,NaN
Raw,232447905173369,649252197000000,,,-1265581155251429445,-0.2965259552001953,39.21051393263042,17.899306013423946,10.518761890447653,120,37,0.0,16399,383993369061798,7,37.5,478.91827392578125,0.03290000185370445,25,8704.26084503231,0.0010178092579723537,1.56109798E9,,,,0,,5,0.28,1.56109798E9,353.0,NaN,NaN
Raw,232447905173369,649252197000000,,,-1265581155251429445,-0.2965259552001953,39.21051393263042,17.899306013423946,10.518761890447653,120,22,0.0,16399,383993368370970,14,30.2,-408.052001953125,0.03490000218153,25,-7465.426217348584,0.0024196975554572116,1.56109798E9,,,,0,,5,0.28,1.56109798E9,353.0,NaN,NaN
Raw,232447905173369,649252197000000,,,-1265581155251429445,-0.2965259552001953,39.21051393263042,17.899306013423946,10.518761890447653,120,20,0.0,16399,383993365736995,21,26.7,637.9375,0.03420000150799751,21,10420.479676683834,0.005492329335005111,1.56109798E9,,,,0,,5,0.28,1.56109798E9,353.0,NaN,NaN
Raw,232447905173369,649252197000000,,,-1265581155251429445,-0.2965259552001953,39.21051393263042,17.899306013423946,10.518761890447653,120,19,0.0,16399,383993374994477,27,24.5,193.2188262939453,0.062300004065036774,21,2850.5106424675228,0.1920394882785269,1.56109798E9,,,,0,,5,0.28,1.56109798E9,353.0,NaN,NaN
Raw,232447905173369,649252197000000,,,-1265581155251429445,-0.2965259552001953,39.21051393263042,17.899306013423946,10.518761890447653,120,10,0.0,16399,383993316116808,14,30.9,173.17196655273438,0.04690000042319298,25,2814.7305850437147,0.0024196975554572116,1.56109798E9,,,,0,,5,0.28,1.56109798E9,353.0,NaN,NaN
Raw,232447905173369,649252197000000,,,-1265581155251429445,-0.2965259552001953,39.21051393263042,17.899306013423946,10.518761890447653,120,1,0.0,23567,384007364178289,4,43.6,386.7069396972656,0.04200000315904617,25,7000.752128504622,0.0011227326889557481,1.57542003E9,,,,0,,6,0.0,1.57542003E9,353.0,NaN,NaN
Raw,232447905173369,649252197000000,,,-1265581155251429445,-0.2965259552001953,39.21051393263042,17.899306013423946,10.518761890447653,120,4,0.0,23567,384007362236799,5,40.1,501.4964904785156,0.04560000076889992,25,9093.7222053358,0.001617496273834944,1.57542003E9,,,,0,,6,0.0,1.57542003E9,353.0,NaN,NaN
Raw,232447905173369,649252197000000,,,-1265581155251429445,-0.2965259552001953,39.21051393263042,17.899306013423946,10.518761890447653,120,5,0.0,23567,384007363141518,10,34.8,-422.7398376464844,0.04910000041127205,25,-7705.781227188283,0.003311109885939926,1.57542003E9,,,,0,,6,0.0,1.57542003E9,353.0,NaN,NaN
Raw,232447905173369,649252197000000,,,-1265581155251429445,-0.2965259552001953,39.21051393263042,17.899306013423946,10.518761890447653,120,9,0.0,23567,384007376734161,16,29.0,54.8044319152832,0.0479000024497509,21,969.2205040981441,0.006146485344343376,1.57542003E9,,,,0,,6,0.0,1.57542003E9,353.0,NaN,NaN
Raw,232447905173369,649252197000000,,,-1265581155251429445,-0.2965259552001953,39.21051393263042,17.899306013423946,10.518761890447653,120,24,0.0,23567,384007366405992,17,28.0,-552.4578857421875,0.05220000073313713,25,-2514.630202955562,0.006565131413727744,1.57542003E9,,,,0,,6,0.0,1.57542003E9,353.0,NaN,NaN
Raw,232447905173369,649252197000000,,,-1265581155251429445,-0.2965259552001953,39.21051393263042,17.899306013423946,10.518761890447653,120,31,0.0,23567,384007369602160,19,27.0,-149.41534423828125,0.05130000039935112,21,-2348.0638888808467,0.007212130206821385,1.57542003E9,,,,0,,6,0.0,1.57542003E9,353.0,NaN,NaN
Raw,232447905173369,649252197000000,,,-1265581155251429445,-0.2965259552001953,39.21051393263042,17.899306013423946,10.518761890447653,120,24,0.0,81935,384007372658798,11,19.2,-587.0789184570312,0.1678999960422516,27,-6973.805921554987,0.25482803839368795,1.17645005E9,,,,0,,1,5.0,1.17645005E9,353.0,NaN,NaN
Raw,232447905173369,649252197000000,,,-1265581155251429445,-0.2965259552001953,39.21051393263042,17.899306013423946,10.518761890447653,120,30,0.0,81935,384007370662047,2,38.3,592.058349609375,0.036500003188848495,25,7000.090336853567,0.0012486574029382824,1.17645005E9,,,,0,,1,5.0,1.17645005E9,353.0,NaN,NaN
Raw,232447905173369,649252197000000,,,-1265581155251429445,-0.2965259552001953,39.21051393263042,17.899306013423946,10.518761890447653,120,4,0.0,81935,384007362243910,5,28.5,501.453369140625,0.0210999995470047,25,6174.50432061425,0.0040262828122019055,1.17645005E9,,,,0,,6,5.0,1.17645005E9,353.0,NaN,NaN
Raw,232447905173369,649252197000000,,,-1265581155251429445,-0.2965259552001953,39.21051393263042,17.899306013423946,10.518761890447653,120,5,0.0,81935,384007363148577,3,32.6,-422.7435302734375,0.03110000118613243,25,-5231.83047525729,0.0024208662868967453,1.17645005E9,,,,0,,6,5.0,1.17645005E9,353.0,NaN,NaN
Raw,232447905173369,649252197000000,,,-1265581155251429445,-0.2965259552001953,39.21051393263042,17.899306013423946,10.518761890447653,120,9,0.0,81935,384007376741275,5,28.4,54.711097717285156,0.057100001722574234,25,660.4832347064939,0.0040262828122019055,1.17645005E9,,,,0,,6,5.0,1.17645005E9,353.0,NaN,NaN
Raw,232447905173369,649252197000000,,,-1265581155251429445,-0.2965259552001953,39.21051393263042,17.899306013423946,10.518761890447653,120,24,0.0,81935,384007366413087,20,14.2,-553.4227905273438,5.115500450134277,16,0.0,0.0,1.17645005E9,,,,0,,6,5.0,1.17645005E9,353.0,NaN,NaN
Raw,232447905173369,649252197000000,,,-1265581155251429445,-0.2965259552001953,39.21051393263042,17.899306013423946,10.518761890447653,120,31,0.0,81935,384007369609173,3,31.6,-149.43568420410156,0.04130000248551369,25,-1863.6576361776708,0.0027776256465907277,1.17645005E9,,,,0,,6,5.0,1.17645005E9,353.0,NaN,NaN
Fix,gps,51.524756,-0.134235,80.688232,0.000000,3.790092,1582195191000,232448904644146
Raw,232448917219460,649253197000000,,,-1265581155251429427,-0.9813766479492188,40.081398765323684,18.847450094827582,10.52916254628233,120,5,0.0,16399,384008367699817,14,30.2,728.0122680664062,0.033400002866983414,25,13864.538921139158,0.002397700231676362,1.57542003E9,,,,0,,1,0.08,1.57542003E9,353.0,NaN,NaN
