# 
# Header Description:
# 
# Version: v2.0.0.1 Platform: 10 Manufacturer: Google Model: Pixel 4
# 
# Raw,ElapsedRealtimeNanos,TimeNanos,LeapSecond,TimeUncertaintyNanos,FullBiasNanos,BiasNanos,BiasUncertaintyNanos,DriftNanosPerSecond,DriftUncertaintyNanosPerSecond,HardwareClockDiscontinuityCount,Svid,TimeOffsetNanos,State,ReceivedSvTimeNanos,ReceivedSvTimeUncertaintyNanos,Cn0DbHz,PseudorangeRateMetersPerSecond,PseudorangeRateUncertaintyMetersPerSecond,AccumulatedDeltaRangeState,AccumulatedDeltaRangeMeters,AccumulatedDeltaRangeUncertaintyMeters,CarrierFrequencyHz,CarrierCycles,CarrierPhase,CarrierPhaseUncertainty,MultipathIndicator,SnrInDb,ConstellationType,AgcDb,CarrierFrequencyHz,UserLatitude,UserLongitude,UserAltitude
# 
# Fix,Provider,Latitude,Longitude,Altitude,Speed,Accuracy,(UTC)TimeInMs,ElapsedRealtimeNanos
# 
# Nav,Svid,Type,Status,MessageId,Sub-messageId,Data(Bytes)
# 
Fix,gps,51.524606,-0.134166,67.377930,0.000000,3.790092,1582203746000,241003914846322
Raw,241003926425959,657807910000000,,,-1265581155231731452,0.39920997619628906,23.610944481333718,18.915990400872538,3.6740805832448267,199,10,0.0,16399,392563063875649,21,26.6,243.7830352783203,0.25519999861717224,21,25.409828176338625,0.19029366893311156,1.57542003E9,,,,0,,1,0.91,1.57542003E9,406.0,NaN,NaN
Raw,241003926425959,657807910000000,,,-1265581155231731452,0.39920997619628906,23.610944481333718,18.915990400872538,3.6740805832448267,199,12,0.0,16399,392563072240774,13,31.2,-426.7867431640625,0.0731000006198883,21,-48.224393636866424,0.002397700231676362,1.57542003E9,,,,0,,1,0.91,1.57542003E9,406.0,NaN,NaN
Raw,241003926425959,657807910000000,,,-1265581155231731452,0.39920997619628906,23.610944481333718,18.915990400872538,3.6740805832448267,199,13,0.0,16399,392563058589649,27,24.6,743.4202880859375,0.6784999966621399,16,0.0,0.0,1.57542003E9,,,,0,,1,0.91,1.57542003E9,406.0,NaN,NaN
Raw,241003926425959,657807910000000,,,-1265581155231731452,0.39920997619628906,23.610944481333718,18.915990400872538,3.6740805832448267,199,15,0.0,16399,392563064769472,11,33.0,680.5791015625,0.04920000210404396,21,71.53511691536505,0.0010085564157135064,1.57542003E9,,,,0,,1,0.91,1.57542003E9,406.0,NaN,NaN
Raw,241003926425959,657807910000000,,,-1265581155231731452,0.39920997619628906,23.610944481333718,18.915990400872538,3.6740805832448267,199,17,0.0,16399,392563064747789,8,36.1,270.4564208984375,0.0364999994635582,21,28.453987435364578,0.001655554942969963,1.57542003E9,,,,0,,1,0.91,1.57542003E9,406.0,NaN,NaN
Raw,241003926425959,657807910000000,,,-1265581155231731452,0.39920997619628906,23.610944481333718,18.915990400872538,3.6740805832448267,199,19,0.0,16399,392563068479224,5,40.5,-58.791603088378906,0.03189999982714653,21,-6.458786178647354,8.372921387687362E-4,1.57542003E9,,,,0,,1,0.91,1.57542003E9,406.0,NaN,NaN
Raw,241003926425959,657807910000000,,,-1265581155231731452,0.39920997619628906,23.610944481333718,18.915990400872538,3.6740805832448267,199,24,0.0,16399,392563074733480,6,39.7,48.93973159790039,0.042900003492832184,21,5.6686620121626445,0.0010085564157135064,1.57542003E9,,,,0,,1,0.91,1.57542003E9,406.0,NaN,NaN
Raw,241003926425959,657807910000000,,,-1265581155231731452,0.39920997619628906,23.610944481333718,18.915990400872538,3.6740805832448267,199,25,0.0,16399,392563063044390,24,25.0,-692.5648193359375,1.1950000524520874,19,-85.872907238766,0.19029366893311156,1.57542003E9,,,,0,,1,0.91,1.57542003E9,406.0,NaN,NaN
Raw,241003926425959,657807910000000,,,-1265581155231731452,0.39920997619628906,23.610944481333718,18.915990400872538,3.6740805832448267,199,32,0.0,16399,392563062431191,8,36.1,-616.337158203125,0.06350000202655792,21,-75.78519117995404,0.001807789796734829,1.57542003E9,,,,0,,1,0.91,1.57542003E9,406.0,NaN,NaN
Raw,241003926425959,657807910000000,,,-1265581155231731452,0.39920997619628906,23.610944481333718,18.915990400872538,3.6740805832448267,199,14,0.0,49359,57745066926907,24,25.5,641.30712890625,1.3695000410079956,21,68.68525189769254,0.18759745926927673,1.59806246E9,,,,0,,3,-0.51,1.59806246E9,406.0,NaN,NaN
Raw,241003926425959,657807910000000,,,-1265581155231731452,0.39920997619628906,23.610944481333718,18.915990400872538,3.6740805832448267,199,6,0.0,49359,57745073515862,16,29.6,-139.7591552734375,0.2939000129699707,21,-15.860119767758295,0.003185792787621298,1.59975002E9,,,,0,,3,-0.51,1.59975002E9,406.0,NaN,NaN
Raw,241003926425959,657807910000000,,,-1265581155231731452,0.39920997619628906,23.610944481333718,18.915990400872538,3.6740805832448267,199,16,0.0,49359,57745072146119,24,25.4,-484.6163330078125,1.3785001039505005,21,-54.62558947994924,0.002358746511954898,1.60143744E9,,,,0,,3,-0.51,1.60143744E9,406.0,NaN,NaN
Raw,241003926425959,657807910000000,,,-1265581155231731452,0.39920997619628906,23.610944481333718,18.915990400872538,3.6740805832448267,199,15,0.0,49359,57745076941006,5,41.9,173.2392120361328,0.2418999969959259,21,20.357403584804064,9.169682032598611E-4,1.602E9,,,,0,,3,-0.51,1.602E9,406.0,NaN,NaN
Raw,241003926425959,657807910000000,,,-1265581155231731452,0.39920997619628906,23.610944481333718,18.915990400872538,3.6740805832448267,199,5,0.0,49359,57745071157636,31,23.8,680.1048583984375,0.8679999709129333,16,0.0,0.0,1.60256256E9,,,,0,,3,-0.51,1.60256256E9,406.0,NaN,NaN
Raw,241003926425959,657807910000000,,,-1265581155231731452,0.39920997619628906,23.610944481333718,18.915990400872538,3.6740805832448267,199,23,0.0,49359,57745064935072,27,24.4,458.1605529785156,0.8075000047683716,16,0.0,0.0,1.60368755E9,,,,0,,3,-0.51,1.60368755E9,406.0,NaN,NaN
Raw,241003926425959,657807910000000,,,-1265581155231731452,0.39920997619628906,23.610944481333718,18.915990400872538,3.6740805832448267,199,17,0.0,49359,57745066837415,6,39.7,-668.101806640625,0.23090000450611115,21,-71.56957229878974,9.156821419811199E-4,1.60424998E9,,,,0,,3,-0.51,1.60424998E9,406.0,NaN,NaN
Raw,241003926425959,657807910000000,,,-1265581155231731452,0.39920997619628906,23.610944481333718,18.915990400872538,3.6740805832448267,199,3,0.0,23567,392563055397693,6,39.0,-338.3076171875,0.05640000104904175,21,-41.92096630439243,0.0020551716777868216,1.57542003E9,,,,0,,6,0.03,1.57542003E9,406.0,NaN,NaN
Raw,241003926425959,657807910000000,,,-1265581155231731452,0.39920997619628906,23.610944481333718,18.915990400872538,3.6740805832448267,199,5,0.0,23567,392563060881372,8,36.0,196.85020446777344,0.060499999672174454,21,23.872115516936073,0.003596550258902148,1.57542003E9,,,,0,,6,0.03,1.57542003E9,406.0,NaN,NaN
Raw,241003926425959,657807910000000,,,-1265581155231731452,0.39920997619628906,23.610944481333718,18.915990400872538,3.6740805832448267,199,24,0.0,23567,392563069565659,16,29.2,-93.97816467285156,0.10589999705553055,21,-11.470900497692227,0.003958108324583987,1.57542003E9,,,,0,,6,0.03,1.57542003E9,406.0,NaN,NaN
Raw,241003926425959,657807910000000,,,-1265581155231731452,0.39920997619628906,23.610944481333718,18.915990400872538,3.6740805832448267,199,31,0.0,23567,392563058780580,11,33.5,374.4371337890625,0.07620000094175339,21,46.047147953024854,0.0025499350854412276,1.57542003E9,,,,0,,6,0.03,1.57542003E9,406.0,NaN,NaN
Fix,gps,51.524607,-0.134167,67.488098,0.000000,3.790092,1582203747000,241004912607047
Raw,241004927790277,657809215000000,,,-1265581155231441562,-0.8910064697265625,32.2917039738968,22.596634419857047,10.300340165131649,200,10,0.0,16399,392564368584629,19,27.7,247.07730102539062,0.7365000247955322,16,0.0,0.0,1.57542003E9,,,,0,,1,0.11,1.57542003E9,406.0,NaN,NaN
Raw,241004927790277,657809215000000,,,-1265581155231441562,-0.8910064697265625,32.2917039738968,22.596634419857047,10.300340165131649,200,12,0.0,16399,392564376952713,7,37.6,-423.65081787109375,0.44450002908706665,16,0.0,0.0,1.57542003E9,,,,0,,1,0.11,1.57542003E9,406.0,NaN,NaN
Raw,241004927790277,657809215000000,,,-1265581155231441562,-0.8910064697265625,32.2917039738968,22.596634419857047,10.300340165131649,200,15,0.0,16399,392564369476695,6,38.5,683.772705078125,0.4350000023841858,16,0.0,0.0,1.57542003E9,,,,0,,1,0.11,1.57542003E9,406.0,NaN,NaN
Raw,241004927790277,657809215000000,,,-1265581155231441562,-0.8910064697265625,32.2917039738968,22.596634419857047,10.300340165131649,200,17,0.0,16399,392564369456897,16,29.4,273.4615173339844,0.6650000214576721,16,0.0,0.0,1.57542003E9,,,,0,,1,0.11,1.57542003E9,406.0,NaN,NaN
Raw,241004927790277,657809215000000,,,-1265581155231441562,-0.8910064697265625,32.2917039738968,22.596634419857047,10.300340165131649,200,19,0.0,16399,392564373189667,6,39.4,-55.546722412109375,0.4190000295639038,16,0.0,0.0,1.57542003E9,,,,0,,1,0.11,1.57542003E9,406.0,NaN,NaN
Raw,241004927790277,657809215000000,,,-1265581155231441562,-0.8910064697265625,32.2917039738968,22.596634419857047,10.300340165131649,200,20,0.0,16399,392564365901954,61,18.1,548.0648193359375,1.3839999437332153,16,0.0,0.0,1.57542003E9,,,,0,,1,0.11,1.57542003E9,406.0,NaN,NaN
Raw,241004927790277,657809215000000,,,-1265581155231441562,-0.8910064697265625,32.2917039738968,22.596634419857047,10.300340165131649,200,24,0.0,16399,392564379443407,5,41.0,51.97871398925781,0.3799999952316284,16,0.0,0.0,1.57542003E9,,,,0,,1,0.11,1.57542003E9,406.0,NaN,NaN
Raw,241004927790277,657809215000000,,,-1265581155231441562,-0.8910064697265625,32.2917039738968,22.596634419857047,10.300340165131649,200,25,0.0,16399,392564367757517,35,22.8,-689.6052856445312,0.937999963760376,16,0.0,0.0,1.57542003E9,,,,0,,1,0.11,1.57542003E9,406.0,NaN,NaN
Raw,241004927790277,657809215000000,,,-1265581155231441562,-0.8910064697265625,32.2917039738968,22.596634419857047,10.300340165131649,200,32,0.0,16399,392564367144079,12,32.7,-613.3831176757812,0.578000009059906,16,0.0,0.0,1.57542003E9,,,,0,,1,0.11,1.57542003E9,406.0,NaN,NaN
Raw,241004927790277,657809215000000,,,-1265581155231441562,-0.8910064697265625,32.2917039738968,22.596634419857047,10.300340165131649,200,14,0.0,49359,57746371634466,35,22.2,644.2096557617188,1.1319999694824219,16,0.0,0.0,1.59806246E9,,,,0,,3,-2.57,1.59806246E9,406.0,NaN,NaN
Raw,241004927790277,657809215000000,,,-1265581155231441562,-0.8910064697265625,32.2917039738968,22.596634419857047,10.300340165131649,200,6,0.0,49359,57746378226566,16,29.7,-136.43624877929688,0.8115000128746033,16,0.0,0.0,1.59975002E9,,,,0,,3,-2.57,1.59975002E9,406.0,NaN,NaN
Raw,241004927790277,657809215000000,,,-1265581155231441562,-0.8910064697265625,32.2917039738968,22.596634419857047,10.300340165131649,200,16,0.0,49359,57746376858381,11,33.7,-481.8956298828125,0.7045000195503235,16,0.0,0.0,1.60143744E9,,,,0,,3,-2.57,1.60143744E9,406.0,NaN,NaN
Raw,241004927790277,657809215000000,,,-1265581155231441562,-0.8910064697265625,32.2917039738968,22.596634419857047,10.300340165131649,200,15,0.0,49359,57746381650418,6,38.3,176.4134521484375,0.6370000243186951,16,0.0,0.0,1.602E9,,,,0,,3,-2.57,1.602E9,406.0,NaN,NaN
Raw,241004927790277,657809215000000,,,-1265581155231441562,-0.8910064697265625,32.2917039738968,22.596634419857047,10.300340165131649,200,5,0.0,49359,57746375864718,21,26.5,683.4721069335938,0.9259999990463257,16,0.0,0.0,1.60256256E9,,,,0,,3,-2.57,1.60256256E9,406.0,NaN,NaN
Raw,241004927790277,657809215000000,,,-1265581155231441562,-0.8910064697265625,32.2917039738968,22.596634419857047,10.300340165131649,200,23,0.0,49359,57746369643213,14,30.8,461.4039306640625,0.7950000166893005,16,0.0,0.0,1.60368755E9,,,,0,,3,-2.57,1.60368755E9,406.0,NaN,NaN
Raw,241004927790277,657809215000000,,,-1265581155231441562,-0.8910064697265625,32.2917039738968,22.596634419857047,10.300340165131649,200,17,0.0,49359,57746371550531,5,40.3,-664.8973388671875,0.5920000076293945,16,0.0,0.0,1.60424998E9,,,,0,,3,-2.57,1.60424998E9,406.0,NaN,NaN
Raw,241004927790277,657809215000000,,,-1265581155231441562,-0.8910064697265625,32.2917039738968,22.596634419857047,10.300340165131649,200,36,0.0,16399,392550373612769,6,39.5,-37.553321838378906,0.4190000295639038,16,0.0,0.0,1.56109798E9,,,,0,,5,0.18,1.56109798E9,406.0,NaN,NaN
Raw,241004927790277,657809215000000,,,-1265581155231441562,-0.8910064697265625,32.2917039738968,22.596634419857047,10.300340165131649,200,30,0.0,16399,392550364105550,8,36.6,-546.1602783203125,0.48250001668930054,16,0.0,0.0,1.56109798E9,,,,0,,5,0.18,1.56109798E9,406.0,NaN,NaN
Raw,241004927790277,657809215000000,,,-1265581155231441562,-0.8910064697265625,32.2917039738968,22.596634419857047,10.300340165131649,200,27,0.0,16399,392550365842209,24,25.0,-93.62886047363281,0.831000030040741,16,0.0,0.0,1.56109798E9,,,,0,,5,0.18,1.56109798E9,406.0,NaN,NaN
Raw,241004927790277,657809215000000,,,-1265581155231441562,-0.8910064697265625,32.2917039738968,22.596634419857047,10.300340165131649,200,22,0.0,16399,392550366062385,53,19.5,446.3190002441406,1.8905000686645508,16,0.0,0.0,1.56109798E9,,,,0,,5,0.18,1.56109798E9,406.0,NaN,NaN
Raw,241004927790277,657809215000000,,,-1265581155231441562,-0.8910064697265625,32.2917039738968,22.596634419857047,10.300340165131649,200,21,0.0,16399,392550365895114,4,42.8,-106.79316711425781,0.3710000216960907,16,0.0,0.0,1.56109798E9,,,,0,,5,0.18,1.56109798E9,406.0,NaN,NaN
Raw,241004927790277,657809215000000,,,-1265581155231441562,-0.8910064697265625,32.2917039738968,22.596634419857047,10.300340165131649,200,8,0.0,16399,392550310732895,488,20.9,-326.2942810058594,1.3415000438690186,16,0.0,0.0,1.56109798E9,,,,0,,5,0.18,1.56109798E9,406.0,NaN,NaN
Raw,241004927790277,657809215000000,,,-1265581155231441562,-0.8910064697265625,32.2917039738968,22.596634419857047,10.300340165131649,200,3,0.0,23567,392564360109298,5,40.1,-335.32598876953125,0.3945000171661377,16,0.0,0.0,1.57542003E9,,,,0,,6,0.12,1.57542003E9,406.0,NaN,NaN
Raw,241004927790277,657809215000000,,,-1265581155231441562,-0.8910064697265625,32.2917039738968,22.596634419857047,10.300340165131649,200,5,0.0,23567,392564365590589,16,29.6,199.808349609375,0.6130000352859497,16,0.0,0.0,1.57542003E9,,,,0,,6,0.12,1.57542003E9,406.0,NaN,NaN
Raw,241004927790277,657809215000000,,,-1265581155231441562,-0.8910064697265625,32.2917039738968,22.596634419857047,10.300340165131649,200,9,0.0,23567,392564364760918,19,27.8,591.0426025390625,0.6944999694824219,16,0.0,0.0,1.57542003E9,,,,0,,6,0.12,1.57542003E9,406.0,NaN,NaN
Raw,241004927790277,657809215000000,,,-1265581155231441562,-0.8910064697265625,32.2917039738968,22.596634419857047,10.300340165131649,200,24,0.0,23567,392564374276147,6,38.0,-90.86522674560547,0.42149999737739563,16,0.0,0.0,1.57542003E9,,,,0,,6,0.12,1.57542003E9,406.0,NaN,NaN
Raw,241004927790277,657809215000000,,,-1265581155231441562,-0.8910064697265625,32.2917039738968,22.596634419857047,10.300340165131649,200,25,0.0,23567,392564357955407,40,21.4,-468.4173889160156,0.9829999804496765,16,0.0,0.0,1.57542003E9,,,,0,,6,0.12,1.57542003E9,406.0,NaN,NaN
Raw,241004927790277,657809215000000,,,-1265581155231441562,-0.8910064697265625,32.2917039738968,22.596634419857047,10.300340165131649,200,31,0.0,23567,392564363489005,7,37.6,377.51409912109375,0.42000001668930054,16,0.0,0.0,1.57542003E9,,,,0,,6,0.12,1.57542003E9,406.0,NaN,NaN
Raw,241004927790277,657809215000000,,,-1265581155231441562,-0.8910064697265625,32.2917039738968,22.596634419857047,10.300340165131649,200,33,0.0,23567,392564355236918,563,19.8,-364.3077392578125,1.4549999237060547,16,0.0,0.0,1.57542003E9,,,,0,,6,0.12,1.57542003E9,406.0,NaN,NaN
Fix,gps,51.524607,-0.134168,67.535339,0.000000,3.790092,1582203748000,241005915871522
Raw,241005950125588,657810215000000,,,-1265581155231441546,-0.7679500579833984,32.66024577897042,24.45043879044162,14.372887226385895,200,12,0.0,16399,392565376954138,7,37.7,-423.9951477050781,0.04340000078082085,19,-804.0392336595306,0.0010085564157135064,1.57542003E9,,,,0,,1,0.11,1.57542003E9,406.0,NaN,NaN
Raw,241005950125588,657810215000000,,,-1265581155231441546,-0.7679500579833984,32.66024577897042,24.45043879044162,14.372887226385895,200,15,0.0,16399,392565369474416,6,38.0,683.4271850585938,0.032600000500679016,19,1400.8050854784915,9.324389888310735E-4,1.57542003E9,,,,0,,1,0.11,1.57542003E9,406.0,NaN,NaN
Raw,241005950125588,657810215000000,,,-1265581155231441546,-0.7679500579833984,32.66024577897042,24.45043879044162,14.372887226385895,200,17,0.0,16399,392565369456027,12,32.2,273.33306884765625,0.035100001841783524,19,559.5770913931285,0.001807789796734829,1.57542003E9,,,,0,,1,0.11,1.57542003E9,406.0,NaN,NaN
Raw,241005950125588,657810215000000,,,-1265581155231441546,-0.7679500579833984,32.66024577897042,24.45043879044162,14.372887226385895,200,19,0.0,16399,392565373189852,6,38.8,-55.757381439208984,0.038600001484155655,19,-114.75716831374574,9.324389888310735E-4,1.57542003E9,,,,0,,1,0.11,1.57542003E9,406.0,NaN,NaN
Raw,241005950125588,657810215000000,,,-1265581155231441546,-0.7679500579833984,32.66024577897042,24.45043879044162,14.372887226385895,200,24,0.0,16399,392565379443230,5,41.0,51.784645080566406,0.046800002455711365,19,106.54858008669346,6.850571963914755E-4,1.57542003E9,,,,0,,1,0.11,1.57542003E9,406.0,NaN,NaN
Raw,241005950125588,657810215000000,,,-1265581155231441546,-0.7679500579833984,32.66024577897042,24.45043879044162,14.372887226385895,200,25,0.0,16399,392565367759894,40,21.5,-690.0143432617188,0.8569999933242798,16,0.0,0.0,1.57542003E9,,,,0,,1,0.11,1.57542003E9,406.0,NaN,NaN
Raw,241005950125588,657810215000000,,,-1265581155231441546,-0.7679500579833984,32.66024577897042,24.45043879044162,14.372887226385895,200,32,0.0,16399,392565367146111,12,32.9,-613.7079467773438,0.03210000321269035,19,-1157.8926908922433,0.001807789796734829,1.57542003E9,,,,0,,1,0.11,1.57542003E9,406.0,NaN,NaN
Raw,241005950125588,657810215000000,,,-1265581155231441546,-0.7679500579833984,32.66024577897042,24.45043879044162,14.372887226385895,200,14,0.0,49359,57747371632237,46,20.6,645.0256958007812,1.062999963760376,16,0.0,0.0,1.59806246E9,,,,0,,3,-2.52,1.59806246E9,406.0,NaN,NaN
Raw,241005950125588,657810215000000,,,-1265581155231441546,-0.7679500579833984,32.66024577897042,24.45043879044162,14.372887226385895,200,6,0.0,49359,57747378227006,13,31.0,-136.79757690429688,0.249099999666214,19,-166.50836794176448,0.002042655285247825,1.59975002E9,,,,0,,3,-2.52,1.59975002E9,406.0,NaN,NaN
Raw,241005950125588,657810215000000,,,-1265581155231441546,-0.7679500579833984,32.66024577897042,24.45043879044162,14.372887226385895,200,16,0.0,49359,57747376860001,11,33.9,-482.184326171875,0.2452000081539154,19,-586.5179240761739,0.0016286583266290422,1.60143744E9,,,,0,,3,-2.52,1.60143744E9,406.0,NaN,NaN
Raw,241005950125588,657810215000000,,,-1265581155231441546,-0.7679500579833984,32.66024577897042,24.45043879044162,14.372887226385895,200,15,0.0,49359,57747381649816,6,38.7,176.0718994140625,0.22060000896453857,19,211.8862370155201,9.169682032598611E-4,1.602E9,,,,0,,3,-2.52,1.602E9,406.0,NaN,NaN
Raw,241005950125588,657810215000000,,,-1265581155231441546,-0.7679500579833984,32.66024577897042,24.45043879044162,14.372887226385895,200,5,0.0,49359,57747375862446,19,27.1,683.1212768554688,0.2483000010251999,19,830.7530540657965,0.0031802016284280693,1.60256256E9,,,,0,,3,-2.52,1.60256256E9,406.0,NaN,NaN
Raw,241005950125588,657810215000000,,,-1265581155231441546,-0.7679500579833984,32.66024577897042,24.45043879044162,14.372887226385895,200,23,0.0,49359,57747369641624,16,29.6,461.33087158203125,0.23739999532699585,19,558.2640612724246,0.002766703759848213,1.60368755E9,,,,0,,3,-2.52,1.60368755E9,406.0,NaN,NaN
Raw,241005950125588,657810215000000,,,-1265581155231441546,-0.7679500579833984,32.66024577897042,24.45043879044162,14.372887226385895,200,17,0.0,49359,57747371552735,5,40.0,-665.17578125,0.23510000109672546,19,-805.6970205148889,7.288082070396856E-4,1.60424998E9,,,,0,,3,-2.52,1.60424998E9,406.0,NaN,NaN
Raw,241005950125588,657810215000000,,,-1265581155231441546,-0.7679500579833984,32.66024577897042,24.45043879044162,14.372887226385895,200,7,0.0,49359,57747367880658,92,15.9,-716.2981567382812,2.3970000743865967,16,0.0,0.0,1.60481254E9,,,,0,,3,-2.52,1.60481254E9,406.0,NaN,NaN
Raw,241005950125588,657810215000000,,,-1265581155231441546,-0.7679500579833984,32.66024577897042,24.45043879044162,14.372887226385895,200,36,0.0,16399,392551373612895,6,38.9,-37.9154052734375,0.038600001484155655,27,-57.760385803522105,9.409935037250662E-4,1.56109798E9,,,,0,,5,0.18,1.56109798E9,406.0,NaN,NaN
Raw,241005950125588,657810215000000,,,-1265581155231441546,-0.7679500579833984,32.66024577897042,24.45043879044162,14.372887226385895,200,30,0.0,16399,392551364107363,8,36.4,-546.49560546875,0.025600001215934753,27,-832.4884149356717,0.0011714408558922843,1.56109798E9,,,,0,,5,0.18,1.56109798E9,406.0,NaN,NaN
Raw,241005950125588,657810215000000,,,-1265581155231441546,-0.7679500579833984,32.66024577897042,24.45043879044162,14.372887226385895,200,27,0.0,16399,392551365842515,24,25.2,-94.12373352050781,0.040800001472234726,27,-143.17967939137233,0.1920394882785269,1.56109798E9,,,,0,,5,0.18,1.56109798E9,406.0,NaN,NaN
Raw,241005950125588,657810215000000,,,-1265581155231441546,-0.7679500579833984,32.66024577897042,24.45043879044162,14.372887226385895,200,22,0.0,16399,392551366060756,61,18.5,447.9033203125,1.4904999732971191,16,0.0,0.0,1.56109798E9,,,,0,,5,0.18,1.56109798E9,406.0,NaN,NaN
Raw,241005950125588,657810215000000,,,-1265581155231441546,-0.7679500579833984,32.66024577897042,24.45043879044162,14.372887226385895,200,21,0.0,16399,392551365895472,4,42.8,-107.09647369384766,0.025600001215934753,27,-163.07441659241923,5.953224307615613E-4,1.56109798E9,,,,0,,5,0.18,1.56109798E9,406.0,NaN,NaN
Raw,241005950125588,657810215000000,,,-1265581155231441546,-0.7679500579833984,32.66024577897042,24.45043879044162,14.372887226385895,200,8,0.0,16399,392551310733996,567,20.1,-326.0734558105469,2.1614999771118164,16,0.0,0.0,1.56109798E9,,,,0,,5,0.18,1.56109798E9,406.0,NaN,NaN
Raw,241005950125588,657810215000000,,,-1265581155231441546,-0.7679500579833984,32.66024577897042,24.45043879044162,14.372887226385895,200,3,0.0,23567,392565360110412,5,40.1,-335.6669616699219,0.04260000213980675,27,-703.6422246977097,0.001617496273834944,1.57542003E9,,,,0,,6,0.15,1.57542003E9,406.0,NaN,NaN
Raw,241005950125588,657810215000000,,,-1265581155231441546,-0.7679500579833984,32.66024577897042,24.45043879044162,14.372887226385895,200,5,0.0,23567,392565365589953,16,29.0,199.68621826171875,0.049400001764297485,27,418.841787665754,0.006146485344343376,1.57542003E9,,,,0,,6,0.15,1.57542003E9,406.0,NaN,NaN
Raw,241005950125588,657810215000000,,,-1265581155231441546,-0.7679500579833984,32.66024577897042,24.45043879044162,14.372887226385895,200,9,0.0,23567,392565364758924,19,27.2,590.9671630859375,0.049800001084804535,27,1239.3409369138649,0.007212130206821385,1.57542003E9,,,,0,,6,0.15,1.57542003E9,406.0,NaN,NaN
Raw,241005950125588,657810215000000,,,-1265581155231441546,-0.7679500579833984,32.66024577897042,24.45043879044162,14.372887226385895,200,24,0.0,23567,392565374276463,7,37.9,-91.35725402832031,0.046400003135204315,27,-191.71951285532361,0.0021883771969841777,1.57542003E9,,,,0,,6,0.15,1.57542003E9,406.0,NaN,NaN
Raw,241005950125588,657810215000000,,,-1265581155231441546,-0.7679500579833984,32.66024577897042,24.45043879044162,14.372887226385895,200,25,0.0,23567,392565357956979,40,21.0,-467.951171875,0.871999979019165,16,0.0,0.0,1.57542003E9,,,,0,,6,0.15,1.57542003E9,406.0,NaN,NaN
Raw,241005950125588,657810215000000,,,-1265581155231441546,-0.7679500579833984,32.66024577897042,24.45043879044162,14.372887226385895,200,26,0.0,23567,392565357810486,70,17.6,71.10322570800781,2.302000045776367,16,0.0,0.0,1.57542003E9,,,,0,,6,0.15,1.57542003E9,406.0,NaN,NaN
Raw,241005950125588,657810215000000,,,-1265581155231441546,-0.7679500579833984,32.66024577897042,24.45043879044162,14.372887226385895,200,31,0.0,23567,392565363487747,7,37.1,377.14031982421875,0.0479000024497509,27,791.887713406752,0.0021883771969841777,1.57542003E9,,,,0,,6,0.15,1.57542003E9,406.0,NaN,NaN
Raw,241005950125588,657810215000000,,,-1265581155231441546,-0.7679500579833984,32.66024577897042,24.45043879044162,14.372887226385895,200,33,0.0,23567,392565355238153,752,17.9,-364.6217041015625,2.365000009536743,16,0.0,0.0,1.57542003E9,,,,0,,6,0.15,1.57542003E9,406.0,NaN,NaN
Fix,gps,51.524609,-0.134166,67.363098,0.000000,3.790092,1582203749000,241006910208912
Raw,241006923934851,657811215000000,,,-1265581155231441526,-0.9792079925537109,29.854603781132028,23.293333620043228,12.456709936665524,200,12,0.0,16399,392566376955540,8,36.7,-424.0206604003906,0.04360000044107437,17,-1228.005389942722,0.001160791358090767,1.57542003E9,,,,0,,1,0.11,1.57542003E9,406.0,NaN,NaN
Raw,241006923934851,657811215000000,,,-1265581155231441526,-0.9792079925537109,29.854603781132028,23.293333620043228,12.456709936665524,200,13,0.0,16399,392566363291588,70,17.1,745.0282592773438,2.4159998893737793,16,0.0,0.0,1.57542003E9,,,,0,,1,0.11,1.57542003E9,406.0,NaN,NaN
Raw,241006923934851,657811215000000,,,-1265581155231441526,-0.9792079925537109,29.854603781132028,23.293333620043228,12.456709936665524,200,15,0.0,16399,392566369472152,6,38.6,683.3431396484375,0.032600000500679016,17,2084.2230918446803,9.324389888310735E-4,1.57542003E9,,,,0,,1,0.11,1.57542003E9,406.0,NaN,NaN
Raw,241006923934851,657811215000000,,,-1265581155231441526,-0.9792079925537109,29.854603781132028,23.293333620043228,12.456709936665524,200,17,0.0,16399,392566369455084,10,34.6,273.3221435546875,0.0340999998152256,17,832.9582962196586,0.0015223494237726067,1.57542003E9,,,,0,,1,0.11,1.57542003E9,406.0,NaN,NaN
Raw,241006923934851,657811215000000,,,-1265581155231441526,-0.9792079925537109,29.854603781132028,23.293333620043228,12.456709936665524,200,19,0.0,16399,392566373190110,8,36.6,-55.736961364746094,0.039100002497434616,17,-170.46113597585526,0.001160791358090767,1.57542003E9,,,,0,,1,0.11,1.57542003E9,406.0,NaN,NaN
Raw,241006923934851,657811215000000,,,-1265581155231441526,-0.9792079925537109,29.854603781132028,23.293333620043228,12.456709936665524,200,20,0.0,16399,392566365898440,46,20.3,546.7232666015625,1.6740000247955322,16,0.0,0.0,1.57542003E9,,,,0,,1,0.11,1.57542003E9,406.0,NaN,NaN
Raw,241006923934851,657811215000000,,,-1265581155231441526,-0.9792079925537109,29.854603781132028,23.293333620043228,12.456709936665524,200,24,0.0,16399,392566379443057,5,41.0,51.744895935058594,0.046800002455711365,17,158.34250237500268,6.850571963914755E-4,1.57542003E9,,,,0,,1,0.11,1.57542003E9,406.0,NaN,NaN
Raw,241006923934851,657811215000000,,,-1265581155231441526,-0.9792079925537109,29.854603781132028,23.293333620043228,12.456709936665524,200,25,0.0,16399,392566367762246,40,21.6,-690.4520263671875,0.8569999933242798,16,0.0,0.0,1.57542003E9,,,,0,,1,0.11,1.57542003E9,406.0,NaN,NaN
Raw,241006923934851,657811215000000,,,-1265581155231441526,-0.9792079925537109,29.854603781132028,23.293333620043228,12.456709936665524,200,32,0.0,16399,392566367148182,11,33.3,-613.7808227539062,0.031700000166893005,17,-1771.6203626878776,0.001655554942969963,1.57542003E9,,,,0,,1,0.11,1.57542003E9,406.0,NaN,NaN
Raw,241006923934851,657811215000000,,,-1265581155231441526,-0.9792079925537109,29.854603781132028,23.293333620043228,12.456709936665524,200,14,0.0,49359,57748371629760,53,19.3,644.3972778320312,1.1330000162124634,16,0.0,0.0,1.59806246E9,,,,0,,3,-2.52,1.59806246E9,406.0,NaN,NaN
Raw,241006923934851,657811215000000,,,-1265581155231441526,-0.9792079925537109,29.854603781132028,23.293333620043228,12.456709936665524,200,6,0.0,49359,57748378227511,16,29.8,-136.745361328125,0.250900000333786,25,-303.0862899775119,0.0027735135710979584,1.59975002E9,,,,0,,3,-2.52,1.59975002E9,406.0,NaN,NaN
Raw,241006923934851,657811215000000,,,-1265581155231441526,-0.9792079925537109,29.854603781132028,23.293333620043228,12.456709936665524,200,16,0.0,49359,57748376861562,11,33.5,-482.26678466796875,0.2452000081539154,25,-1068.5895393843082,0.0016286583266290422,1.60143744E9,,,,0,,3,-2.52,1.60143744E9,406.0,NaN,NaN
Raw,241006923934851,657811215000000,,,-1265581155231441526,-0.9792079925537109,29.854603781132028,23.293333620043228,12.456709936665524,200,15,0.0,49359,57748381649264,7,37.3,176.00390625,0.22089999914169312,25,388.04158241724497,9.918227095612844E-4,1.602E9,,,,0,,3,-2.52,1.602E9,406.0,NaN,NaN
Raw,241006923934851,657811215000000,,,-1265581155231441526,-0.9792079925537109,29.854603781132028,23.293333620043228,12.456709936665524,200,5,0.0,49359,57748375860217,24,25.4,683.058837890625,0.2558000087738037,29,1513.8412398299342,0.18707067385874782,1.60256256E9,,,,0,,3,-2.52,1.60256256E9,406.0,NaN,NaN
Raw,241006923934851,657811215000000,,,-1265581155231441526,-0.9792079925537109,29.854603781132028,23.293333620043228,12.456709936665524,200,23,0.0,49359,57748369640097,27,24.5,461.42022705078125,0.254800021648407,29,1019.8178080598025,0.1869394431765222,1.60368755E9,,,,0,,3,-2.52,1.60368755E9,406.0,NaN,NaN
Raw,241006923934851,657811215000000,,,-1265581155231441526,-0.9792079925537109,29.854603781132028,23.293333620043228,12.456709936665524,200,17,0.0,49359,57748371554972,6,39.4,-665.2127075195312,0.2353000044822693,25,-1470.7500175856915,8.222451745104028E-4,1.60424998E9,,,,0,,3,-2.52,1.60424998E9,406.0,NaN,NaN
Raw,241006923934851,657811215000000,,,-1265581155231441526,-0.9792079925537109,29.854603781132028,23.293333620043228,12.456709936665524,200,36,0.0,16399,392552373613025,6,38.9,-37.983211517333984,0.038600001484155655,25,-95.67866539369489,9.409935037250662E-4,1.56109798E9,,,,0,,5,0.18,1.56109798E9,406.0,NaN,NaN
Raw,241006923934851,657811215000000,,,-1265581155231441526,-0.9792079925537109,29.854603781132028,23.293333620043228,12.456709936665524,200,30,0.0,16399,392552364109162,7,37.7,-546.5819091796875,0.02540000155568123,25,-1378.977010241248,0.0010178092579723537,1.56109798E9,,,,0,,5,0.18,1.56109798E9,406.0,NaN,NaN
Raw,241006923934851,657811215000000,,,-1265581155231441526,-0.9792079925537109,29.854603781132028,23.293333620043228,12.456709936665524,200,27,0.0,16399,392552365842795,21,26.6,-94.15120697021484,0.03420000150799751,25,-237.2582310586422,0.005492329335005111,1.56109798E9,,,,0,,5,0.18,1.56109798E9,406.0,NaN,NaN
Raw,241006923934851,657811215000000,,,-1265581155231441526,-0.9792079925537109,29.854603781132028,23.293333620043228,12.456709936665524,200,21,0.0,16399,392552365895837,4,42.3,-107.11611938476562,0.025600001215934753,25,-270.14920084462585,5.953224307615613E-4,1.56109798E9,,,,0,,5,0.18,1.56109798E9,406.0,NaN,NaN
Raw,241006923934851,657811215000000,,,-1265581155231441526,-0.9792079925537109,29.854603781132028,23.293333620043228,12.456709936665524,200,8,0.0,16399,392552310735086,660,19.6,-326.4383239746094,2.99150013923645,16,0.0,0.0,1.56109798E9,,,,0,,5,0.18,1.56109798E9,406.0,NaN,NaN
Raw,241006923934851,657811215000000,,,-1265581155231441526,-0.9792079925537109,29.854603781132028,23.293333620043228,12.456709936665524,200,3,0.0,23567,392566360111549,6,38.9,-335.75042724609375,0.04310000315308571,25,-1039.3302668717342,0.0020551716777868216,1.57542003E9,,,,0,,6,0.15,1.57542003E9,406.0,NaN,NaN
Raw,241006923934851,657811215000000,,,-1265581155231441526,-0.9792079925537109,29.854603781132028,23.293333620043228,12.456709936665524,200,5,0.0,23567,392566365589264,16,29.8,199.6121826171875,0.049400001764297485,25,618.4850726509027,0.006146485344343376,1.57542003E9,,,,0,,6,0.15,1.57542003E9,406.0,NaN,NaN
Raw,241006923934851,657811215000000,,,-1265581155231441526,-0.9792079925537109,29.854603781132028,23.293333620043228,12.456709936665524,200,9,0.0,23567,392566364757010,17,28.9,590.9343872070312,0.04920000210404396,25,1830.3139954008286,0.006565131413727744,1.57542003E9,,,,0,,6,0.15,1.57542003E9,406.0,NaN,NaN
Raw,241006923934851,657811215000000,,,-1265581155231441526,-0.9792079925537109,29.854603781132028,23.293333620043228,12.456709936665524,200,24,0.0,23567,392566374276738,6,38.5,-91.4158706665039,0.04610000178217888,25,-283.07719604070775,0.0020551716777868216,1.57542003E9,,,,0,,6,0.15,1.57542003E9,406.0,NaN,NaN
Raw,241006923934851,657811215000000,,,-1265581155231441526,-0.9792079925537109,29.854603781132028,23.293333620043228,12.456709936665524,200,25,0.0,23567,392566357958526,31,23.8,-468.588623046875,0.6919999718666077,16,0.0,0.0,1.57542003E9,,,,0,,6,0.15,1.57542003E9,406.0,NaN,NaN
Raw,241006923934851,657811215000000,,,-1265581155231441526,-0.9792079925537109,29.854603781132028,23.293333620043228,12.456709936665524,200,26,0.0,23567,392566357810221,53,19.8,71.51236724853516,0.9419999718666077,16,0.0,0.0,1.57542003E9,,,,0,,6,0.15,1.57542003E9,406.0,NaN,NaN
Raw,241006923934851,657811215000000,,,-1265581155231441526,-0.9792079925537109,29.854603781132028,23.293333620043228,12.456709936665524,200,31,0.0,23567,392566363486493,7,37.3,377.05511474609375,0.0479000024497509,25,1169.0149929755419,0.0021883771969841777,1.57542003E9,,,,0,,6,0.15,1.57542003E9,406.0,NaN,NaN
Raw,241006923934851,657811215000000,,,-1265581155231441526,-0.9792079925537109,29.854603781132028,23.293333620043228,12.456709936665524,200,33,0.0,23567,392566355239349,760,17.4,-364.71685791015625,3.1150002479553223,16,0.0,0.0,1.57542003E9,,,,0,,6,0.15,1.57542003E9,406.0,NaN,NaN
Fix,gps,51.524612,-0.134161,67.335510,0.000000,3.790092,1582203750000,241007915994117
Raw,241007932884431,657812215000000,,,-1265581155231441512,-0.6144886016845703,29.519553208956495,22.85108068317575,11.479953315453043,200,12,0.0,16399,392567376956962,9,35.9,-424.5868835449219,0.04410000145435333,17,-1652.6183543483912,0.0013320557236479321,1.57542003E9,,,,0,,1,0.15,1.57542003E9,406.0,NaN,NaN
Raw,241007932884431,657812215000000,,,-1265581155231441512,-0.6144886016845703,29.519553208956495,22.85108068317575,11.479953315453043,200,13,0.0,16399,392567363289040,40,21.7,744.8284912109375,0.8510000109672546,16,0.0,0.0,1.57542003E9,,,,0,,1,0.15,1.57542003E9,406.0,NaN,NaN
Raw,241007932884431,657812215000000,,,-1265581155231441512,-0.6144886016845703,29.519553208956495,22.85108068317575,11.479953315453043,200,15,0.0,16399,392567369469865,7,37.7,682.6802368164062,0.03290000185370445,17,2766.9214205950047,0.0010085564157135064,1.57542003E9,,,,0,,1,0.15,1.57542003E9,406.0,NaN,NaN
Raw,241007932884431,657812215000000,,,-1265581155231441512,-0.6144886016845703,29.519553208956495,22.85108068317575,11.479953315453043,200,17,0.0,16399,392567369454142,9,35.4,272.7729797363281,0.03360000252723694,17,1105.695554488934,0.0013320557236479321,1.57542003E9,,,,0,,1,0.15,1.57542003E9,406.0,NaN,NaN
Raw,241007932884431,657812215000000,,,-1265581155231441512,-0.6144886016845703,29.519553208956495,22.85108068317575,11.479953315453043,200,19,0.0,16399,392567373190314,9,35.7,-56.265892028808594,0.03959999978542328,17,-226.77034390962814,0.0013320557236479321,1.57542003E9,,,,0,,1,0.15,1.57542003E9,406.0,NaN,NaN
Raw,241007932884431,657812215000000,,,-1265581155231441512,-0.6144886016845703,29.519553208956495,22.85108068317575,11.479953315453043,200,20,0.0,16399,392567365896620,31,23.5,547.4522094726562,0.11870000511407852,19,2126.590212535648,0.19029366893311156,1.57542003E9,,,,0,,1,0.15,1.57542003E9,406.0,NaN,NaN
Raw,241007932884431,657812215000000,,,-1265581155231441512,-0.6144886016845703,29.519553208956495,22.85108068317575,11.479953315453043,200,24,0.0,16399,392567379442875,5,40.1,51.159420013427734,0.0471000038087368,17,209.48660274066043,7.42145288706399E-4,1.57542003E9,,,,0,,1,0.15,1.57542003E9,406.0,NaN,NaN
Raw,241007932884431,657812215000000,,,-1265581155231441512,-0.6144886016845703,29.519553208956495,22.85108068317575,11.479953315453043,200,25,0.0,16399,392567367764421,35,22.9,-690.5730590820312,0.392300009727478,19,-2682.836787718669,0.19029366893311156,1.57542003E9,,,,0,,1,0.15,1.57542003E9,406.0,NaN,NaN
Raw,241007932884431,657812215000000,,,-1265581155231441512,-0.6144886016845703,29.519553208956495,22.85108068317575,11.479953315453043,200,32,0.0,16399,392567367150237,13,31.6,-614.3897094726562,0.032600000500679016,17,-2386.0428296837704,0.002074201012354331,1.57542003E9,,,,0,,1,0.15,1.57542003E9,406.0,NaN,NaN
Raw,241007932884431,657812215000000,,,-1265581155231441512,-0.6144886016845703,29.519553208956495,22.85108068317575,11.479953315453043,200,6,0.0,49359,57749378227998,14,30.2,-137.27760314941406,0.24990001320838928,25,-440.4011847392056,0.0023612345291040655,1.59975002E9,,,,0,,3,-2.51,1.59975002E9,406.0,NaN,NaN
Raw,241007932884431,657812215000000,,,-1265581155231441512,-0.6144886016845703,29.519553208956495,22.85108068317575,11.479953315453043,200,16,0.0,49359,57749376863147,11,33.2,-482.8636169433594,0.2452000081539154,25,-1551.4622390088562,0.0016286583266290422,1.60143744E9,,,,0,,3,-2.51,1.60143744E9,406.0,NaN,NaN
Raw,241007932884431,657812215000000,,,-1265581155231441512,-0.6144886016845703,29.519553208956495,22.85108068317575,11.479953315453043,200,15,0.0,49359,57749381648710,9,35.4,175.4800567626953,0.2215999960899353,25,563.4703363123435,0.001309954600983276,1.602E9,,,,0,,3,-2.51,1.602E9,406.0,NaN,NaN
Raw,241007932884431,657812215000000,,,-1265581155231441512,-0.6144886016845703,29.519553208956495,22.85108068317575,11.479953315453043,200,5,0.0,49359,57749375857845,14,30.3,682.4984130859375,0.24540001153945923,25,2196.300046156679,0.0023570904936865496,1.60256256E9,,,,0,,3,-2.51,1.60256256E9,406.0,NaN,NaN
Raw,241007932884431,657812215000000,,,-1265581155231441512,-0.6144886016845703,29.519553208956495,22.85108068317575,11.479953315453043,200,23,0.0,49359,57749369638624,53,19.4,462.0863037109375,1.1299999952316284,16,0.0,0.0,1.60368755E9,,,,0,,3,-2.51,1.60368755E9,406.0,NaN,NaN
Raw,241007932884431,657812215000000,,,-1265581155231441512,-0.6144886016845703,29.519553208956495,22.85108068317575,11.479953315453043,200,17,0.0,49359,57749371557103,5,40.5,-665.8114013671875,0.23510000109672546,25,-2136.567167844894,7.288082070396856E-4,1.60424998E9,,,,0,,3,-2.51,1.60424998E9,406.0,NaN,NaN
Raw,241007932884431,657812215000000,,,-1265581155231441512,-0.6144886016845703,29.519553208956495,22.85108068317575,11.479953315453043,200,7,0.0,49359,57749367885502,80,16.2,-715.2146606445312,2.127000093460083,16,0.0,0.0,1.60481254E9,,,,0,,3,-2.51,1.60481254E9,406.0,NaN,NaN
Raw,241007932884431,657812215000000,,,-1265581155231441512,-0.6144886016845703,29.519553208956495,22.85108068317575,11.479953315453043,200,36,0.0,16399,392553373613149,6,39.5,-38.58928680419922,0.03830000013113022,25,-134.27682422271533,8.449737438469402E-4,1.56109798E9,,,,0,,5,0.18,1.56109798E9,406.0,NaN,NaN
Raw,241007932884431,657812215000000,,,-1265581155231441512,-0.6144886016845703,29.519553208956495,22.85108068317575,11.479953315453043,200,30,0.0,16399,392553364110979,7,37.3,-547.201171875,0.02540000155568123,25,-1926.1788407120746,0.0010178092579723537,1.56109798E9,,,,0,,5,0.18,1.56109798E9,406.0,NaN,NaN
Raw,241007932884431,657812215000000,,,-1265581155231441512,-0.6144886016845703,29.519553208956495,22.85108068317575,11.479953315453043,200,27,0.0,16399,392553365843086,17,28.9,-94.67254638671875,0.03270000219345093,25,-331.9590519476837,0.003034223768286223,1.56109798E9,,,,0,,5,0.18,1.56109798E9,406.0,NaN,NaN
Raw,241007932884431,657812215000000,,,-1265581155231441512,-0.6144886016845703,29.519553208956495,22.85108068317575,11.479953315453043,200,22,0.0,16399,392553366057875,35,22.7,447.1159362792969,1.4855000972747803,16,0.0,0.0,1.56109798E9,,,,0,,5,0.18,1.56109798E9,406.0,NaN,NaN
Raw,241007932884431,657812215000000,,,-1265581155231441512,-0.6144886016845703,29.519553208956495,22.85108068317575,11.479953315453043,200,21,0.0,16399,392553365896205,4,42.2,-107.66036987304688,0.025600001215934753,25,-377.858296157126,5.953224307615613E-4,1.56109798E9,,,,0,,5,0.18,1.56109798E9,406.0,NaN,NaN
Raw,241007932884431,657812215000000,,,-1265581155231441512,-0.6144886016845703,29.519553208956495,22.85108068317575,11.479953315453043,200,8,0.0,16399,392553310736177,670,19.3,-326.44793701171875,3.74150013923645,16,0.0,0.0,1.56109798E9,,,,0,,5,0.18,1.56109798E9,406.0,NaN,NaN
Raw,241007932884431,657812215000000,,,-1265581155231441512,-0.6144886016845703,29.519553208956495,22.85108068317575,11.479953315453043,200,3,0.0,23567,392567360112664,6,39.4,-336.3254699707031,0.04280000180006027,25,-1375.668362481059,0.0018458486430946374,1.57542003E9,,,,0,,6,0.12,1.57542003E9,406.0,NaN,NaN
Raw,241007932884431,657812215000000,,,-1265581155231441512,-0.6144886016845703,29.519553208956495,22.85108068317575,11.479953315453043,200,5,0.0,23567,392567365588621,14,30.1,198.99559020996094,0.04840000346302986,25,817.4845840426884,0.005233075867304602,1.57542003E9,,,,0,,6,0.12,1.57542003E9,406.0,NaN,NaN
Raw,241007932884431,657812215000000,,,-1265581155231441512,-0.6144886016845703,29.519553208956495,22.85108068317575,11.479953315453043,200,9,0.0,23567,392567364755073,17,28.0,590.2562255859375,0.04920000210404396,25,2420.5412206894252,0.006565131413727744,1.57542003E9,,,,0,,6,0.12,1.57542003E9,406.0,NaN,NaN
Raw,241007932884431,657812215000000,,,-1265581155231441512,-0.6144886016845703,29.519553208956495,22.85108068317575,11.479953315453043,200,24,0.0,23567,392567374277058,6,38.2,-92.0477066040039,0.04610000178217888,25,-375.1133095383912,0.0020551716777868216,1.57542003E9,,,,0,,6,0.12,1.57542003E9,406.0,NaN,NaN
Raw,241007932884431,657812215000000,,,-1265581155231441512,-0.6144886016845703,29.519553208956495,22.85108068317575,11.479953315453043,200,25,0.0,23567,392567357960090,40,21.1,-468.997802734375,0.871999979019165,16,0.0,0.0,1.57542003E9,,,,0,,6,0.12,1.57542003E9,406.0,NaN,NaN
Raw,241007932884431,657812215000000,,,-1265581155231441512,-0.6144886016845703,29.519553208956495,22.85108068317575,11.479953315453043,200,26,0.0,23567,392567357810040,61,18.8,71.03662872314453,1.0220000743865967,16,0.0,0.0,1.57542003E9,,,,0,,6,0.12,1.57542003E9,406.0,NaN,NaN
Raw,241007932884431,657812215000000,,,-1265581155231441512,-0.6144886016845703,29.519553208956495,22.85108068317575,11.479953315453043,200,31,0.0,23567,392567363485249,6,38.6,376.3832092285156,0.047600001096725464,25,1545.4316616550932,0.0020551716777868216,1.57542003E9,,,,0,,6,0.12,1.57542003E9,406.0,NaN,NaN
Raw,241007932884431,657812215000000,,,-1265581155231441512,-0.6144886016845703,29.519553208956495,22.85108068317575,11.479953315453043,200,33,0.0,23567,392567355240576,770,17.3,-364.9642333984375,3.8650002479553223,16,0.0,0.0,1.57542003E9,,,,0,,6,0.12,1.57542003E9,406.0,NaN,NaN
Fix,gps,51.524615,-0.134160,67.503601,0.000000,3.790092,1582203751000,241008912576351
Raw,241008928682916,657813215000000,,,-1265581155231441497,-0.11728096008300781,33.038511901395395,20.653669755119132,12.455587798312356,200,12,0.0,16399,392568376958324,9,35.2,-424.0776672363281,0.04410000145435333,25,-2076.662348706657,0.0013320557236479321,1.57542003E9,,,,0,,1,0.15,1.57542003E9,406.0,NaN,NaN
Raw,241008928682916,657813215000000,,,-1265581155231441497,-0.11728096008300781,33.038511901395395,20.653669755119132,12.455587798312356,200,13,0.0,16399,392568363286614,35,22.0,745.2280883789062,0.7910000085830688,16,0.0,0.0,1.57542003E9,,,,0,,1,0.15,1.57542003E9,406.0,NaN,NaN
Raw,241008928682916,657813215000000,,,-1265581155231441497,-0.11728096008300781,33.038511901395395,20.653669755119132,12.455587798312356,200,15,0.0,16399,392568369467560,6,39.4,683.1607055664062,0.03230000287294388,25,3450.039285183222,8.372921387687362E-4,1.57542003E9,,,,0,,1,0.15,1.57542003E9,406.0,NaN,NaN
Raw,241008928682916,657813215000000,,,-1265581155231441497,-0.11728096008300781,33.038511901395395,20.653669755119132,12.455587798312356,200,17,0.0,16399,392568369453216,11,33.2,273.2856140136719,0.034700002521276474,25,1379.0128972862353,0.001655554942969963,1.57542003E9,,,,0,,1,0.15,1.57542003E9,406.0,NaN,NaN
Raw,241008928682916,657813215000000,,,-1265581155231441497,-0.11728096008300781,33.038511901395395,20.653669755119132,12.455587798312356,200,19,0.0,16399,392568373190454,9,35.4,-55.69585418701172,0.03959999978542328,25,-282.5447128887997,0.0013320557236479321,1.57542003E9,,,,0,,1,0.15,1.57542003E9,406.0,NaN,NaN
Raw,241008928682916,657813215000000,,,-1265581155231441497,-0.11728096008300781,33.038511901395395,20.653669755119132,12.455587798312356,200,20,0.0,16399,392568365894958,53,19.4,547.6556396484375,1.0040000677108765,16,0.0,0.0,1.57542003E9,,,,0,,1,0.15,1.57542003E9,406.0,NaN,NaN
Raw,241008928682916,657813215000000,,,-1265581155231441497,-0.11728096008300781,33.038511901395395,20.653669755119132,12.455587798312356,200,24,0.0,16399,392568379442717,6,39.3,51.661739349365234,0.047300003468990326,25,261.096008956678,8.372921387687362E-4,1.57542003E9,,,,0,,1,0.15,1.57542003E9,406.0,NaN,NaN
Raw,241008928682916,657813215000000,,,-1265581155231441497,-0.11728096008300781,33.038511901395395,20.653669755119132,12.455587798312356,200,25,0.0,16399,392568367766904,61,18.3,-690.6708984375,1.0869998931884766,16,0.0,0.0,1.57542003E9,,,,0,,1,0.15,1.57542003E9,406.0,NaN,NaN
Raw,241008928682916,657813215000000,,,-1265581155231441497,-0.11728096008300781,33.038511901395395,20.653669755119132,12.455587798312356,200,32,0.0,16399,392568367152292,13,31.7,-613.9273071289062,0.032600000500679016,25,-2999.9165584563734,0.002074201012354331,1.57542003E9,,,,0,,1,0.15,1.57542003E9,406.0,NaN,NaN
Raw,241008928682916,657813215000000,,,-1265581155231441497,-0.11728096008300781,33.038511901395395,20.653669755119132,12.455587798312356,200,14,0.0,49359,57750371625710,46,20.3,643.6468505859375,1.812999963760376,16,0.0,0.0,1.59806246E9,,,,0,,3,-2.52,1.59806246E9,406.0,NaN,NaN
Raw,241008928682916,657813215000000,,,-1265581155231441497,-0.11728096008300781,33.038511901395395,20.653669755119132,12.455587798312356,200,6,0.0,49359,57750378228448,13,31.6,-136.6549530029297,0.249099999666214,25,-577.1435610245759,0.002042655285247825,1.59975002E9,,,,0,,3,-2.52,1.59975002E9,406.0,NaN,NaN
Raw,241008928682916,657813215000000,,,-1265581155231441497,-0.11728096008300781,33.038511901395395,20.653669755119132,12.455587798312356,200,16,0.0,49359,57750376864745,13,31.5,-482.36431884765625,0.24610000848770142,25,-2033.8826852374002,0.0020405029529331426,1.60143744E9,,,,0,,3,-2.52,1.60143744E9,406.0,NaN,NaN
Raw,241008928682916,657813215000000,,,-1265581155231441497,-0.11728096008300781,33.038511901395395,20.653669755119132,12.455587798312356,200,15,0.0,49359,57750381648175,11,33.1,175.975830078125,0.22269999980926514,25,739.382523989847,0.0016280864052631069,1.602E9,,,,0,,3,-2.52,1.602E9,406.0,NaN,NaN
Raw,241008928682916,657813215000000,,,-1265581155231441497,-0.11728096008300781,33.038511901395395,20.653669755119132,12.455587798312356,200,5,0.0,49359,57750375855641,12,32.0,683.02490234375,0.24410000443458557,25,2879.248956994311,0.0017771713445129138,1.60256256E9,,,,0,,3,-2.52,1.60256256E9,406.0,NaN,NaN
Raw,241008928682916,657813215000000,,,-1265581155231441497,-0.11728096008300781,33.038511901395395,20.653669755119132,12.455587798312356,200,23,0.0,49359,57750369637081,27,24.6,461.3802490234375,0.254800021648407,27,1943.3991413078297,0.1869394431765222,1.60368755E9,,,,0,,3,-2.52,1.60368755E9,406.0,NaN,NaN
Raw,241008928682916,657813215000000,,,-1265581155231441497,-0.11728096008300781,33.038511901395395,20.653669755119132,12.455587798312356,200,17,0.0,49359,57750371559344,5,41.3,-665.3011474609375,0.23480001091957092,25,-2801.927785787665,6.727460439612438E-4,1.60424998E9,,,,0,,3,-2.52,1.60424998E9,406.0,NaN,NaN
Raw,241008928682916,657813215000000,,,-1265581155231441497,-0.11728096008300781,33.038511901395395,20.653669755119132,12.455587798312356,200,36,0.0,16399,392554373613282,6,39.0,-38.103294372558594,0.03830000013113022,25,-172.41685111213832,8.449737438469402E-4,1.56109798E9,,,,0,,5,0.16,1.56109798E9,406.0,NaN,NaN
Raw,241008928682916,657813215000000,,,-1265581155231441497,-0.11728096008300781,33.038511901395395,20.653669755119132,12.455587798312356,200,30,0.0,16399,392554364112815,8,36.4,-546.7490234375,0.025600001215934753,25,-2472.9696911011383,0.0011714408558922843,1.56109798E9,,,,0,,5,0.16,1.56109798E9,406.0,NaN,NaN
Raw,241008928682916,657813215000000,,,-1265581155231441497,-0.11728096008300781,33.038511901395395,20.653669755119132,12.455587798312356,200,27,0.0,16399,392554365843387,13,31.6,-94.16622924804688,0.029600001871585846,25,-426.1795239550884,0.0020932304434118673,1.56109798E9,,,,0,,5,0.16,1.56109798E9,406.0,NaN,NaN
Raw,241008928682916,657813215000000,,,-1265581155231441497,-0.11728096008300781,33.038511901395395,20.653669755119132,12.455587798312356,200,22,0.0,16399,392554366056374,24,25.5,447.4463806152344,0.04230000078678131,19,1798.887687080439,0.1920394882785269,1.56109798E9,,,,0,,5,0.16,1.56109798E9,406.0,NaN,NaN
Raw,241008928682916,657813215000000,,,-1265581155231441497,-0.11728096008300781,33.038511901395395,20.653669755119132,12.455587798312356,200,21,0.0,16399,392554365896564,4,42.8,-107.12553405761719,0.025600001215934753,25,-485.05440578072745,5.953224307615613E-4,1.56109798E9,,,,0,,5,0.16,1.56109798E9,406.0,NaN,NaN
Raw,241008928682916,657813215000000,,,-1265581155231441497,-0.11728096008300781,33.038511901395395,20.653669755119132,12.455587798312356,200,8,0.0,16399,392554310737269,682,19.2,-326.5439453125,4.491499900817871,16,0.0,0.0,1.56109798E9,,,,0,,5,0.16,1.56109798E9,406.0,NaN,NaN
Raw,241008928682916,657813215000000,,,-1265581155231441497,-0.11728096008300781,33.038511901395395,20.653669755119132,12.455587798312356,200,3,0.0,23567,392568360113796,6,39.7,-335.8175354003906,0.04280000180006027,25,-1711.544602436804,0.0018458486430946374,1.57542003E9,,,,0,,6,0.15,1.57542003E9,406.0,NaN,NaN
Raw,241008928682916,657813215000000,,,-1265581155231441497,-0.11728096008300781,33.038511901395395,20.653669755119132,12.455587798312356,200,5,0.0,23567,392568365587986,10,34.8,199.52488708496094,0.04610000178217888,25,1016.9652010358981,0.003311109885939926,1.57542003E9,,,,0,,6,0.15,1.57542003E9,406.0,NaN,NaN
Raw,241008928682916,657813215000000,,,-1265581155231441497,-0.11728096008300781,33.038511901395395,20.653669755119132,12.455587798312356,200,9,0.0,23567,392568364753096,19,27.8,590.6099853515625,0.049800001084804535,25,3011.1299043390236,0.007212130206821385,1.57542003E9,,,,0,,6,0.15,1.57542003E9,406.0,NaN,NaN
Raw,241008928682916,657813215000000,,,-1265581155231441497,-0.11728096008300781,33.038511901395395,20.653669755119132,12.455587798312356,200,24,0.0,23567,392568374277355,6,38.3,-91.57028198242188,0.04610000178217888,25,-466.7223973458765,0.0020551716777868216,1.57542003E9,,,,0,,6,0.15,1.57542003E9,406.0,NaN,NaN
Raw,241008928682916,657813215000000,,,-1265581155231441497,-0.11728096008300781,33.038511901395395,20.653669755119132,12.455587798312356,200,26,0.0,23567,392568357809743,40,21.0,70.28496551513672,0.871999979019165,16,0.0,0.0,1.57542003E9,,,,0,,6,0.15,1.57542003E9,406.0,NaN,NaN
Raw,241008928682916,657813215000000,,,-1265581155231441497,-0.11728096008300781,33.038511901395395,20.653669755119132,12.455587798312356,200,31,0.0,23567,392568363483985,6,38.0,376.8760070800781,0.047600001096725464,25,1922.2600694486462,0.0020551716777868216,1.57542003E9,,,,0,,6,0.15,1.57542003E9,406.0,NaN,NaN
Raw,241008928682916,657813215000000,,,-1265581155231441497,-0.11728096008300781,33.038511901395395,20.653669755119132,12.455587798312356,200,33,0.0,23567,392568355241791,896,16.4,-364.6788024902344,4.705000400543213,16,0.0,0.0,1.57542003E9,,,,0,,6,0.15,1.57542003E9,406.0,NaN,NaN
Fix,gps,51.524618,-0.134158,67.523987,0.000000,3.790092,1582203752000,241009922573744
Raw,241009935571558,657814215000000,,,-1265581155231441477,-0.38814353942871094,34.88425863906741,22.04481115432474,11.472621640415584,200,10,0.0,16399,392569368580551,488,21.5,247.27713012695312,1.1584999561309814,16,0.0,0.0,1.57542003E9,,,,0,,1,0.24,1.57542003E9,406.0,NaN,NaN
Raw,241009935571558,657814215000000,,,-1265581155231441477,-0.38814353942871094,34.88425863906741,22.04481115432474,11.472621640415584,200,12,0.0,16399,392569376959740,10,34.1,-423.6854553222656,0.044600002467632294,25,-2500.546742739259,0.0015223494237726067,1.57542003E9,,,,0,,1,0.24,1.57542003E9,406.0,NaN,NaN
Raw,241009935571558,657814215000000,,,-1265581155231441477,-0.38814353942871094,34.88425863906741,22.04481115432474,11.472621640415584,200,13,0.0,16399,392569363284100,31,23.5,745.5774536132812,0.11569999903440475,19,4378.028743363349,0.19029366893311156,1.57542003E9,,,,0,,1,0.24,1.57542003E9,406.0,NaN,NaN
Raw,241009935571558,657814215000000,,,-1265581155231441477,-0.38814353942871094,34.88425863906741,22.04481115432474,11.472621640415584,200,15,0.0,16399,392569369465276,6,39.4,683.5179443359375,0.03230000287294388,25,4133.365565237893,8.372921387687362E-4,1.57542003E9,,,,0,,1,0.24,1.57542003E9,406.0,NaN,NaN
Raw,241009935571558,657814215000000,,,-1265581155231441477,-0.38814353942871094,34.88425863906741,22.04481115432474,11.472621640415584,200,17,0.0,16399,392569369452302,10,34.4,273.72509765625,0.0340999998152256,25,1652.5263378521138,0.0015223494237726067,1.57542003E9,,,,0,,1,0.24,1.57542003E9,406.0,NaN,NaN
Raw,241009935571558,657814215000000,,,-1265581155231441477,-0.38814353942871094,34.88425863906741,22.04481115432474,11.472621640415584,200,19,0.0,16399,392569373190681,10,34.9,-55.29121017456055,0.04010000079870224,25,-338.0614593340407,0.0015223494237726067,1.57542003E9,,,,0,,1,0.24,1.57542003E9,406.0,NaN,NaN
Raw,241009935571558,657814215000000,,,-1265581155231441477,-0.38814353942871094,34.88425863906741,22.04481115432474,11.472621640415584,200,24,0.0,16399,392569379442560,6,38.9,52.10261535644531,0.047600001096725464,25,312.9903345356372,9.324389888310735E-4,1.57542003E9,,,,0,,1,0.24,1.57542003E9,406.0,NaN,NaN
Raw,241009935571558,657814215000000,,,-1265581155231441477,-0.38814353942871094,34.88425863906741,22.04481115432474,11.472621640415584,200,25,0.0,16399,392569367769061,35,22.2,-689.595703125,0.796999990940094,16,0.0,0.0,1.57542003E9,,,,0,,1,0.24,1.57542003E9,406.0,NaN,NaN
Raw,241009935571558,657814215000000,,,-1265581155231441477,-0.38814353942871094,34.88425863906741,22.04481115432474,11.472621640415584,200,32,0.0,16399,392569367154344,12,32.0,-613.537353515625,0.03210000321269035,25,-3613.653139395482,0.001807789796734829,1.57542003E9,,,,0,,1,0.24,1.57542003E9,406.0,NaN,NaN
Raw,241009935571558,657814215000000,,,-1265581155231441477,-0.38814353942871094,34.88425863906741,22.04481115432474,11.472621640415584,200,14,0.0,49359,57751371623562,35,22.4,644.0408325195312,0.9429999589920044,16,0.0,0.0,1.59806246E9,,,,0,,3,-2.6,1.59806246E9,406.0,NaN,NaN
Raw,241009935571558,657814215000000,,,-1265581155231441477,-0.38814353942871094,34.88425863906741,22.04481115432474,11.472621640415584,200,6,0.0,49359,57751378228869,13,31.7,-136.1735076904297,0.249099999666214,25,-713.5516074912142,0.002042655285247825,1.59975002E9,,,,0,,3,-2.6,1.59975002E9,406.0,NaN,NaN
Raw,241009935571558,657814215000000,,,-1265581155231441477,-0.38814353942871094,34.88425863906741,22.04481115432474,11.472621640415584,200,16,0.0,49359,57751376866359,11,33.5,-481.959716796875,0.2452000081539154,25,-2516.036044903359,0.0016286583266290422,1.60143744E9,,,,0,,3,-2.6,1.60143744E9,406.0,NaN,NaN
Raw,241009935571558,657814215000000,,,-1265581155231441477,-0.38814353942871094,34.88425863906741,22.04481115432474,11.472621640415584,200,15,0.0,49359,57751381647536,11,33.3,176.36949157714844,0.22269999980926514,25,915.5522738833585,0.0016280864052631069,1.602E9,,,,0,,3,-2.6,1.602E9,406.0,NaN,NaN
Raw,241009935571558,657814215000000,,,-1265581155231441477,-0.38814353942871094,34.88425863906741,22.04481115432474,11.472621640415584,200,5,0.0,49359,57751375853359,16,29.8,683.4275512695312,0.24639999866485596,25,3562.464321770133,0.002768645973945739,1.60256256E9,,,,0,,3,-2.6,1.60256256E9,406.0,NaN,NaN
Raw,241009935571558,657814215000000,,,-1265581155231441477,-0.38814353942871094,34.88425863906741,22.04481115432474,11.472621640415584,200,23,0.0,49359,57751369635505,24,25.1,461.8465881347656,0.2468000054359436,21,2404.918313168476,0.1869394431765222,1.60368755E9,,,,0,,3,-2.6,1.60368755E9,406.0,NaN,NaN
Raw,241009935571558,657814215000000,,,-1265581155231441477,-0.38814353942871094,34.88425863906741,22.04481115432474,11.472621640415584,200,17,0.0,49359,57751371561562,4,42.3,-664.9205932617188,0.2346000075340271,25,-3467.049296368688,5.79309120000498E-4,1.60424998E9,,,,0,,3,-2.6,1.60424998E9,406.0,NaN,NaN
Raw,241009935571558,657814215000000,,,-1265581155231441477,-0.38814353942871094,34.88425863906741,22.04481115432474,11.472621640415584,200,7,0.0,49359,57751367890317,70,17.1,-714.8504028320312,2.0369999408721924,16,0.0,0.0,1.60481254E9,,,,0,,3,-2.6,1.60481254E9,406.0,NaN,NaN
Raw,241009935571558,657814215000000,,,-1265581155231441477,-0.38814353942871094,34.88425863906741,22.04481115432474,11.472621640415584,200,36,0.0,16399,392555373613410,6,39.5,-37.71197509765625,0.03830000013113022,25,-210.3273237917425,8.449737438469402E-4,1.56109798E9,,,,0,,5,0.21,1.56109798E9,406.0,NaN,NaN
Raw,241009935571558,657814215000000,,,-1265581155231441477,-0.38814353942871094,34.88425863906741,22.04481115432474,11.472621640415584,200,30,0.0,16399,392555364114648,8,36.5,-546.3692626953125,0.025600001215934753,25,-3019.5499269087513,0.0011714408558922843,1.56109798E9,,,,0,,5,0.21,1.56109798E9,406.0,NaN,NaN
Raw,241009935571558,657814215000000,,,-1265581155231441477,-0.38814353942871094,34.88425863906741,22.04481115432474,11.472621640415584,200,27,0.0,16399,392555365843685,12,32.1,-93.74821472167969,0.029100000858306885,25,-520.1325597596101,0.0018243750799829725,1.56109798E9,,,,0,,5,0.21,1.56109798E9,406.0,NaN,NaN
Raw,241009935571558,657814215000000,,,-1265581155231441477,-0.38814353942871094,34.88425863906741,22.04481115432474,11.472621640415584,200,22,0.0,16399,392555366054882,35,22.0,447.66326904296875,0.7954999804496765,16,0.0,0.0,1.56109798E9,,,,0,,5,0.21,1.56109798E9,406.0,NaN,NaN
Raw,241009935571558,657814215000000,,,-1265581155231441477,-0.38814353942871094,34.88425863906741,22.04481115432474,11.472621640415584,200,21,0.0,16399,392555365896913,4,43.1,-106.68467712402344,0.02550000138580799,25,-591.9592388672341,5.185066318015961E-4,1.56109798E9,,,,0,,5,0.21,1.56109798E9,406.0,NaN,NaN
Raw,241009935571558,657814215000000,,,-1265581155231441477,-0.38814353942871094,34.88425863906741,22.04481115432474,11.472621640415584,200,3,0.0,23567,392569360114918,6,39.3,-335.430419921875,0.04280000180006027,25,-2047.1625755648777,0.0018458486430946374,1.57542003E9,,,,0,,6,0.2,1.57542003E9,406.0,NaN,NaN
Raw,241009935571558,657814215000000,,,-1265581155231441477,-0.38814353942871094,34.88425863906741,22.04481115432474,11.472621640415584,200,5,0.0,23567,392569365587312,11,33.2,199.9535369873047,0.04670000076293945,25,1216.7028790097606,0.003596550258902148,1.57542003E9,,,,0,,6,0.2,1.57542003E9,406.0,NaN,NaN
Raw,241009935571558,657814215000000,,,-1265581155231441477,-0.38814353942871094,34.88425863906741,22.04481115432474,11.472621640415584,200,9,0.0,23567,392569364751124,21,26.3,590.9458618164062,0.050700001418590546,21,3601.8685746159595,0.011874324619302384,1.57542003E9,,,,0,,6,0.2,1.57542003E9,406.0,NaN,NaN
Raw,241009935571558,657814215000000,,,-1265581155231441477,-0.38814353942871094,34.88425863906741,22.04481115432474,11.472621640415584,200,24,0.0,23567,392569374277672,6,38.5,-91.18414306640625,0.04610000178217888,25,-558.0830546964152,0.0020551716777868216,1.57542003E9,,,,0,,6,0.2,1.57542003E9,406.0,NaN,NaN
Raw,241009935571558,657814215000000,,,-1265581155231441477,-0.38814353942871094,34.88425863906741,22.04481115432474,11.472621640415584,200,25,0.0,23567,392569357963233,61,18.8,-468.56011962890625,1.7720000743865967,16,0.0,0.0,1.57542003E9,,,,0,,6,0.2,1.57542003E9,406.0,NaN,NaN
Raw,241009935571558,657814215000000,,,-1265581155231441477,-0.38814353942871094,34.88425863906741,22.04481115432474,11.472621640415584,200,26,0.0,23567,392569357809479,40,21.6,71.57896423339844,0.8119999766349792,16,0.0,0.0,1.57542003E9,,,,0,,6,0.2,1.57542003E9,406.0,NaN,NaN
Raw,241009935571558,657814215000000,,,-1265581155231441477,-0.38814353942871094,34.88425863906741,22.04481115432474,11.472621640415584,200,31,0.0,23567,392569363482730,6,38.1,377.19287109375,0.047600001096725464,25,2299.2860435066586,0.0020551716777868216,1.57542003E9,,,,0,,6,0.2,1.57542003E9,406.0,NaN,NaN
Fix,gps,51.524620,-0.134157,67.770447,0.000000,3.790092,1582203753000,241010926684521
Raw,241010942176814,657815215000000,,,-1265581155231441455,-0.5430412292480469,37.47737355297431,23.11186531834048,11.473665841448687,200,12,0.0,16399,392570376961201,10,34.5,-423.1840515136719,0.044600002467632294,25,-2923.8549456301803,0.0015223494237726067,1.57542003E9,,,,0,,1,0.15,1.57542003E9,406.0,NaN,NaN
