# 
# Header Description:
# 
# Version: v2.0.0.1 Platform: 10 Manufacturer: Google Model: Pixel 4
# 
# Raw,ElapsedRealtimeNanos,TimeNanos,LeapSecond,TimeUncertaintyNanos,FullBiasNanos,BiasNanos,BiasUncertaintyNanos,DriftNanosPerSecond,DriftUncertaintyNanosPerSecond,HardwareClockDiscontinuityCount,Svid,TimeOffsetNanos,State,ReceivedSvTimeNanos,ReceivedSvTimeUncertaintyNanos,Cn0DbHz,PseudorangeRateMetersPerSecond,PseudorangeRateUncertaintyMetersPerSecond,AccumulatedDeltaRangeState,AccumulatedDeltaRangeMeters,AccumulatedDeltaRangeUncertaintyMeters,CarrierFrequencyHz,CarrierCycles,CarrierPhase,CarrierPhaseUncertainty,MultipathIndicator,SnrInDb,ConstellationType,AgcDb,CarrierFrequencyHz,UserLatitude,UserLongitude,UserAltitude
# 
# Fix,Provider,Latitude,Longitude,Altitude,Speed,Accuracy,(UTC)TimeInMs,ElapsedRealtimeNanos
# 
# Nav,Svid,Type,Status,MessageId,Sub-messageId,Data(Bytes)
# 
Fix,gps,51.524535,-0.134276,76.901672,0.000000,9.935046,1582194529000,231786893177208
Raw,231786913726324,648591155000000,,,-1265581155278329315,-0.3941631317138672,34.15204992052168,3.616969228492131,10.404713346994242,68,13,0.0,16399,383346365844480,13,31.6,148.57980346679688,0.029600001871585846,25,14994.52926530292,0.002074201012354331,1.57542003E9,,,,0,,1,0.55,1.57542003E9,301.0,NaN,NaN
Raw,231786913726324,648591155000000,,,-1265581155278329315,-0.3941631317138672,34.15204992052168,3.616969228492131,10.404713346994242,68,17,0.0,16399,383346349449368,46,20.7,-559.3872680664062,2.4300003051757812,16,0.0,0.0,1.57542003E9,,,,0,,1,0.55,1.57542003E9,301.0,NaN,NaN
Raw,231786913726324,648591155000000,,,-1265581155278329315,-0.3941631317138672,34.15204992052168,3.616969228492131,10.404713346994242,68,20,0.0,16399,383346355686250,80,16.3,-438.99798583984375,2.7790000438690186,16,0.0,0.0,1.57542003E9,,,,0,,1,0.55,1.57542003E9,301.0,NaN,NaN
Raw,231786913726324,648591155000000,,,-1265581155278329315,-0.3941631317138672,34.15204992052168,3.616969228492131,10.404713346994242,68,24,0.0,16399,383346356211099,31,23.4,-620.76904296875,0.13520000874996185,21,-59877.396462870645,0.19029366893311156,1.57542003E9,,,,0,,1,0.55,1.57542003E9,301.0,NaN,NaN
Raw,231786913726324,648591155000000,,,-1265581155278329315,-0.3941631317138672,34.15204992052168,3.616969228492131,10.404713346994242,68,28,0.0,16399,383346362131514,14,30.6,99.97203063964844,0.02590000070631504,25,9841.810667390502,0.002397700231676362,1.57542003E9,,,,0,,1,0.55,1.57542003E9,301.0,NaN,NaN
Raw,231786913726324,648591155000000,,,-1265581155278329315,-0.3941631317138672,34.15204992052168,3.616969228492131,10.404713346994242,68,30,0.0,16399,383346356824362,7,37.6,565.5092163085938,0.04340000078082085,25,58242.826034446516,0.0010085564157135064,1.57542003E9,,,,0,,1,0.55,1.57542003E9,301.0,NaN,NaN
Raw,231786913726324,648591155000000,,,-1265581155278329315,-0.3941631317138672,34.15204992052168,3.616969228492131,10.404713346994242,68,14,0.0,49359,48528369253384,13,31.4,-138.66844177246094,0.23560000956058502,25,-14709.307560866866,0.0020448123267212243,1.59806246E9,,,,0,,3,-3.33,1.59806246E9,301.0,NaN,NaN
Raw,231786913726324,648591155000000,,,-1265581155278329315,-0.3941631317138672,34.15204992052168,3.616969228492131,10.404713346994242,68,22,0.0,49359,48528355226055,10,34.7,-286.3754577636719,0.24310000240802765,25,-29868.618796057635,0.0014986697009776815,1.60031245E9,,,,0,,3,-3.33,1.60031245E9,301.0,NaN,NaN
Raw,231786913726324,648591155000000,,,-1265581155278329315,-0.3941631317138672,34.15204992052168,3.616969228492131,10.404713346994242,68,13,0.0,49359,48528363938386,16,29.4,587.8072509765625,0.22840000689029694,25,57620.79188617874,0.0027715645241306536,1.60087501E9,,,,0,,3,-3.33,1.60087501E9,301.0,NaN,NaN
Raw,231786913726324,648591155000000,,,-1265581155278329315,-0.3941631317138672,34.15204992052168,3.616969228492131,10.404713346994242,68,15,0.0,49359,48528359579316,12,32.8,-713.1094970703125,0.26510000228881836,25,-73018.25526953443,0.0017777954178659534,1.602E9,,,,0,,3,-3.33,1.602E9,301.0,NaN,NaN
Raw,231786913726324,648591155000000,,,-1265581155278329315,-0.3941631317138672,34.15204992052168,3.616969228492131,10.404713346994242,68,5,0.0,49359,48528362724607,5,40.2,-630.115966796875,0.2215999960899353,25,-64618.11754958277,7.295756082573676E-4,1.60256256E9,,,,0,,3,-3.33,1.60256256E9,301.0,NaN,NaN
Raw,231786913726324,648591155000000,,,-1265581155278329315,-0.3941631317138672,34.15204992052168,3.616969228492131,10.404713346994242,68,3,0.0,49359,48528361023840,27,24.0,719.6021118164062,0.24279999732971191,27,73270.40375360624,0.1868083964827234,1.60481254E9,,,,0,,3,-3.33,1.60481254E9,301.0,NaN,NaN
Raw,231786913726324,648591155000000,,,-1265581155278329315,-0.3941631317138672,34.15204992052168,3.616969228492131,10.404713346994242,68,4,0.0,49359,48528369278627,12,32.6,84.85646057128906,0.23510000109672546,25,8050.807467978595,0.0017740579627804397,1.60537498E9,,,,0,,3,-3.33,1.60537498E9,301.0,NaN,NaN
Raw,231786913726324,648591155000000,,,-1265581155278329315,-0.3941631317138672,34.15204992052168,3.616969228492131,10.404713346994242,68,22,0.0,16399,383332352304947,13,31.1,-460.9568176269531,0.04010000079870224,25,-47392.40061964248,0.0020932304434118673,1.56109798E9,,,,0,,5,0.51,1.56109798E9,301.0,NaN,NaN
Raw,231786913726324,648591155000000,,,-1265581155278329315,-0.3941631317138672,34.15204992052168,3.616969228492131,10.404713346994242,68,20,0.0,16399,383332352001622,19,27.5,604.8863525390625,0.043800000101327896,25,61913.00116150061,0.0032646714781548623,1.56109798E9,,,,0,,5,0.51,1.56109798E9,301.0,NaN,NaN
Raw,231786913726324,648591155000000,,,-1265581155278329315,-0.3941631317138672,34.15204992052168,3.616969228492131,10.404713346994242,68,19,0.0,16399,383332360232125,80,16.4,118.60359954833984,2.006500005722046,16,0.0,0.0,1.56109798E9,,,,0,,5,0.51,1.56109798E9,301.0,NaN,NaN
Raw,231786913726324,648591155000000,,,-1265581155278329315,-0.3941631317138672,34.15204992052168,3.616969228492131,10.404713346994242,68,10,0.0,16399,383332301376175,10,34.7,158.75729370117188,0.022100001573562622,25,16352.031219655553,0.001536315979199305,1.56109798E9,,,,0,,5,0.51,1.56109798E9,301.0,NaN,NaN
Raw,231786913726324,648591155000000,,,-1265581155278329315,-0.3941631317138672,34.15204992052168,3.616969228492131,10.404713346994242,68,5,0.0,17167,383332297264015,27,24.3,-1.0946251153945923,5.097599983215332,16,0.0,0.0,1.56109798E9,,,,0,,5,0.51,1.56109798E9,301.0,NaN,NaN
Raw,231786913726324,648591155000000,,,-1265581155278329315,-0.3941631317138672,34.15204992052168,3.616969228492131,10.404713346994242,68,1,0.0,23567,383346349876699,11,33.6,342.9852600097656,0.04670000076293945,25,5343.7646066534935,0.003596550258902148,1.57542003E9,,,,0,,6,0.42,1.57542003E9,301.0,NaN,NaN
Raw,231786913726324,648591155000000,,,-1265581155278329315,-0.3941631317138672,34.15204992052168,3.616969228492131,10.404713346994242,68,4,0.0,23567,383346348200173,24,25.5,468.88751220703125,0.05730000138282776,21,23227.260539849165,0.017526047264890512,1.57542003E9,,,,0,,6,0.42,1.57542003E9,301.0,NaN,NaN
Raw,231786913726324,648591155000000,,,-1265581155278329315,-0.3941631317138672,34.15204992052168,3.616969228492131,10.404713346994242,68,5,0.0,23567,383346347069470,139,12.7,-451.0245666503906,5.390000343322754,16,0.0,0.0,1.57542003E9,,,,0,,6,0.42,1.57542003E9,301.0,NaN,NaN
Raw,231786913726324,648591155000000,,,-1265581155278329315,-0.3941631317138672,34.15204992052168,3.616969228492131,10.404713346994242,68,9,0.0,23567,383346361688754,31,23.4,0.9134096503257751,0.6919999718666077,16,0.0,0.0,1.57542003E9,,,,0,,6,0.42,1.57542003E9,301.0,NaN,NaN
Raw,231786913726324,648591155000000,,,-1265581155278329315,-0.3941631317138672,34.15204992052168,3.616969228492131,10.404713346994242,68,24,0.0,23567,383346350051835,16,29.6,-578.4111328125,0.05090000107884407,25,-8398.196166239077,0.006146485344343376,1.57542003E9,,,,0,,6,0.42,1.57542003E9,301.0,NaN,NaN
Raw,231786913726324,648591155000000,,,-1265581155278329315,-0.3941631317138672,34.15204992052168,3.616969228492131,10.404713346994242,68,31,0.0,23567,383346354101383,16,29.5,-207.76333618164062,0.05090000107884407,25,-4044.178660297815,0.006146485344343376,1.57542003E9,,,,0,,6,0.42,1.57542003E9,301.0,NaN,NaN
Raw,231786913726324,648591155000000,,,-1265581155278329315,-0.3941631317138672,34.15204992052168,3.616969228492131,10.404713346994242,68,30,0.0,81935,383346356832188,6,26.8,565.5428466796875,0.06610000133514404,25,54517.48172602801,0.007288081858568245,1.17645005E9,,,,0,,1,-11.72,1.17645005E9,301.0,NaN,NaN
Raw,231786913726324,648591155000000,,,-1265581155278329315,-0.3941631317138672,34.15204992052168,3.616969228492131,10.404713346994242,68,1,0.0,81935,383346349883783,5,28.8,342.8641357421875,0.04660000279545784,25,32943.44015840472,0.0040262828122019055,1.17645005E9,,,,0,,6,-11.72,1.17645005E9,301.0,NaN,NaN
Raw,231786913726324,648591155000000,,,-1265581155278329315,-0.3941631317138672,34.15204992052168,3.616969228492131,10.404713346994242,68,4,0.0,81935,383346348207050,11,19.4,468.69903564453125,0.16189999878406525,29,45122.04657152051,0.34557229348499413,1.17645005E9,,,,0,,6,-11.72,1.17645005E9,301.0,NaN,NaN
Raw,231786913726324,648591155000000,,,-1265581155278329315,-0.3941631317138672,34.15204992052168,3.616969228492131,10.404713346994242,68,24,0.0,81935,383346350058920,8,22.8,-578.603271484375,0.05169999971985817,25,-55195.861154304264,0.34557229348499413,1.17645005E9,,,,0,,6,-11.72,1.17645005E9,301.0,NaN,NaN
Raw,231786913726324,648591155000000,,,-1265581155278329315,-0.3941631317138672,34.15204992052168,3.616969228492131,10.404713346994242,68,31,0.0,81935,383346354108513,5,27.5,-208.01919555664062,0.05700000375509262,25,-20229.7919489826,0.004332076888121183,1.17645005E9,,,,0,,6,-11.72,1.17645005E9,301.0,NaN,NaN
Fix,gps,51.524535,-0.134276,76.901184,0.000000,9.935046,1582194530000,231787905431267
Raw,231787922881529,648592155000000,,,-1265581155278329315,-0.5431747436523438,35.51673944457434,1.0266693113030296,10.409644870685238,68,13,0.0,16399,383347365844030,14,30.8,149.22412109375,0.030400000512599945,25,15143.027629885546,0.002397700231676362,1.57542003E9,,,,0,,1,0.83,1.57542003E9,301.0,NaN,NaN
Raw,231787922881529,648592155000000,,,-1265581155278329315,-0.5431747436523438,35.51673944457434,1.0266693113030296,10.409644870685238,68,20,0.0,16399,383347355687750,40,21.3,-438.5222473144531,0.8689999580383301,16,0.0,0.0,1.57542003E9,,,,0,,1,0.83,1.57542003E9,301.0,NaN,NaN
Raw,231787922881529,648592155000000,,,-1265581155278329315,-0.5431747436523438,35.51673944457434,1.0266693113030296,10.409644870685238,68,24,0.0,16399,383347356213188,31,23.7,-620.7694702148438,0.13520000874996185,21,-60498.47454401069,0.19029366893311156,1.57542003E9,,,,0,,1,0.83,1.57542003E9,301.0,NaN,NaN
Raw,231787922881529,648592155000000,,,-1265581155278329315,-0.5431747436523438,35.51673944457434,1.0266693113030296,10.409644870685238,68,28,0.0,16399,383347362131151,11,33.4,100.698974609375,0.02420000173151493,25,9941.736625850413,0.001655554942969963,1.57542003E9,,,,0,,1,0.83,1.57542003E9,301.0,NaN,NaN
Raw,231787922881529,648592155000000,,,-1265581155278329315,-0.5431747436523438,35.51673944457434,1.0266693113030296,10.409644870685238,68,30,0.0,16399,383347356822475,7,37.8,566.1389770507812,0.04340000078082085,25,58808.252250848025,0.0010085564157135064,1.57542003E9,,,,0,,1,0.83,1.57542003E9,301.0,NaN,NaN
Raw,231787922881529,648592155000000,,,-1265581155278329315,-0.5431747436523438,35.51673944457434,1.0266693113030296,10.409644870685238,68,14,0.0,49359,48529369253844,14,30.5,-137.93499755859375,0.23640000820159912,25,-14848.020685153937,0.0023637279898678486,1.59806246E9,,,,0,,3,-3.0,1.59806246E9,301.0,NaN,NaN
Raw,231787922881529,648592155000000,,,-1265581155278329315,-0.5431747436523438,35.51673944457434,1.0266693113030296,10.409644870685238,68,22,0.0,49359,48529355227023,11,33.9,-285.6454772949219,0.24369999766349792,25,-30155.020678949957,0.0016298032452919452,1.60031245E9,,,,0,,3,-3.0,1.60031245E9,301.0,NaN,NaN
Raw,231787922881529,648592155000000,,,-1265581155278329315,-0.5431747436523438,35.51673944457434,1.0266693113030296,10.409644870685238,68,13,0.0,49359,48529363936401,14,30.2,588.4973754882812,0.227400004863739,25,58208.54922847218,0.0023595752053329456,1.60087501E9,,,,0,,3,-3.0,1.60087501E9,301.0,NaN,NaN
Raw,231787922881529,648592155000000,,,-1265581155278329315,-0.5431747436523438,35.51673944457434,1.0266693113030296,10.409644870685238,68,15,0.0,49359,48529359581692,12,32.9,-712.5236206054688,0.2501000165939331,25,-73731.46340853529,0.0017777954178659534,1.602E9,,,,0,,3,-3.0,1.602E9,301.0,NaN,NaN
Raw,231787922881529,648592155000000,,,-1265581155278329315,-0.5431747436523438,35.51673944457434,1.0266693113030296,10.409644870685238,68,5,0.0,49359,48529362726694,5,41.3,-629.4195556640625,0.22130000591278076,25,-65248.278773336126,6.734544143230755E-4,1.60256256E9,,,,0,,3,-3.0,1.60256256E9,301.0,NaN,NaN
Raw,231787922881529,648592155000000,,,-1265581155278329315,-0.5431747436523438,35.51673944457434,1.0266693113030296,10.409644870685238,68,3,0.0,49359,48529361021529,35,22.4,720.2678833007812,0.9279999732971191,16,0.0,0.0,1.60481254E9,,,,0,,3,-3.0,1.60481254E9,301.0,NaN,NaN
Raw,231787922881529,648592155000000,,,-1265581155278329315,-0.5431747436523438,35.51673944457434,1.0266693113030296,10.409644870685238,68,4,0.0,49359,48529369278371,12,32.2,85.5806655883789,0.23510000109672546,25,8135.629016052488,0.0017740579627804397,1.60537498E9,,,,0,,3,-3.0,1.60537498E9,301.0,NaN,NaN
Raw,231787922881529,648592155000000,,,-1265581155278329315,-0.5431747436523438,35.51673944457434,1.0266693113030296,10.409644870685238,68,22,0.0,16399,383333352306485,14,30.9,-460.2849426269531,0.04090000316500664,25,-47853.39956652232,0.0024196975554572116,1.56109798E9,,,,0,,5,0.81,1.56109798E9,301.0,NaN,NaN
Raw,231787922881529,648592155000000,,,-1265581155278329315,-0.5431747436523438,35.51673944457434,1.0266693113030296,10.409644870685238,68,20,0.0,16399,383333351999598,21,26.4,605.5322265625,0.04320000112056732,21,62517.716578312495,0.005492329335005111,1.56109798E9,,,,0,,5,0.81,1.56109798E9,301.0,NaN,NaN
Raw,231787922881529,648592155000000,,,-1265581155278329315,-0.5431747436523438,35.51673944457434,1.0266693113030296,10.409644870685238,68,19,0.0,16399,383333360231792,46,20.0,120.84085083007812,0.9164999723434448,16,0.0,0.0,1.56109798E9,,,,0,,5,0.81,1.56109798E9,301.0,NaN,NaN
Raw,231787922881529,648592155000000,,,-1265581155278329315,-0.5431747436523438,35.51673944457434,1.0266693113030296,10.409644870685238,68,10,0.0,16399,383333301375648,8,36.0,159.37339782714844,0.02110000140964985,25,16510.69597480711,0.0011714408558922843,1.56109798E9,,,,0,,5,0.81,1.56109798E9,301.0,NaN,NaN
Raw,231787922881529,648592155000000,,,-1265581155278329315,-0.5431747436523438,35.51673944457434,1.0266693113030296,10.409644870685238,68,1,0.0,23567,383347349875550,11,33.1,343.4768371582031,0.04670000076293945,25,5686.611193647134,0.003596550258902148,1.57542003E9,,,,0,,6,0.61,1.57542003E9,301.0,NaN,NaN
Raw,231787922881529,648592155000000,,,-1265581155278329315,-0.5431747436523438,35.51673944457434,1.0266693113030296,10.409644870685238,68,4,0.0,23567,383347348198600,31,23.5,469.0738830566406,0.6904999613761902,16,0.0,0.0,1.57542003E9,,,,0,,6,0.61,1.57542003E9,301.0,NaN,NaN
Raw,231787922881529,648592155000000,,,-1265581155278329315,-0.5431747436523438,35.51673944457434,1.0266693113030296,10.409644870685238,68,9,0.0,23567,383347361688761,27,24.6,1.7221577167510986,0.6420000195503235,16,0.0,0.0,1.57542003E9,,,,0,,6,0.61,1.57542003E9,301.0,NaN,NaN
Raw,231787922881529,648592155000000,,,-1265581155278329315,-0.5431747436523438,35.51673944457434,1.0266693113030296,10.409644870685238,68,24,0.0,23567,383347350053821,17,28.4,-578.0247802734375,0.05220000073313713,25,-8976.83526209883,0.006565131413727744,1.57542003E9,,,,0,,6,0.61,1.57542003E9,301.0,NaN,NaN
Raw,231787922881529,648592155000000,,,-1265581155278329315,-0.5431747436523438,35.51673944457434,1.0266693113030296,10.409644870685238,68,31,0.0,23567,383347354102076,16,29.1,-207.28204345703125,0.05090000107884407,25,-4252.093328487615,0.006146485344343376,1.57542003E9,,,,0,,6,0.61,1.57542003E9,301.0,NaN,NaN
Raw,231787922881529,648592155000000,,,-1265581155278329315,-0.5431747436523438,35.51673944457434,1.0266693113030296,10.409644870685238,68,30,0.0,81935,383347356830302,3,31.2,566.1301879882812,0.05180000141263008,25,55082.91029926219,0.0027776256465907277,1.17645005E9,,,,0,,1,-0.99,1.17645005E9,301.0,NaN,NaN
Raw,231787922881529,648592155000000,,,-1265581155278329315,-0.5431747436523438,35.51673944457434,1.0266693113030296,10.409644870685238,68,1,0.0,81935,383347349882637,3,31.9,343.6899108886719,0.04130000248551369,25,33286.29913186307,0.0027776256465907277,1.17645005E9,,,,0,,6,-0.99,1.17645005E9,301.0,NaN,NaN
Raw,231787922881529,648592155000000,,,-1265581155278329315,-0.5431747436523438,35.51673944457434,1.0266693113030296,10.409644870685238,68,4,0.0,81935,383347348205647,9,21.1,469.54840087890625,0.04619999974966049,29,45590.66109690657,0.25482803839368795,1.17645005E9,,,,0,,6,-0.99,1.17645005E9,301.0,NaN,NaN
Raw,231787922881529,648592155000000,,,-1265581155278329315,-0.5431747436523438,35.51673944457434,1.0266693113030296,10.409644870685238,68,9,0.0,81935,383347361695765,12,18.7,2.2042627334594727,1.7480000257492065,16,0.0,0.0,1.17645005E9,,,,0,,6,-0.99,1.17645005E9,301.0,NaN,NaN
Raw,231787922881529,648592155000000,,,-1265581155278329315,-0.5431747436523438,35.51673944457434,1.0266693113030296,10.409644870685238,68,24,0.0,81935,383347350060846,5,28.6,-577.8016967773438,0.048100002110004425,29,-55774.75147461887,0.0040262828122019055,1.17645005E9,,,,0,,6,-0.99,1.17645005E9,301.0,NaN,NaN
Raw,231787922881529,648592155000000,,,-1265581155278329315,-0.5431747436523438,35.51673944457434,1.0266693113030296,10.409644870685238,68,31,0.0,81935,383347354109202,3,32.7,-207.0247039794922,0.047600001096725464,25,-20437.699647784786,0.0024208662868967453,1.17645005E9,,,,0,,6,-0.99,1.17645005E9,301.0,NaN,NaN
Fix,gps,51.524535,-0.134276,76.906433,0.000000,9.935046,1582194531000,231788909414804
Raw,231788930907463,648593155000000,,,-1265581155278329308,-0.986663818359375,35.5741722160019,3.3433730498827794,10.38151029342087,68,5,0.0,16399,383348354176722,92,15.5,710.0618286132812,2.877500057220459,16,0.0,0.0,1.57542003E9,,,,0,,1,1.06,1.57542003E9,301.0,NaN,NaN
Raw,231788930907463,648593155000000,,,-1265581155278329308,-0.986663818359375,35.5741722160019,3.3433730498827794,10.38151029342087,68,13,0.0,16399,383348365843521,13,31.5,149.74729919433594,0.029600001871585846,25,15292.724751683561,0.002074201012354331,1.57542003E9,,,,0,,1,1.06,1.57542003E9,301.0,NaN,NaN
Raw,231788930907463,648593155000000,,,-1265581155278329308,-0.986663818359375,35.5741722160019,3.3433730498827794,10.38151029342087,68,15,0.0,16399,383348365246350,35,22.7,-193.32403564453125,0.37130001187324524,19,-86.0585552221258,0.19029366893311156,1.57542003E9,,,,0,,1,1.06,1.57542003E9,301.0,NaN,NaN
Raw,231788930907463,648593155000000,,,-1265581155278329308,-0.986663818359375,35.5741722160019,3.3433730498827794,10.38151029342087,68,20,0.0,16399,383348355689179,46,20.1,-437.4185791015625,0.9389999508857727,16,0.0,0.0,1.57542003E9,,,,0,,1,1.06,1.57542003E9,301.0,NaN,NaN
Raw,231788930907463,648593155000000,,,-1265581155278329308,-0.986663818359375,35.5741722160019,3.3433730498827794,10.38151029342087,68,24,0.0,16399,383348356215186,31,23.6,-620.0638427734375,0.13520000874996185,21,-61118.7509613554,0.19029366893311156,1.57542003E9,,,,0,,1,1.06,1.57542003E9,301.0,NaN,NaN
Raw,231788930907463,648593155000000,,,-1265581155278329308,-0.986663818359375,35.5741722160019,3.3433730498827794,10.38151029342087,68,28,0.0,16399,383348362130805,10,34.1,101.18842315673828,0.023600000888109207,25,10042.866526322247,0.0015223494237726067,1.57542003E9,,,,0,,1,1.06,1.57542003E9,301.0,NaN,NaN
Raw,231788930907463,648593155000000,,,-1265581155278329308,-0.986663818359375,35.5741722160019,3.3433730498827794,10.38151029342087,68,30,0.0,16399,383348356820587,7,37.8,566.5673217773438,0.04340000078082085,25,59374.80806109317,0.0010085564157135064,1.57542003E9,,,,0,,1,1.06,1.57542003E9,301.0,NaN,NaN
Raw,231788930907463,648593155000000,,,-1265581155278329308,-0.986663818359375,35.5741722160019,3.3433730498827794,10.38151029342087,68,14,0.0,49359,48530369254333,13,31.0,-137.41339111328125,0.23560000956058502,25,-14985.52034173541,0.0020448123267212243,1.59806246E9,,,,0,,3,-2.84,1.59806246E9,301.0,NaN,NaN
Raw,231788930907463,648593155000000,,,-1265581155278329308,-0.986663818359375,35.5741722160019,3.3433730498827794,10.38151029342087,68,22,0.0,49359,48530355227921,11,33.3,-285.0992431640625,0.24369999766349792,25,-30440.183261346854,0.0016298032452919452,1.60031245E9,,,,0,,3,-2.84,1.60031245E9,301.0,NaN,NaN
Raw,231788930907463,648593155000000,,,-1265581155278329308,-0.986663818359375,35.5741722160019,3.3433730498827794,10.38151029342087,68,13,0.0,49359,48530363934464,14,30.1,588.9557495117188,0.227400004863739,25,58797.468485462305,0.0023595752053329456,1.60087501E9,,,,0,,3,-2.84,1.60087501E9,301.0,NaN,NaN
Raw,231788930907463,648593155000000,,,-1265581155278329308,-0.986663818359375,35.5741722160019,3.3433730498827794,10.38151029342087,68,15,0.0,49359,48530359584074,12,32.4,-712.0209350585938,0.2501000165939331,25,-74443.52604713493,0.0017777954178659534,1.602E9,,,,0,,3,-2.84,1.602E9,301.0,NaN,NaN
Raw,231788930907463,648593155000000,,,-1265581155278329308,-0.986663818359375,35.5741722160019,3.3433730498827794,10.38151029342087,68,5,0.0,49359,48530362728788,5,41.6,-628.9530639648438,0.22130000591278076,25,-65877.27509567532,6.734544143230755E-4,1.60256256E9,,,,0,,3,-2.84,1.60256256E9,301.0,NaN,NaN
Raw,231788930907463,648593155000000,,,-1265581155278329308,-0.986663818359375,35.5741722160019,3.3433730498827794,10.38151029342087,68,3,0.0,49359,48530361019049,21,26.7,720.3724975585938,0.2282000035047531,27,74710.27420699276,0.005342720110455805,1.60481254E9,,,,0,,3,-2.84,1.60481254E9,301.0,NaN,NaN
Raw,231788930907463,648593155000000,,,-1265581155278329308,-0.986663818359375,35.5741722160019,3.3433730498827794,10.38151029342087,68,4,0.0,49359,48530369278037,12,32.4,86.14303588867188,0.23510000109672546,25,8221.692056666083,0.0017740579627804397,1.60537498E9,,,,0,,3,-2.84,1.60537498E9,301.0,NaN,NaN
Raw,231788930907463,648593155000000,,,-1265581155278329308,-0.986663818359375,35.5741722160019,3.3433730498827794,10.38151029342087,68,22,0.0,16399,383334352308018,14,30.7,-459.80841064453125,0.04090000316500664,25,-48313.244854680444,0.0024196975554572116,1.56109798E9,,,,0,,5,1.1,1.56109798E9,301.0,NaN,NaN
Raw,231788930907463,648593155000000,,,-1265581155278329308,-0.986663818359375,35.5741722160019,3.3433730498827794,10.38151029342087,68,20,0.0,16399,383334351997565,17,28.4,605.97412109375,0.04170000180602074,17,63123.659903207794,0.003034223768286223,1.56109798E9,,,,0,,5,1.1,1.56109798E9,301.0,NaN,NaN
Raw,231788930907463,648593155000000,,,-1265581155278329308,-0.986663818359375,35.5741722160019,3.3433730498827794,10.38151029342087,68,19,0.0,16399,383334360231294,40,21.0,119.3525390625,0.8464999794960022,16,0.0,0.0,1.56109798E9,,,,0,,5,1.1,1.56109798E9,301.0,NaN,NaN
Raw,231788930907463,648593155000000,,,-1265581155278329308,-0.986663818359375,35.5741722160019,3.3433730498827794,10.38151029342087,68,10,0.0,16399,383334301375115,9,35.6,159.7706298828125,0.02160000056028366,25,16670.46296121053,0.0013442764594430532,1.56109798E9,,,,0,,5,1.1,1.56109798E9,301.0,NaN,NaN
Raw,231788930907463,648593155000000,,,-1265581155278329308,-0.986663818359375,35.5741722160019,3.3433730498827794,10.38151029342087,68,1,0.0,23567,383348349874399,10,34.6,344.00286865234375,0.04610000178217888,25,6030.602819162326,0.003311109885939926,1.57542003E9,,,,0,,6,0.81,1.57542003E9,301.0,NaN,NaN
Raw,231788930907463,648593155000000,,,-1265581155278329308,-0.986663818359375,35.5741722160019,3.3433730498827794,10.38151029342087,68,4,0.0,23567,383348348197031,31,23.3,469.663818359375,0.6904999613761902,16,0.0,0.0,1.57542003E9,,,,0,,6,0.81,1.57542003E9,301.0,NaN,NaN
Raw,231788930907463,648593155000000,,,-1265581155278329308,-0.986663818359375,35.5741722160019,3.3433730498827794,10.38151029342087,68,5,0.0,23567,383348347072574,61,18.6,-450.6915588378906,1.7750000953674316,16,0.0,0.0,1.57542003E9,,,,0,,6,0.81,1.57542003E9,301.0,NaN,NaN
Raw,231788930907463,648593155000000,,,-1265581155278329308,-0.986663818359375,35.5741722160019,3.3433730498827794,10.38151029342087,68,9,0.0,23567,383348361688818,40,21.0,2.04565691947937,0.871999979019165,16,0.0,0.0,1.57542003E9,,,,0,,6,0.81,1.57542003E9,301.0,NaN,NaN
Raw,231788930907463,648593155000000,,,-1265581155278329308,-0.986663818359375,35.5741722160019,3.3433730498827794,10.38151029342087,68,24,0.0,23567,383348350055745,19,27.8,-577.5283813476562,0.052800003439188004,21,-9554.459958142928,0.007212130206821385,1.57542003E9,,,,0,,6,0.81,1.57542003E9,301.0,NaN,NaN
Raw,231788930907463,648593155000000,,,-1265581155278329308,-0.986663818359375,35.5741722160019,3.3433730498827794,10.38151029342087,68,31,0.0,23567,383348354102786,16,29.1,-206.70590209960938,0.05090000107884407,25,-4458.8359002266525,0.006146485344343376,1.57542003E9,,,,0,,6,0.81,1.57542003E9,301.0,NaN,NaN
Raw,231788930907463,648593155000000,,,-1265581155278329308,-0.986663818359375,35.5741722160019,3.3433730498827794,10.38151029342087,68,24,0.0,81935,383348356223311,10,20.4,-619.75537109375,0.09970000386238098,27,-60170.27834801004,0.25482803839368795,1.17645005E9,,,,0,,1,-2.27,1.17645005E9,301.0,NaN,NaN
Raw,231788930907463,648593155000000,,,-1265581155278329308,-0.986663818359375,35.5741722160019,3.3433730498827794,10.38151029342087,68,30,0.0,81935,383348356828409,3,31.8,566.5643920898438,0.05180000141263008,25,55649.46350882089,0.0027776256465907277,1.17645005E9,,,,0,,1,-2.27,1.17645005E9,301.0,NaN,NaN
Raw,231788930907463,648593155000000,,,-1265581155278329308,-0.986663818359375,35.5741722160019,3.3433730498827794,10.38151029342087,68,1,0.0,81935,383348349881482,5,28.7,343.96820068359375,0.04660000279545784,25,33630.288549383695,0.0040262828122019055,1.17645005E9,,,,0,,6,-2.27,1.17645005E9,301.0,NaN,NaN
Raw,231788930907463,648593155000000,,,-1265581155278329308,-0.986663818359375,35.5741722160019,3.3433730498827794,10.38151029342087,68,4,0.0,81935,383348348204105,9,21.1,469.8088684082031,0.04410000145435333,25,46060.484958315705,0.25482803839368795,1.17645005E9,,,,0,,6,-2.27,1.17645005E9,301.0,NaN,NaN
Raw,231788930907463,648593155000000,,,-1265581155278329308,-0.986663818359375,35.5741722160019,3.3433730498827794,10.38151029342087,68,9,0.0,81935,383348361695771,10,20.7,2.145247220993042,0.07720000296831131,27,-70.90533210827402,0.25482803839368795,1.17645005E9,,,,0,,6,-2.27,1.17645005E9,301.0,NaN,NaN
Raw,231788930907463,648593155000000,,,-1265581155278329308,-0.986663818359375,35.5741722160019,3.3433730498827794,10.38151029342087,68,24,0.0,81935,383348350062772,4,29.7,-577.5478515625,0.04600000008940697,25,-56352.25679630944,0.0037714549693657518,1.17645005E9,,,,0,,6,-2.27,1.17645005E9,301.0,NaN,NaN
Raw,231788930907463,648593155000000,,,-1265581155278329308,-0.986663818359375,35.5741722160019,3.3433730498827794,10.38151029342087,68,31,0.0,81935,383348354109890,3,33.1,-206.77279663085938,0.04650000110268593,25,-20644.452743833106,0.0022170039651624013,1.17645005E9,,,,0,,6,-2.27,1.17645005E9,301.0,NaN,NaN
Fix,gps,51.524535,-0.134276,76.913086,0.000000,9.935046,1582194532000,231789898247663
Raw,231789913976571,648594155000000,,,-1265581155278329303,-0.6818504333496094,41.79145616944879,4.7339939391293875,12.275161311806382,68,13,0.0,16399,383349365842983,11,33.6,150.22157287597656,0.028700001537799835,25,15442.691708595255,0.001655554942969963,1.57542003E9,,,,0,,1,0.97,1.57542003E9,301.0,NaN,NaN
Raw,231789913976571,648594155000000,,,-1265581155278329303,-0.6818504333496094,41.79145616944879,4.7339939391293875,12.275161311806382,68,15,0.0,16399,383349365246898,21,26.1,-192.9790496826172,0.03420000150799751,21,-279.2743741334531,0.005442398901996786,1.57542003E9,,,,0,,1,0.97,1.57542003E9,301.0,NaN,NaN
Raw,231789913976571,648594155000000,,,-1265581155278329303,-0.6818504333496094,41.79145616944879,4.7339939391293875,12.275161311806382,68,17,0.0,16399,383349349454842,70,17.5,-559.4158325195312,2.6800003051757812,16,0.0,0.0,1.57542003E9,,,,0,,1,0.97,1.57542003E9,301.0,NaN,NaN
Raw,231789913976571,648594155000000,,,-1265581155278329303,-0.6818504333496094,41.79145616944879,4.7339939391293875,12.275161311806382,68,20,0.0,16399,383349355690652,40,21.4,-437.43756103515625,0.8689999580383301,16,0.0,0.0,1.57542003E9,,,,0,,1,0.97,1.57542003E9,301.0,NaN,NaN
Raw,231789913976571,648594155000000,,,-1265581155278329303,-0.6818504333496094,41.79145616944879,4.7339939391293875,12.275161311806382,68,24,0.0,16399,383349356217307,31,23.5,-619.7357788085938,0.13520000874996185,21,-61738.75793274251,0.19029366893311156,1.57542003E9,,,,0,,1,0.97,1.57542003E9,301.0,NaN,NaN
Raw,231789913976571,648594155000000,,,-1265581155278329303,-0.6818504333496094,41.79145616944879,4.7339939391293875,12.275161311806382,68,28,0.0,16399,383349362130457,9,35.3,101.68489074707031,0.023100001737475395,25,10144.288348743254,0.0013320557236479321,1.57542003E9,,,,0,,1,0.97,1.57542003E9,301.0,NaN,NaN
Raw,231789913976571,648594155000000,,,-1265581155278329303,-0.6818504333496094,41.79145616944879,4.7339939391293875,12.275161311806382,68,30,0.0,16399,383349356818702,7,37.9,566.9853515625,0.04340000078082085,25,59941.56970077483,0.0010085564157135064,1.57542003E9,,,,0,,1,0.97,1.57542003E9,301.0,NaN,NaN
Raw,231789913976571,648594155000000,,,-1265581155278329303,-0.6818504333496094,41.79145616944879,4.7339939391293875,12.275161311806382,68,14,0.0,49359,48531369254762,13,31.6,-136.9291534423828,0.23560000956058502,25,-15122.693779650303,0.0020448123267212243,1.59806246E9,,,,0,,3,-2.91,1.59806246E9,301.0,NaN,NaN
Raw,231789913976571,648594155000000,,,-1265581155278329303,-0.6818504333496094,41.79145616944879,4.7339939391293875,12.275161311806382,68,22,0.0,49359,48531355228893,11,33.7,-284.56842041015625,0.24369999766349792,25,-30725.01947901521,0.0016298032452919452,1.60031245E9,,,,0,,3,-2.91,1.60031245E9,301.0,NaN,NaN
Raw,231789913976571,648594155000000,,,-1265581155278329303,-0.6818504333496094,41.79145616944879,4.7339939391293875,12.275161311806382,68,13,0.0,49359,48531363932493,16,29.9,589.4291381835938,0.22840000689029694,25,59386.647345749436,0.0027715645241306536,1.60087501E9,,,,0,,3,-2.91,1.60087501E9,301.0,NaN,NaN
Raw,231789913976571,648594155000000,,,-1265581155278329303,-0.6818504333496094,41.79145616944879,4.7339939391293875,12.275161311806382,68,15,0.0,49359,48531359586450,11,33.3,-711.587158203125,0.24970000982284546,25,-75155.32636490262,0.0016280864052631069,1.602E9,,,,0,,3,-2.91,1.602E9,301.0,NaN,NaN
Raw,231789913976571,648594155000000,,,-1265581155278329303,-0.6818504333496094,41.79145616944879,4.7339939391293875,12.275161311806382,68,5,0.0,49359,48531362730870,5,41.3,-628.5035400390625,0.22130000591278076,25,-66506.01111333637,6.734544143230755E-4,1.60256256E9,,,,0,,3,-2.91,1.60256256E9,301.0,NaN,NaN
Raw,231789913976571,648594155000000,,,-1265581155278329303,-0.6818504333496094,41.79145616944879,4.7339939391293875,12.275161311806382,68,3,0.0,49359,48531361016680,27,24.0,720.875,0.24279999732971191,21,75430.75517843786,0.1868083964827234,1.60481254E9,,,,0,,3,-2.91,1.60481254E9,301.0,NaN,NaN
Raw,231789913976571,648594155000000,,,-1265581155278329303,-0.6818504333496094,41.79145616944879,4.7339939391293875,12.275161311806382,68,4,0.0,49359,48531369277843,11,33.9,86.67457580566406,0.234700009226799,25,8308.090422863848,0.0016246636830792964,1.60537498E9,,,,0,,3,-2.91,1.60537498E9,301.0,NaN,NaN
Raw,231789913976571,648594155000000,,,-1265581155278329303,-0.6818504333496094,41.79145616944879,4.7339939391293875,12.275161311806382,68,22,0.0,16399,383335352309544,14,30.6,-459.376708984375,0.04090000316500664,25,-48772.85584057486,0.0024196975554572116,1.56109798E9,,,,0,,5,1.03,1.56109798E9,301.0,NaN,NaN
Raw,231789913976571,648594155000000,,,-1265581155278329303,-0.6818504333496094,41.79145616944879,4.7339939391293875,12.275161311806382,68,20,0.0,16399,383335351995582,19,27.2,606.3917846679688,0.04230000078678131,25,63729.91987386132,0.0032646714781548623,1.56109798E9,,,,0,,5,1.03,1.56109798E9,301.0,NaN,NaN
Raw,231789913976571,648594155000000,,,-1265581155278329303,-0.6818504333496094,41.79145616944879,4.7339939391293875,12.275161311806382,68,19,0.0,16399,383335360230898,53,19.3,120.312744140625,0.9965000152587891,16,0.0,0.0,1.56109798E9,,,,0,,5,1.03,1.56109798E9,301.0,NaN,NaN
Raw,231789913976571,648594155000000,,,-1265581155278329303,-0.6818504333496094,41.79145616944879,4.7339939391293875,12.275161311806382,68,11,0.0,16399,383335344235439,106,14.3,128.45521545410156,3.7325000762939453,16,0.0,0.0,1.56109798E9,,,,0,,5,1.03,1.56109798E9,301.0,NaN,NaN
Raw,231789913976571,648594155000000,,,-1265581155278329303,-0.6818504333496094,41.79145616944879,4.7339939391293875,12.275161311806382,68,10,0.0,16399,383335301374578,8,36.0,160.16551208496094,0.02110000140964985,25,16830.421085383834,0.0011714408558922843,1.56109798E9,,,,0,,5,1.03,1.56109798E9,301.0,NaN,NaN
Raw,231789913976571,648594155000000,,,-1265581155278329303,-0.6818504333496094,41.79145616944879,4.7339939391293875,12.275161311806382,68,5,0.0,17167,383335297264064,31,23.9,-2.208454132080078,5.097599983215332,16,0.0,0.0,1.56109798E9,,,,0,,5,1.03,1.56109798E9,301.0,NaN,NaN
Raw,231789913976571,648594155000000,,,-1265581155278329303,-0.6818504333496094,41.79145616944879,4.7339939391293875,12.275161311806382,68,1,0.0,23567,383349349873254,10,34.5,344.4170227050781,0.04610000178217888,25,6374.83174103377,0.003311109885939926,1.57542003E9,,,,0,,6,0.71,1.57542003E9,301.0,NaN,NaN
Raw,231789913976571,648594155000000,,,-1265581155278329303,-0.6818504333496094,41.79145616944879,4.7339939391293875,12.275161311806382,68,4,0.0,23567,383349348195429,24,25.7,470.163818359375,0.05730000138282776,19,24635.7942915548,0.017526047264890512,1.57542003E9,,,,0,,6,0.71,1.57542003E9,301.0,NaN,NaN
Raw,231789913976571,648594155000000,,,-1265581155278329303,-0.6818504333496094,41.79145616944879,4.7339939391293875,12.275161311806382,68,5,0.0,23567,383349347074070,53,19.6,-449.57830810546875,0.9449999928474426,16,0.0,0.0,1.57542003E9,,,,0,,6,0.71,1.57542003E9,301.0,NaN,NaN
Raw,231789913976571,648594155000000,,,-1265581155278329303,-0.6818504333496094,41.79145616944879,4.7339939391293875,12.275161311806382,68,9,0.0,23567,383349361688818,46,20.7,2.940037250518799,0.871999979019165,16,0.0,0.0,1.57542003E9,,,,0,,6,0.71,1.57542003E9,301.0,NaN,NaN
Raw,231789913976571,648594155000000,,,-1265581155278329303,-0.6818504333496094,41.79145616944879,4.7339939391293875,12.275161311806382,68,24,0.0,23567,383349350057662,17,28.8,-577.0963745117188,0.05220000073313713,25,-10131.653658822219,0.006565131413727744,1.57542003E9,,,,0,,6,0.71,1.57542003E9,301.0,NaN,NaN
Raw,231789913976571,648594155000000,,,-1265581155278329303,-0.6818504333496094,41.79145616944879,4.7339939391293875,12.275161311806382,68,31,0.0,23567,383349354103485,14,30.4,-206.27053833007812,0.04990000277757645,25,-4665.330477431624,0.005233075867304602,1.57542003E9,,,,0,,6,0.71,1.57542003E9,301.0,NaN,NaN
Raw,231789913976571,648594155000000,,,-1265581155278329303,-0.6818504333496094,41.79145616944879,4.7339939391293875,12.275161311806382,68,24,0.0,81935,383349356225380,11,19.2,-620.0093383789062,0.9404999613761902,16,0.0,0.0,1.17645005E9,,,,0,,1,-2.92,1.17645005E9,301.0,NaN,NaN
Raw,231789913976571,648594155000000,,,-1265581155278329303,-0.6818504333496094,41.79145616944879,4.7339939391293875,12.275161311806382,68,30,0.0,81935,383349356826521,4,30.8,566.9561157226562,0.05320000275969505,25,56216.21773648895,0.0032108332879374254,1.17645005E9,,,,0,,1,-2.92,1.17645005E9,301.0,NaN,NaN
Raw,231789913976571,648594155000000,,,-1265581155278329303,-0.6818504333496094,41.79145616944879,4.7339939391293875,12.275161311806382,68,1,0.0,81935,383349349880339,5,28.8,344.2976989746094,0.04660000279545784,25,33974.51391554051,0.0040262828122019055,1.17645005E9,,,,0,,6,-2.92,1.17645005E9,301.0,NaN,NaN
Raw,231789913976571,648594155000000,,,-1265581155278329303,-0.6818504333496094,41.79145616944879,4.7339939391293875,12.275161311806382,68,4,0.0,81935,383349348202489,11,19.8,470.28289794921875,0.04619999974966049,25,46530.508179406526,0.34557229348499413,1.17645005E9,,,,0,,6,-2.92,1.17645005E9,301.0,NaN,NaN
Raw,231789913976571,648594155000000,,,-1265581155278329303,-0.6818504333496094,41.79145616944879,4.7339939391293875,12.275161311806382,68,9,0.0,81935,383349361695759,9,21.4,2.5968422889709473,0.04690000042319298,25,-68.51803868780895,0.25482803839368795,1.17645005E9,,,,0,,6,-2.92,1.17645005E9,301.0,NaN,NaN
Raw,231789913976571,648594155000000,,,-1265581155278329303,-0.6818504333496094,41.79145616944879,4.7339939391293875,12.275161311806382,68,24,0.0,81935,383349350064700,4,29.1,-577.1776733398438,0.04600000008940697,25,-56929.553137532515,0.0037714549693657518,1.17645005E9,,,,0,,6,-2.92,1.17645005E9,301.0,NaN,NaN
Raw,231789913976571,648594155000000,,,-1265581155278329303,-0.6818504333496094,41.79145616944879,4.7339939391293875,12.275161311806382,68,31,0.0,81935,383349354110579,3,32.9,-206.36866760253906,0.047600001096725464,25,-20850.93130135682,0.0024208662868967453,1.17645005E9,,,,0,,6,-2.92,1.17645005E9,301.0,NaN,NaN
Fix,gps,51.524535,-0.134276,76.919250,0.000000,9.935046,1582194533000,231790904326149
Raw,231790922758911,648595155000000,,,-1265581155278329292,-0.11854934692382812,40.0733006244991,5.768756603717748,11.559377011549808,68,5,0.0,16399,383350354171890,80,16.4,710.3377685546875,2.0275001525878906,16,0.0,0.0,1.57542003E9,,,,0,,1,1.02,1.57542003E9,301.0,NaN,NaN
Raw,231790922758911,648595155000000,,,-1265581155278329292,-0.11854934692382812,40.0733006244991,5.768756603717748,11.559377011549808,68,13,0.0,16399,383350365842472,10,34.7,150.12417602539062,0.02810000069439411,25,15592.889023157642,0.0015223494237726067,1.57542003E9,,,,0,,1,1.02,1.57542003E9,301.0,NaN,NaN
Raw,231790922758911,648595155000000,,,-1265581155278329292,-0.11854934692382812,40.0733006244991,5.768756603717748,11.559377011549808,68,15,0.0,16399,383350365247532,19,27.1,-193.04563903808594,0.0333000011742115,17,-472.2519634101396,0.003234992547669888,1.57542003E9,,,,0,,1,1.02,1.57542003E9,301.0,NaN,NaN
Raw,231790922758911,648595155000000,,,-1265581155278329292,-0.11854934692382812,40.0733006244991,5.768756603717748,11.559377011549808,68,20,0.0,16399,383350355692102,24,25.6,-437.1584167480469,0.055800002068281174,19,-46737.303228347926,0.19029366893311156,1.57542003E9,,,,0,,1,1.02,1.57542003E9,301.0,NaN,NaN
Raw,231790922758911,648595155000000,,,-1265581155278329292,-0.11854934692382812,40.0733006244991,5.768756603717748,11.559377011549808,68,24,0.0,16399,383350356219488,27,24.2,-619.8668823242188,0.06530000269412994,21,-62358.56265368923,0.19029366893311156,1.57542003E9,,,,0,,1,1.02,1.57542003E9,301.0,NaN,NaN
Raw,231790922758911,648595155000000,,,-1265581155278329292,-0.11854934692382812,40.0733006244991,5.768756603717748,11.559377011549808,68,28,0.0,16399,383350362130093,9,35.3,101.59729766845703,0.023100001737475395,25,10245.951018661664,0.0013320557236479321,1.57542003E9,,,,0,,1,1.02,1.57542003E9,301.0,NaN,NaN
Raw,231790922758911,648595155000000,,,-1265581155278329292,-0.11854934692382812,40.0733006244991,5.768756603717748,11.559377011549808,68,30,0.0,16399,383350356816810,6,38.4,566.8324584960938,0.04310000315308571,25,60508.497501811675,9.324389888310735E-4,1.57542003E9,,,,0,,1,1.02,1.57542003E9,301.0,NaN,NaN
Raw,231790922758911,648595155000000,,,-1265581155278329292,-0.11854934692382812,40.0733006244991,5.768756603717748,11.559377011549808,68,14,0.0,49359,48532369255251,12,32.4,-136.9747314453125,0.23510000109672546,25,-15259.59899279989,0.0017821758057520194,1.59806246E9,,,,0,,3,-2.9,1.59806246E9,301.0,NaN,NaN
Raw,231790922758911,648595155000000,,,-1265581155278329292,-0.11854934692382812,40.0733006244991,5.768756603717748,11.559377011549808,68,22,0.0,49359,48532355229827,11,33.5,-284.6161804199219,0.24369999766349792,25,-31009.5850015562,0.0016298032452919452,1.60031245E9,,,,0,,3,-2.9,1.60031245E9,301.0,NaN,NaN
Raw,231790922758911,648595155000000,,,-1265581155278329292,-0.11854934692382812,40.0733006244991,5.768756603717748,11.559377011549808,68,13,0.0,49359,48532363930582,14,30.1,589.3076171875,0.227400004863739,25,59976.02441368575,0.0023595752053329456,1.60087501E9,,,,0,,3,-2.9,1.60087501E9,301.0,NaN,NaN
Raw,231790922758911,648595155000000,,,-1265581155278329292,-0.11854934692382812,40.0733006244991,5.768756603717748,11.559377011549808,68,15,0.0,49359,48532359588798,11,33.8,-711.6817626953125,0.24970000982284546,25,-75866.93273161021,0.0016280864052631069,1.602E9,,,,0,,3,-2.9,1.602E9,301.0,NaN,NaN
Raw,231790922758911,648595155000000,,,-1265581155278329292,-0.11854934692382812,40.0733006244991,5.768756603717748,11.559377011549808,68,5,0.0,49359,48532362732990,5,40.4,-628.615966796875,0.2215999960899353,25,-67134.5437281747,7.295756082573676E-4,1.60256256E9,,,,0,,3,-2.9,1.60256256E9,301.0,NaN,NaN
Raw,231790922758911,648595155000000,,,-1265581155278329292,-0.11854934692382812,40.0733006244991,5.768756603717748,11.559377011549808,68,3,0.0,49359,48532361013956,70,17.9,721.0057373046875,1.277999997138977,16,0.0,0.0,1.60481254E9,,,,0,,3,-2.9,1.60481254E9,301.0,NaN,NaN
Raw,231790922758911,648595155000000,,,-1265581155278329292,-0.11854934692382812,40.0733006244991,5.768756603717748,11.559377011549808,68,4,0.0,49359,48532369277576,11,33.1,86.6412582397461,0.234700009226799,25,8394.774165786108,0.0016246636830792964,1.60537498E9,,,,0,,3,-2.9,1.60537498E9,301.0,NaN,NaN
Raw,231790922758911,648595155000000,,,-1265581155278329292,-0.11854934692382812,40.0733006244991,5.768756603717748,11.559377011549808,68,22,0.0,16399,383336352311086,17,28.8,-459.50128173828125,0.04320000112056732,25,-49232.267823885486,0.003034223768286223,1.56109798E9,,,,0,,5,1.05,1.56109798E9,301.0,NaN,NaN
Raw,231790922758911,648595155000000,,,-1265581155278329292,-0.11854934692382812,40.0733006244991,5.768756603717748,11.559377011549808,68,20,0.0,16399,383336351993542,17,28.0,606.2447509765625,0.04170000180602074,25,64336.26053765506,0.003034223768286223,1.56109798E9,,,,0,,5,1.05,1.56109798E9,301.0,NaN,NaN
Raw,231790922758911,648595155000000,,,-1265581155278329292,-0.11854934692382812,40.0733006244991,5.768756603717748,11.559377011549808,68,10,0.0,16399,383336301374039,8,36.9,159.98159790039062,0.02110000140964985,25,16990.519321022508,0.0011714408558922843,1.56109798E9,,,,0,,5,1.05,1.56109798E9,301.0,NaN,NaN
Raw,231790922758911,648595155000000,,,-1265581155278329292,-0.11854934692382812,40.0733006244991,5.768756603717748,11.559377011549808,68,1,0.0,23567,383350349872111,10,34.5,344.35247802734375,0.04610000178217888,25,6719.25933610494,0.003311109885939926,1.57542003E9,,,,0,,6,0.76,1.57542003E9,301.0,NaN,NaN
Raw,231790922758911,648595155000000,,,-1265581155278329292,-0.11854934692382812,40.0733006244991,5.768756603717748,11.559377011549808,68,4,0.0,23567,383350348193882,24,25.9,470.1024475097656,0.05730000138282776,25,25106.112895877566,0.017526047264890512,1.57542003E9,,,,0,,6,0.76,1.57542003E9,301.0,NaN,NaN
Raw,231790922758911,648595155000000,,,-1265581155278329292,-0.11854934692382812,40.0733006244991,5.768756603717748,11.559377011549808,68,5,0.0,23567,383350347075599,40,21.5,-450.9103698730469,0.8299999833106995,16,0.0,0.0,1.57542003E9,,,,0,,6,0.76,1.57542003E9,301.0,NaN,NaN
Raw,231790922758911,648595155000000,,,-1265581155278329292,-0.11854934692382812,40.0733006244991,5.768756603717748,11.559377011549808,68,9,0.0,23567,383350361688751,31,23.6,3.6346092224121094,0.6919999718666077,16,0.0,0.0,1.57542003E9,,,,0,,6,0.76,1.57542003E9,301.0,NaN,NaN
Raw,231790922758911,648595155000000,,,-1265581155278329292,-0.11854934692382812,40.0733006244991,5.768756603717748,11.559377011549808,68,24,0.0,23567,383350350059596,16,29.4,-577.2133178710938,0.05090000107884407,25,-10708.786586714234,0.006146485344343376,1.57542003E9,,,,0,,6,0.76,1.57542003E9,301.0,NaN,NaN
Raw,231790922758911,648595155000000,,,-1265581155278329292,-0.11854934692382812,40.0733006244991,5.768756603717748,11.559377011549808,68,31,0.0,23567,383350354104187,14,30.3,-206.30484008789062,0.04990000277757645,25,-4871.586029357159,0.005233075867304602,1.57542003E9,,,,0,,6,0.76,1.57542003E9,301.0,NaN,NaN
Raw,231790922758911,648595155000000,,,-1265581155278329292,-0.11854934692382812,40.0733006244991,5.768756603717748,11.559377011549808,68,24,0.0,81935,383350356227451,12,18.8,-620.0348510742188,1.0205000638961792,16,0.0,0.0,1.17645005E9,,,,0,,1,-1.26,1.17645005E9,301.0,NaN,NaN
Raw,231790922758911,648595155000000,,,-1265581155278329292,-0.11854934692382812,40.0733006244991,5.768756603717748,11.559377011549808,68,30,0.0,81935,383350356824628,4,30.5,566.819580078125,0.05320000275969505,25,56783.15068666747,0.0032108332879374254,1.17645005E9,,,,0,,1,-1.26,1.17645005E9,301.0,NaN,NaN
Raw,231790922758911,648595155000000,,,-1265581155278329292,-0.11854934692382812,40.0733006244991,5.768756603717748,11.559377011549808,68,1,0.0,81935,383350349879200,5,28.6,344.1728515625,0.04660000279545784,29,34318.949854007464,0.0040262828122019055,1.17645005E9,,,,0,,6,-1.26,1.17645005E9,301.0,NaN,NaN
Raw,231790922758911,648595155000000,,,-1265581155278329292,-0.11854934692382812,40.0733006244991,5.768756603717748,11.559377011549808,68,4,0.0,81935,383350348200775,8,22.1,470.0646057128906,0.048700001090765,25,47000.76047012489,0.34557229348499413,1.17645005E9,,,,0,,6,-1.26,1.17645005E9,301.0,NaN,NaN
Raw,231790922758911,648595155000000,,,-1265581155278329292,-0.11854934692382812,40.0733006244991,5.768756603717748,11.559377011549808,68,9,0.0,81935,383350361695760,11,19.3,2.464325428009033,0.15139999985694885,25,-65.89051767135813,0.25482803839368795,1.17645005E9,,,,0,,6,-1.26,1.17645005E9,301.0,NaN,NaN
Raw,231790922758911,648595155000000,,,-1265581155278329292,-0.11854934692382812,40.0733006244991,5.768756603717748,11.559377011549808,68,24,0.0,81935,383350350066624,5,28.5,-577.368408203125,0.048100002110004425,25,-57506.6866260324,0.0040262828122019055,1.17645005E9,,,,0,,6,-1.26,1.17645005E9,301.0,NaN,NaN
Raw,231790922758911,648595155000000,,,-1265581155278329292,-0.11854934692382812,40.0733006244991,5.768756603717748,11.559377011549808,68,31,0.0,81935,383350354111268,3,32.5,-206.47171020507812,0.047600001096725464,25,-21057.20866190679,0.0024208662868967453,1.17645005E9,,,,0,,6,-1.26,1.17645005E9,301.0,NaN,NaN
Fix,gps,51.524535,-0.134276,76.930603,0.000000,3.790092,1582194534000,231791900394269
Raw,231791923632500,648596155000000,,,-1265581155278329285,-0.8898639678955078,38.5483363061212,5.230612133135467,11.218755930603484,68,5,0.0,16399,383351354169797,40,21.5,709.9666748046875,0.8675000071525574,16,0.0,0.0,1.57542003E9,,,,0,,1,0.97,1.57542003E9,301.0,NaN,NaN
Raw,231791923632500,648596155000000,,,-1265581155278329285,-0.8898639678955078,38.5483363061212,5.230612133135467,11.218755930603484,68,13,0.0,16399,383351365841933,8,36.4,150.05276489257812,0.02710000053048134,25,15742.956453150016,0.001160791358090767,1.57542003E9,,,,0,,1,0.97,1.57542003E9,301.0,NaN,NaN
Raw,231791923632500,648596155000000,,,-1265581155278329285,-0.8898639678955078,38.5483363061212,5.230612133135467,11.218755930603484,68,15,0.0,16399,383351365248192,21,26.8,-193.09051513671875,0.03420000150799751,21,-665.3475796820719,0.005442398901996786,1.57542003E9,,,,0,,1,0.97,1.57542003E9,301.0,NaN,NaN
Raw,231791923632500,648596155000000,,,-1265581155278329285,-0.8898639678955078,38.5483363061212,5.230612133135467,11.218755930603484,68,17,0.0,16399,383351349458677,70,17.2,-558.7593383789062,1.9300000667572021,16,0.0,0.0,1.57542003E9,,,,0,,1,0.97,1.57542003E9,301.0,NaN,NaN
Raw,231791923632500,648596155000000,,,-1265581155278329285,-0.8898639678955078,38.5483363061212,5.230612133135467,11.218755930603484,68,20,0.0,16399,383351355693577,21,26.9,-437.25714111328125,0.04920000210404396,17,-47174.53298923511,0.005442398901996786,1.57542003E9,,,,0,,1,0.97,1.57542003E9,301.0,NaN,NaN
Raw,231791923632500,648596155000000,,,-1265581155278329285,-0.8898639678955078,38.5483363061212,5.230612133135467,11.218755930603484,68,24,0.0,16399,383351356221562,21,26.0,-620.0035400390625,0.050700001418590546,21,-62978.557588640375,0.005442398901996786,1.57542003E9,,,,0,,1,0.97,1.57542003E9,301.0,NaN,NaN
Raw,231791923632500,648596155000000,,,-1265581155278329285,-0.8898639678955078,38.5483363061212,5.230612133135467,11.218755930603484,68,28,0.0,16399,383351362129750,11,33.5,101.55107879638672,0.02420000173151493,25,10347.520603427454,0.001655554942969963,1.57542003E9,,,,0,,1,0.97,1.57542003E9,301.0,NaN,NaN
Raw,231791923632500,648596155000000,,,-1265581155278329285,-0.8898639678955078,38.5483363061212,5.230612133135467,11.218755930603484,68,30,0.0,16399,383351356814903,6,38.3,566.6925048828125,0.04310000315308571,25,61075.239961094354,9.324389888310735E-4,1.57542003E9,,,,0,,1,0.97,1.57542003E9,301.0,NaN,NaN
Raw,231791923632500,648596155000000,,,-1265581155278329285,-0.8898639678955078,38.5483363061212,5.230612133135467,11.218755930603484,68,14,0.0,49359,48533369255723,16,29.8,-136.9696044921875,0.23739999532699585,25,-15396.587169066182,0.0027764423980239216,1.59806246E9,,,,0,,3,-2.89,1.59806246E9,301.0,NaN,NaN
Raw,231791923632500,648596155000000,,,-1265581155278329285,-0.8898639678955078,38.5483363061212,5.230612133135467,11.218755930603484,68,22,0.0,49359,48533355230792,11,33.7,-284.62548828125,0.24369999766349792,25,-31294.2186553938,0.0016298032452919452,1.60031245E9,,,,0,,3,-2.89,1.60031245E9,301.0,NaN,NaN
Raw,231791923632500,648596155000000,,,-1265581155278329285,-0.8898639678955078,38.5483363061212,5.230612133135467,11.218755930603484,68,13,0.0,49359,48533363928631,17,28.4,589.2069091796875,0.2296999990940094,25,60565.26164937049,0.002958832253614959,1.60087501E9,,,,0,,3,-2.89,1.60087501E9,301.0,NaN,NaN
Raw,231791923632500,648596155000000,,,-1265581155278329285,-0.8898639678955078,38.5483363061212,5.230612133135467,11.218755930603484,68,15,0.0,49359,48533359591092,10,34.2,-711.8001708984375,0.249099999666214,25,-76578.68707986132,0.0014970909974500758,1.602E9,,,,0,,3,-2.89,1.602E9,301.0,NaN,NaN
Raw,231791923632500,648596155000000,,,-1265581155278329285,-0.8898639678955078,38.5483363061212,5.230612133135467,11.218755930603484,68,5,0.0,49359,48533362735098,6,39.6,-628.6861572265625,0.22179999947547913,25,-67763.21287310275,8.23110960518378E-4,1.60256256E9,,,,0,,3,-2.89,1.60256256E9,301.0,NaN,NaN
Raw,231791923632500,648596155000000,,,-1265581155278329285,-0.8898639678955078,38.5483363061212,5.230612133135467,11.218755930603484,68,3,0.0,49359,48533361012017,31,23.5,720.510498046875,0.2976999878883362,19,76871.80881834736,0.1868083964827234,1.60481254E9,,,,0,,3,-2.89,1.60481254E9,301.0,NaN,NaN
Raw,231791923632500,648596155000000,,,-1265581155278329285,-0.8898639678955078,38.5483363061212,5.230612133135467,11.218755930603484,68,4,0.0,49359,48533369277264,12,32.8,86.61824035644531,0.23510000109672546,25,8481.393807532833,0.0017740579627804397,1.60537498E9,,,,0,,3,-2.89,1.60537498E9,301.0,NaN,NaN
Raw,231791923632500,648596155000000,,,-1265581155278329285,-0.8898639678955078,38.5483363061212,5.230612133135467,11.218755930603484,68,22,0.0,16399,383337352312621,19,27.0,-459.59100341796875,0.043800000101327896,25,-49691.82317245024,0.0032646714781548623,1.56109798E9,,,,0,,5,1.03,1.56109798E9,301.0,NaN,NaN
Raw,231791923632500,648596155000000,,,-1265581155278329285,-0.8898639678955078,38.5483363061212,5.230612133135467,11.218755930603484,68,20,0.0,16399,383337351991463,19,27.7,606.13330078125,0.04230000078678131,25,64942.44754406188,0.0032646714781548623,1.56109798E9,,,,0,,5,1.03,1.56109798E9,301.0,NaN,NaN
Raw,231791923632500,648596155000000,,,-1265581155278329285,-0.8898639678955078,38.5483363061212,5.230612133135467,11.218755930603484,68,10,0.0,16399,383337301373509,7,37.0,159.8319091796875,0.020899999886751175,25,17150.42034458389,0.0010178092579723537,1.56109798E9,,,,0,,5,1.03,1.56109798E9,301.0,NaN,NaN
Raw,231791923632500,648596155000000,,,-1265581155278329285,-0.8898639678955078,38.5483363061212,5.230612133135467,11.218755930603484,68,1,0.0,23567,383351349870959,11,33.6,344.26202392578125,0.04670000076293945,25,7063.520369535565,0.003596550258902148,1.57542003E9,,,,0,,6,0.73,1.57542003E9,301.0,NaN,NaN
Raw,231791923632500,648596155000000,,,-1265581155278329285,-0.8898639678955078,38.5483363061212,5.230612133135467,11.218755930603484,68,4,0.0,23567,383351348192336,24,25.7,470.0538024902344,0.05730000138282776,25,25576.14302985725,0.017526047264890512,1.57542003E9,,,,0,,6,0.73,1.57542003E9,301.0,NaN,NaN
Raw,231791923632500,648596155000000,,,-1265581155278329285,-0.8898639678955078,38.5483363061212,5.230612133135467,11.218755930603484,68,5,0.0,23567,383351347077154,31,23.3,-450.94842529296875,0.6949999928474426,16,0.0,0.0,1.57542003E9,,,,0,,6,0.73,1.57542003E9,301.0,NaN,NaN
Raw,231791923632500,648596155000000,,,-1265581155278329285,-0.8898639678955078,38.5483363061212,5.230612133135467,11.218755930603484,68,9,0.0,23567,383351361688739,31,23.2,2.778287649154663,0.6919999718666077,16,0.0,0.0,1.57542003E9,,,,0,,6,0.73,1.57542003E9,301.0,NaN,NaN
Raw,231791923632500,648596155000000,,,-1265581155278329285,-0.8898639678955078,38.5483363061212,5.230612133135467,11.218755930603484,68,24,0.0,23567,383351350061495,16,29.8,-577.3706665039062,0.05090000107884407,25,-11286.104126211336,0.006146485344343376,1.57542003E9,,,,0,,6,0.73,1.57542003E9,301.0,NaN,NaN
Raw,231791923632500,648596155000000,,,-1265581155278329285,-0.8898639678955078,38.5483363061212,5.230612133135467,11.218755930603484,68,31,0.0,23567,383351354104899,16,29.8,-206.42718505859375,0.05090000107884407,25,-5078.00571017227,0.006146485344343376,1.57542003E9,,,,0,,6,0.73,1.57542003E9,301.0,NaN,NaN
Raw,231791923632500,648596155000000,,,-1265581155278329285,-0.8898639678955078,38.5483363061212,5.230612133135467,11.218755930603484,68,24,0.0,81935,383351356229498,12,18.5,-620.5571899414062,1.0205000638961792,16,0.0,0.0,1.17645005E9,,,,0,,1,-2.92,1.17645005E9,301.0,NaN,NaN
Raw,231791923632500,648596155000000,,,-1265581155278329285,-0.8898639678955078,38.5483363061212,5.230612133135467,11.218755930603484,68,30,0.0,81935,383351356822738,3,31.0,566.70263671875,0.05180000141263008,25,57349.89632429701,0.0027776256465907277,1.17645005E9,,,,0,,1,-2.92,1.17645005E9,301.0,NaN,NaN
Raw,231791923632500,648596155000000,,,-1265581155278329285,-0.8898639678955078,38.5483363061212,5.230612133135467,11.218755930603484,68,1,0.0,81935,383351349878055,4,29.6,344.1361083984375,0.04450000077486038,25,34663.21824290964,0.0037714549693657518,1.17645005E9,,,,0,,6,-2.92,1.17645005E9,301.0,NaN,NaN
Raw,231791923632500,648596155000000,,,-1265581155278329285,-0.8898639678955078,38.5483363061212,5.230612133135467,11.218755930603484,68,4,0.0,81935,383351348199346,12,18.2,469.9118347167969,0.048700001090765,25,47470.763965997794,0.34557229348499413,1.17645005E9,,,,0,,6,-2.92,1.17645005E9,301.0,NaN,NaN
Raw,231791923632500,648596155000000,,,-1265581155278329285,-0.8898639678955078,38.5483363061212,5.230612133135467,11.218755930603484,68,5,0.0,81935,383351347084258,14,17.1,-449.695068359375,1.8369998931884766,16,0.0,0.0,1.17645005E9,,,,0,,6,-2.92,1.17645005E9,301.0,NaN,NaN
Raw,231791923632500,648596155000000,,,-1265581155278329285,-0.8898639678955078,38.5483363061212,5.230612133135467,11.218755930603484,68,9,0.0,81935,383351361695755,12,18.3,2.8285913467407227,0.9980000257492065,16,0.0,0.0,1.17645005E9,,,,0,,6,-2.92,1.17645005E9,301.0,NaN,NaN
Raw,231791923632500,648596155000000,,,-1265581155278329285,-0.8898639678955078,38.5483363061212,5.230612133135467,11.218755930603484,68,24,0.0,81935,383351350068549,5,28.8,-577.4115600585938,0.048100002110004425,25,-58084.0051020822,0.0040262828122019055,1.17645005E9,,,,0,,6,-2.92,1.17645005E9,301.0,NaN,NaN
Raw,231791923632500,648596155000000,,,-1265581155278329285,-0.8898639678955078,38.5483363061212,5.230612133135467,11.218755930603484,68,31,0.0,81935,383351354111957,3,32.7,-206.48504638671875,0.047600001096725464,25,-21263.611709976976,0.0024208662868967453,1.17645005E9,,,,0,,6,-2.92,1.17645005E9,301.0,NaN,NaN
Fix,gps,51.524535,-0.134276,76.939636,0.000000,3.790092,1582194535000,231792906904942
Raw,231792930941663,648597155000000,,,-1265581155278329278,-0.8267135620117188,40.82400118932128,4.449284137262525,10.368509075988134,68,5,0.0,16399,383352354167368,35,22.6,708.8425903320312,0.4027999937534332,19,75687.55948217536,0.19029366893311156,1.57542003E9,,,,0,,1,0.97,1.57542003E9,301.0,NaN,NaN
Raw,231792930941663,648597155000000,,,-1265581155278329278,-0.8267135620117188,40.82400118932128,4.449284137262525,10.368509075988134,68,13,0.0,16399,383352365841445,8,36.6,149.44642639160156,0.02710000053048134,25,15892.655208691558,0.001160791358090767,1.57542003E9,,,,0,,1,0.97,1.57542003E9,301.0,NaN,NaN
Raw,231792930941663,648597155000000,,,-1265581155278329278,-0.8267135620117188,40.82400118932128,4.449284137262525,10.368509075988134,68,15,0.0,16399,383352365248846,27,24.9,-193.6670684814453,0.04880000278353691,29,-858.7797689947563,0.19029366893311156,1.57542003E9,,,,0,,1,0.97,1.57542003E9,301.0,NaN,NaN
Raw,231792930941663,648597155000000,,,-1265581155278329278,-0.8267135620117188,40.82400118932128,4.449284137262525,10.368509075988134,68,17,0.0,16399,383352349461012,70,17.9,-559.139892578125,1.0899999141693115,16,0.0,0.0,1.57542003E9,,,,0,,1,0.97,1.57542003E9,301.0,NaN,NaN
Raw,231792930941663,648597155000000,,,-1265581155278329278,-0.8267135620117188,40.82400118932128,4.449284137262525,10.368509075988134,68,20,0.0,16399,383352355695024,19,27.5,-437.8580322265625,0.04830000177025795,29,-47612.10954915319,0.003234992547669888,1.57542003E9,,,,0,,1,0.97,1.57542003E9,301.0,NaN,NaN
Raw,231792930941663,648597155000000,,,-1265581155278329278,-0.8267135620117188,40.82400118932128,4.449284137262525,10.368509075988134,68,24,0.0,16399,383352356223596,40,21.8,-620.4335327148438,0.8104999661445618,16,0.0,0.0,1.57542003E9,,,,0,,1,0.97,1.57542003E9,301.0,NaN,NaN
Raw,231792930941663,648597155000000,,,-1265581155278329278,-0.8267135620117188,40.82400118932128,4.449284137262525,10.368509075988134,68,28,0.0,16399,383352362129410,11,33.3,100.97297668457031,0.02420000173151493,25,10448.730494814425,0.001655554942969963,1.57542003E9,,,,0,,1,0.97,1.57542003E9,301.0,NaN,NaN
Raw,231792930941663,648597155000000,,,-1265581155278329278,-0.8267135620117188,40.82400118932128,4.449284137262525,10.368509075988134,68,30,0.0,16399,383352356813012,7,37.8,566.0325927734375,0.04340000078082085,25,61641.567818706164,0.0010085564157135064,1.57542003E9,,,,0,,1,0.97,1.57542003E9,301.0,NaN,NaN
Raw,231792930941663,648597155000000,,,-1265581155278329278,-0.8267135620117188,40.82400118932128,4.449284137262525,10.368509075988134,68,14,0.0,49359,48534369256191,14,30.2,-137.54879760742188,0.23640000820159912,25,-15533.877507977753,0.0023637279898678486,1.59806246E9,,,,0,,3,-2.88,1.59806246E9,301.0,NaN,NaN
Raw,231792930941663,648597155000000,,,-1265581155278329278,-0.8267135620117188,40.82400118932128,4.449284137262525,10.368509075988134,68,22,0.0,49359,48534355231747,11,33.4,-285.16558837890625,0.24369999766349792,25,-31579.149587393444,0.0016298032452919452,1.60031245E9,,,,0,,3,-2.88,1.60031245E9,301.0,NaN,NaN
Raw,231792930941663,648597155000000,,,-1265581155278329278,-0.8267135620117188,40.82400118932128,4.449284137262525,10.368509075988134,68,13,0.0,49359,48534363926694,17,28.4,588.5896606445312,0.2296999990940094,25,61154.11446836484,0.002958832253614959,1.60087501E9,,,,0,,3,-2.88,1.60087501E9,301.0,NaN,NaN
Raw,231792930941663,648597155000000,,,-1265581155278329278,-0.8267135620117188,40.82400118932128,4.449284137262525,10.368509075988134,68,15,0.0,49359,48534359593491,9,35.5,-712.4357299804688,0.24860000610351562,25,-77290.8416952667,0.001309954600983276,1.602E9,,,,0,,3,-2.88,1.602E9,301.0,NaN,NaN
