# 
# Header Description:
# 
# Version: v2.0.0.1 Platform: 10 Manufacturer: Google Model: Pixel 4
# 
# Raw,ElapsedRealtimeNanos,TimeNanos,LeapSecond,TimeUncertaintyNanos,FullBiasNanos,BiasNanos,BiasUncertaintyNanos,DriftNanosPerSecond,DriftUncertaintyNanosPerSecond,HardwareClockDiscontinuityCount,Svid,TimeOffsetNanos,State,ReceivedSvTimeNanos,ReceivedSvTimeUncertaintyNanos,Cn0DbHz,PseudorangeRateMetersPerSecond,PseudorangeRateUncertaintyMetersPerSecond,AccumulatedDeltaRangeState,AccumulatedDeltaRangeMeters,AccumulatedDeltaRangeUncertaintyMeters,CarrierFrequencyHz,CarrierCycles,CarrierPhase,CarrierPhaseUncertainty,MultipathIndicator,SnrInDb,ConstellationType,AgcDb,CarrierFrequencyHz,UserLatitude,UserLongitude,UserAltitude
# 
# Fix,Provider,Latitude,Longitude,Altitude,Speed,Accuracy,(UTC)TimeInMs,ElapsedRealtimeNanos
# 
# Nav,Svid,Type,Status,MessageId,Sub-messageId,Data(Bytes)
# 
Raw,232962921342331,649767208000000,,,-1265581155240431091,-0.6662216186523438,76.15106733283028,-9.838095510388946,10.612890291115697,148,5,0.0,16399,384522366455952,61,18.1,725.5612182617188,1.0855000019073486,16,0.0,0.0,1.57542003E9,,,,0,,1,0.97,1.57542003E9,363.0,NaN,NaN
Raw,232962921342331,649767208000000,,,-1265581155240431091,-0.6662216186523438,76.15106733283028,-9.838095510388946,10.612890291115697,148,13,0.0,16399,384522380148100,7,37.8,255.5862579345703,0.01940000057220459,25,1403.854237554489,0.0010085564157135064,1.57542003E9,,,,0,,1,0.97,1.57542003E9,363.0,NaN,NaN
Raw,232962921342331,649767208000000,,,-1265581155240431091,-0.6662216186523438,76.15106733283028,-9.838095510388946,10.612890291115697,148,15,0.0,16399,384522380869265,6,39.4,-72.52880859375,0.018800001591444016,25,-401.2328574653414,8.372921387687362E-4,1.57542003E9,,,,0,,1,0.97,1.57542003E9,363.0,NaN,NaN
Raw,232962921342331,649767208000000,,,-1265581155240431091,-0.6662216186523438,76.15106733283028,-9.838095510388946,10.612890291115697,148,17,0.0,16399,384522366688768,11,33.8,-527.438720703125,0.03020000085234642,25,-2800.2785499264705,0.001655554942969963,1.57542003E9,,,,0,,1,0.97,1.57542003E9,363.0,NaN,NaN
Raw,232962921342331,649767208000000,,,-1265581155240431091,-0.6662216186523438,76.15106733283028,-9.838095510388946,10.612890291115697,148,20,0.0,16399,384522372270094,24,25.1,-316.013671875,0.05130000039935112,29,-1339.3652195804445,0.19029366893311156,1.57542003E9,,,,0,,1,0.97,1.57542003E9,363.0,NaN,NaN
Raw,232962921342331,649767208000000,,,-1265581155240431091,-0.6662216186523438,76.15106733283028,-9.838095510388946,10.612890291115697,148,24,0.0,16399,384522373649456,40,21.3,-571.080810546875,0.8659999966621399,16,0.0,0.0,1.57542003E9,,,,0,,1,0.97,1.57542003E9,363.0,NaN,NaN
Raw,232962921342331,649767208000000,,,-1265581155240431091,-0.6662216186523438,76.15106733283028,-9.838095510388946,10.612890291115697,148,28,0.0,16399,384522376582487,5,40.6,227.449951171875,0.04260000213980675,25,1252.8798552294545,7.42145288706399E-4,1.57542003E9,,,,0,,1,0.97,1.57542003E9,363.0,NaN,NaN
Raw,232962921342331,649767208000000,,,-1265581155240431091,-0.6662216186523438,76.15106733283028,-9.838095510388946,10.612890291115697,148,30,0.0,16399,384522369636313,31,23.5,597.3444213867188,0.12470000237226486,29,3170.800833274911,0.19029366893311156,1.57542003E9,,,,0,,1,0.97,1.57542003E9,363.0,NaN,NaN
Raw,232962921342331,649767208000000,,,-1265581155240431091,-0.6662216186523438,76.15106733283028,-9.838095510388946,10.612890291115697,148,14,0.0,49359,49704384583742,5,41.3,18.585580825805664,0.22429999709129333,25,91.93917858980662,6.753508417684034E-4,1.59806246E9,,,,0,,3,-0.88,1.59806246E9,363.0,NaN,NaN
Raw,232962921342331,649767208000000,,,-1265581155240431091,-0.6662216186523438,76.15106733283028,-9.838095510388946,10.612890291115697,148,22,0.0,49359,49704371094720,21,26.6,-104.21373748779297,0.7429999709129333,16,0.0,0.0,1.60031245E9,,,,0,,3,-0.88,1.60031245E9,363.0,NaN,NaN
Raw,232962921342331,649767208000000,,,-1265581155240431091,-0.6662216186523438,76.15106733283028,-9.838095510388946,10.612890291115697,148,13,0.0,49359,49704376578397,46,20.1,660.7278442382812,1.0494999885559082,16,0.0,0.0,1.60087501E9,,,,0,,3,-0.88,1.60087501E9,363.0,NaN,NaN
Raw,232962921342331,649767208000000,,,-1265581155240431091,-0.6662216186523438,76.15106733283028,-9.838095510388946,10.612890291115697,148,15,0.0,49359,49704377321976,21,26.8,-632.6337890625,0.25220000743865967,25,-2251.37150988782,0.005352100032671997,1.602E9,,,,0,,3,-0.88,1.602E9,363.0,NaN,NaN
Raw,232962921342331,649767208000000,,,-1265581155240431091,-0.6662216186523438,76.15106733283028,-9.838095510388946,10.612890291115697,148,5,0.0,49359,49704380090081,6,39.7,-520.5543212890625,0.21880000829696655,25,-2657.49236207353,8.23110960518378E-4,1.60256256E9,,,,0,,3,-0.88,1.60256256E9,363.0,NaN,NaN
Raw,232962921342331,649767208000000,,,-1265581155240431091,-0.6662216186523438,76.15106733283028,-9.838095510388946,10.612890291115697,148,3,0.0,49359,49704373150094,46,20.7,790.6386108398438,1.065999984741211,16,0.0,0.0,1.60481254E9,,,,0,,3,-0.88,1.60481254E9,363.0,NaN,NaN
Raw,232962921342331,649767208000000,,,-1265581155240431091,-0.6662216186523438,76.15106733283028,-9.838095510388946,10.612890291115697,148,4,0.0,49359,49704383695139,9,35.6,261.78460693359375,0.22460000216960907,25,1333.0039758711875,0.0013072006865361828,1.60537498E9,,,,0,,3,-0.88,1.60537498E9,363.0,NaN,NaN
Raw,232962921342331,649767208000000,,,-1265581155240431091,-0.6662216186523438,76.15106733283028,-9.838095510388946,10.612890291115697,148,37,0.0,16399,384508368232173,6,38.1,491.204345703125,0.03110000118613243,25,2675.099839777894,9.409935037250662E-4,1.56109798E9,,,,0,,5,1.15,1.56109798E9,363.0,NaN,NaN
Raw,232962921342331,649767208000000,,,-1265581155240431091,-0.6662216186523438,76.15106733283028,-9.838095510388946,10.612890291115697,148,22,0.0,16399,384508369048265,13,31.4,-375.2761535644531,0.035600002855062485,17,-1401.205648786453,0.0020932304434118673,1.56109798E9,,,,0,,5,1.15,1.56109798E9,363.0,NaN,NaN
Raw,232962921342331,649767208000000,,,-1265581155240431091,-0.6662216186523438,76.15106733283028,-9.838095510388946,10.612890291115697,148,20,0.0,16399,384508364636785,40,21.8,647.8356323242188,0.8075000047683716,16,0.0,0.0,1.56109798E9,,,,0,,5,1.15,1.56109798E9,363.0,NaN,NaN
Raw,232962921342331,649767208000000,,,-1265581155240431091,-0.6662216186523438,76.15106733283028,-9.838095510388946,10.612890291115697,148,10,0.0,16399,384508315825077,16,29.6,171.07049560546875,0.046400003135204315,17,637.7367953588413,0.0028421844273806814,1.56109798E9,,,,0,,5,1.15,1.56109798E9,363.0,NaN,NaN
Raw,232962921342331,649767208000000,,,-1265581155240431091,-0.6662216186523438,76.15106733283028,-9.838095510388946,10.612890291115697,148,1,0.0,23567,384522363501812,7,37.4,405.0433349609375,0.04190000146627426,25,2192.7317099390084,0.0021883771969841777,1.57542003E9,,,,0,,6,0.89,1.57542003E9,363.0,NaN,NaN
Raw,232962921342331,649767208000000,,,-1265581155240431091,-0.6662216186523438,76.15106733283028,-9.838095510388946,10.612890291115697,148,4,0.0,23567,384522361369485,19,27.9,512.6904907226562,0.05130000039935112,25,2776.7633751192297,0.007212130206821385,1.57542003E9,,,,0,,6,0.89,1.57542003E9,363.0,NaN,NaN
Raw,232962921342331,649767208000000,,,-1265581155240431091,-0.6662216186523438,76.15106733283028,-9.838095510388946,10.612890291115697,148,5,0.0,23567,384522363860893,35,22.9,-409.47393798828125,0.7489999532699585,16,0.0,0.0,1.57542003E9,,,,0,,6,0.89,1.57542003E9,363.0,NaN,NaN
Raw,232962921342331,649767208000000,,,-1265581155240431091,-0.6662216186523438,76.15106733283028,-9.838095510388946,10.612890291115697,148,9,0.0,23567,384522376618206,11,33.7,84.99211883544922,0.04520000144839287,25,458.9507670394444,0.003596550258902148,1.57542003E9,,,,0,,6,0.89,1.57542003E9,363.0,NaN,NaN
Raw,232962921342331,649767208000000,,,-1265581155240431091,-0.6662216186523438,76.15106733283028,-9.838095510388946,10.612890291115697,148,24,0.0,23567,384522367350617,35,22.2,-542.2322998046875,0.7249999642372131,16,0.0,0.0,1.57542003E9,,,,0,,6,0.89,1.57542003E9,363.0,NaN,NaN
Raw,232962921342331,649767208000000,,,-1265581155240431091,-0.6662216186523438,76.15106733283028,-9.838095510388946,10.612890291115697,148,31,0.0,23567,384522369834385,8,36.2,-116.41475677490234,0.045100003480911255,25,-631.9528367799124,0.0025499350854412276,1.57542003E9,,,,0,,6,0.89,1.57542003E9,363.0,NaN,NaN
Fix,gps,51.524592,-0.134292,75.394775,0.000000,5.703944,1582195705000,232962906174569
Fix,gps,51.524611,-0.134288,77.031860,0.000000,5.084369,1582195706000,232963907240398
Raw,232963930388994,649768208000000,,,-1265581155240431093,-0.2159423828125,67.25005368934944,-9.276570639066207,9.561270897587756,148,5,0.0,16399,384523366453605,53,19.6,725.8656616210938,1.005500078201294,16,0.0,0.0,1.57542003E9,,,,0,,1,0.86,1.57542003E9,363.0,NaN,NaN
Raw,232963930388994,649768208000000,,,-1265581155240431093,-0.2159423828125,67.25005368934944,-9.276570639066207,9.561270897587756,148,13,0.0,16399,384523380147239,9,35.6,256.2647705078125,0.020100001245737076,25,1659.9446686851443,0.0013320557236479321,1.57542003E9,,,,0,,1,0.86,1.57542003E9,363.0,NaN,NaN
Raw,232963930388994,649768208000000,,,-1265581155240431093,-0.2159423828125,67.25005368934944,-9.276570639066207,9.561270897587756,148,15,0.0,16399,384523380869510,5,40.6,-71.80708312988281,0.01860000006854534,25,-473.23142200282217,7.42145288706399E-4,1.57542003E9,,,,0,,1,0.86,1.57542003E9,363.0,NaN,NaN
Raw,232963930388994,649768208000000,,,-1265581155240431093,-0.2159423828125,67.25005368934944,-9.276570639066207,9.561270897587756,148,17,0.0,16399,384523366690473,9,35.7,-526.7732543945312,0.029100000858306885,25,-3327.204463983518,0.0013320557236479321,1.57542003E9,,,,0,,1,0.86,1.57542003E9,363.0,NaN,NaN
Raw,232963930388994,649768208000000,,,-1265581155240431093,-0.2159423828125,67.25005368934944,-9.276570639066207,9.561270897587756,148,24,0.0,16399,384523373651605,35,22.9,-569.4331665039062,0.40130001306533813,19,-1320.0580127643661,0.19029366893311156,1.57542003E9,,,,0,,1,0.86,1.57542003E9,363.0,NaN,NaN
Raw,232963930388994,649768208000000,,,-1265581155240431093,-0.2159423828125,67.25005368934944,-9.276570639066207,9.561270897587756,148,28,0.0,16399,384523376581757,6,38.7,228.18557739257812,0.04310000315308571,25,1480.8752939843123,9.324389888310735E-4,1.57542003E9,,,,0,,1,0.86,1.57542003E9,363.0,NaN,NaN
Raw,232963930388994,649768208000000,,,-1265581155240431093,-0.2159423828125,67.25005368934944,-9.276570639066207,9.561270897587756,148,30,0.0,16399,384523369634314,35,22.0,598.8161010742188,0.7999999523162842,16,0.0,0.0,1.57542003E9,,,,0,,1,0.86,1.57542003E9,363.0,NaN,NaN
Raw,232963930388994,649768208000000,,,-1265581155240431093,-0.2159423828125,67.25005368934944,-9.276570639066207,9.561270897587756,148,14,0.0,49359,49705384583677,9,35.8,19.310789108276367,0.22609999775886536,25,111.08522785431606,0.0013131822554185268,1.59806246E9,,,,0,,3,-0.79,1.59806246E9,363.0,NaN,NaN
Raw,232963930388994,649768208000000,,,-1265581155240431093,-0.2159423828125,67.25005368934944,-9.276570639066207,9.561270897587756,148,22,0.0,49359,49705371095041,24,25.0,-103.35704803466797,0.24979999661445618,19,-635.1735066681232,0.18733370372433672,1.60031245E9,,,,0,,3,-0.79,1.60031245E9,363.0,NaN,NaN
Raw,232963930388994,649768208000000,,,-1265581155240431093,-0.2159423828125,67.25005368934944,-9.276570639066207,9.561270897587756,148,13,0.0,49359,49705376576317,53,19.7,660.9151000976562,1.1404999494552612,16,0.0,0.0,1.60087501E9,,,,0,,3,-0.79,1.60087501E9,363.0,NaN,NaN
Raw,232963930388994,649768208000000,,,-1265581155240431093,-0.2159423828125,67.25005368934944,-9.276570639066207,9.561270897587756,148,15,0.0,49359,49705377324200,21,26.4,-631.92333984375,0.25220000743865967,21,-2883.3329274426737,0.005352100032671997,1.602E9,,,,0,,3,-0.79,1.602E9,363.0,NaN,NaN
Raw,232963930388994,649768208000000,,,-1265581155240431093,-0.2159423828125,67.25005368934944,-9.276570639066207,9.561270897587756,148,5,0.0,49359,49705380091873,7,37.0,-519.841552734375,0.21940000355243683,25,-3177.5162120285713,9.91474542321254E-4,1.60256256E9,,,,0,,3,-0.79,1.60256256E9,363.0,NaN,NaN
Raw,232963930388994,649768208000000,,,-1265581155240431093,-0.2159423828125,67.25005368934944,-9.276570639066207,9.561270897587756,148,4,0.0,49359,49705383694244,8,36.7,262.52801513671875,0.2241000086069107,25,1595.327326733266,0.0011391319696942128,1.60537498E9,,,,0,,3,-0.79,1.60537498E9,363.0,NaN,NaN
Raw,232963930388994,649768208000000,,,-1265581155240431093,-0.2159423828125,67.25005368934944,-9.276570639066207,9.561270897587756,148,37,0.0,16399,384509368230530,7,37.8,491.8634033203125,0.03140000253915787,25,3166.811235214414,0.0010178092579723537,1.56109798E9,,,,0,,5,0.8,1.56109798E9,363.0,NaN,NaN
Raw,232963930388994,649768208000000,,,-1265581155240431093,-0.2159423828125,67.25005368934944,-9.276570639066207,9.561270897587756,148,22,0.0,16399,384509369049507,11,33.4,-374.5557556152344,0.034700002521276474,17,-1775.9263719167968,0.0016707435714883973,1.56109798E9,,,,0,,5,0.8,1.56109798E9,363.0,NaN,NaN
Raw,232963930388994,649768208000000,,,-1265581155240431093,-0.2159423828125,67.25005368934944,-9.276570639066207,9.561270897587756,148,10,0.0,16399,384509315824504,16,29.7,171.71934509277344,0.046400003135204315,17,809.3233992481526,0.0028421844273806814,1.56109798E9,,,,0,,5,0.8,1.56109798E9,363.0,NaN,NaN
Raw,232963930388994,649768208000000,,,-1265581155240431093,-0.2159423828125,67.25005368934944,-9.276570639066207,9.561270897587756,148,1,0.0,23567,384523363500467,6,39.3,405.81378173828125,0.04130000248551369,25,2598.3780077797533,0.0018458486430946374,1.57542003E9,,,,0,,6,0.78,1.57542003E9,363.0,NaN,NaN
Raw,232963930388994,649768208000000,,,-1265581155240431093,-0.2159423828125,67.25005368934944,-9.276570639066207,9.561270897587756,148,4,0.0,23567,384523361367800,16,29.5,513.4085083007812,0.049400001764297485,25,3290.0184241531524,0.006146485344343376,1.57542003E9,,,,0,,6,0.78,1.57542003E9,363.0,NaN,NaN
Raw,232963930388994,649768208000000,,,-1265581155240431093,-0.2159423828125,67.25005368934944,-9.276570639066207,9.561270897587756,148,5,0.0,23567,384523363862300,27,24.3,-409.28363037109375,0.6389999985694885,16,0.0,0.0,1.57542003E9,,,,0,,6,0.78,1.57542003E9,363.0,NaN,NaN
Raw,232963930388994,649768208000000,,,-1265581155240431093,-0.2159423828125,67.25005368934944,-9.276570639066207,9.561270897587756,148,9,0.0,23567,384523376617910,8,36.5,85.72041320800781,0.04360000044107437,25,544.5009823268649,0.0025499350854412276,1.57542003E9,,,,0,,6,0.78,1.57542003E9,363.0,NaN,NaN
Raw,232963930388994,649768208000000,,,-1265581155240431093,-0.2159423828125,67.25005368934944,-9.276570639066207,9.561270897587756,148,24,0.0,23567,384523367352595,40,21.1,-541.1476440429688,0.875,16,0.0,0.0,1.57542003E9,,,,0,,6,0.78,1.57542003E9,363.0,NaN,NaN
Raw,232963930388994,649768208000000,,,-1265581155240431093,-0.2159423828125,67.25005368934944,-9.276570639066207,9.561270897587756,148,31,0.0,23567,384523369834808,16,29.2,-115.66109466552734,0.049400001764297485,25,-747.7755642406405,0.006146485344343376,1.57542003E9,,,,0,,6,0.78,1.57542003E9,363.0,NaN,NaN
Raw,232963930388994,649768208000000,,,-1265581155240431093,-0.2159423828125,67.25005368934944,-9.276570639066207,9.561270897587756,148,24,0.0,81935,384523373659119,10,20.5,-571.197021484375,1.2590000629425049,16,0.0,0.0,1.17645005E9,,,,0,,1,0.0,1.17645005E9,363.0,NaN,NaN
Raw,232963930388994,649768208000000,,,-1265581155240431093,-0.2159423828125,67.25005368934944,-9.276570639066207,9.561270897587756,148,30,0.0,81935,384523369642127,9,21.3,598.3999633789062,1.2050000429153442,16,0.0,0.0,1.17645005E9,,,,0,,1,0.0,1.17645005E9,363.0,NaN,NaN
Raw,232963930388994,649768208000000,,,-1265581155240431093,-0.2159423828125,67.25005368934944,-9.276570639066207,9.561270897587756,148,1,0.0,81935,384523363507524,3,32.4,405.8901062011719,0.4189999997615814,16,0.0,0.0,1.17645005E9,,,,0,,6,0.0,1.17645005E9,363.0,NaN,NaN
Raw,232963930388994,649768208000000,,,-1265581155240431093,-0.2159423828125,67.25005368934944,-9.276570639066207,9.561270897587756,148,4,0.0,81935,384523361374745,9,21.0,513.0325317382812,0.871999979019165,16,0.0,0.0,1.17645005E9,,,,0,,6,0.0,1.17645005E9,363.0,NaN,NaN
Raw,232963930388994,649768208000000,,,-1265581155240431093,-0.2159423828125,67.25005368934944,-9.276570639066207,9.561270897587756,148,5,0.0,81935,384523363869422,7,24.7,-409.2156066894531,0.6990000009536743,16,0.0,0.0,1.17645005E9,,,,0,,6,0.0,1.17645005E9,363.0,NaN,NaN
Raw,232963930388994,649768208000000,,,-1265581155240431093,-0.2159423828125,67.25005368934944,-9.276570639066207,9.561270897587756,148,9,0.0,81935,384523376625015,3,33.3,85.647705078125,0.36949998140335083,16,0.0,0.0,1.17645005E9,,,,0,,6,0.0,1.17645005E9,363.0,NaN,NaN
Raw,232963930388994,649768208000000,,,-1265581155240431093,-0.2159423828125,67.25005368934944,-9.276570639066207,9.561270897587756,148,24,0.0,81935,384523367359659,9,21.0,-542.1721801757812,0.8629999756813049,16,0.0,0.0,1.17645005E9,,,,0,,6,0.0,1.17645005E9,363.0,NaN,NaN
Raw,232963930388994,649768208000000,,,-1265581155240431093,-0.2159423828125,67.25005368934944,-9.276570639066207,9.561270897587756,148,31,0.0,81935,384523369841850,2,37.2,-115.62821960449219,0.30000001192092896,16,0.0,0.0,1.17645005E9,,,,0,,6,0.0,1.17645005E9,363.0,NaN,NaN
Fix,gps,51.524616,-0.134285,78.448303,0.000000,4.709769,1582195707000,232964911190133
Raw,232964928993989,649769208000000,,,-1265581155240431101,-0.2923717498779297,62.383820477407426,-7.089825194676732,9.641477943279043,148,5,0.0,16399,384524366451154,40,21.8,727.3309936523438,0.7954999804496765,16,0.0,0.0,1.57542003E9,,,,0,,1,1.22,1.57542003E9,363.0,NaN,NaN
Raw,232964928993989,649769208000000,,,-1265581155240431101,-0.2923717498779297,62.383820477407426,-7.089825194676732,9.641477943279043,148,13,0.0,16399,384524380146361,8,36.3,257.15960693359375,0.019600000232458115,25,1916.5572551167406,0.001160791358090767,1.57542003E9,,,,0,,1,1.22,1.57542003E9,363.0,NaN,NaN
Raw,232964928993989,649769208000000,,,-1265581155240431101,-0.2923717498779297,62.383820477407426,-7.089825194676732,9.641477943279043,148,15,0.0,16399,384524380869737,5,41.0,-70.95917510986328,0.018300000578165054,25,-544.725555390791,6.850571963914755E-4,1.57542003E9,,,,0,,1,1.22,1.57542003E9,363.0,NaN,NaN
Raw,232964928993989,649769208000000,,,-1265581155240431101,-0.2923717498779297,62.383820477407426,-7.089825194676732,9.641477943279043,148,17,0.0,16399,384524366692254,8,36.2,-525.9691772460938,0.028600001707673073,25,-3853.681155809111,0.001160791358090767,1.57542003E9,,,,0,,1,1.22,1.57542003E9,363.0,NaN,NaN
Raw,232964928993989,649769208000000,,,-1265581155240431101,-0.2923717498779297,62.383820477407426,-7.089825194676732,9.641477943279043,148,20,0.0,16399,384524372272130,40,21.8,-314.4317321777344,0.7744999527931213,16,0.0,0.0,1.57542003E9,,,,0,,1,1.22,1.57542003E9,363.0,NaN,NaN
Raw,232964928993989,649769208000000,,,-1265581155240431101,-0.2923717498779297,62.383820477407426,-7.089825194676732,9.641477943279043,148,24,0.0,16399,384524373653269,31,23.0,-569.1452026367188,0.1307000070810318,21,-1889.2910188943904,0.19029366893311156,1.57542003E9,,,,0,,1,1.22,1.57542003E9,363.0,NaN,NaN
Raw,232964928993989,649769208000000,,,-1265581155240431101,-0.2923717498779297,62.383820477407426,-7.089825194676732,9.641477943279043,148,28,0.0,16399,384524376580989,6,39.1,229.04666137695312,0.04280000180006027,25,1709.3939749739245,8.372921387687362E-4,1.57542003E9,,,,0,,1,1.22,1.57542003E9,363.0,NaN,NaN
Raw,232964928993989,649769208000000,,,-1265581155240431101,-0.2923717498779297,62.383820477407426,-7.089825194676732,9.641477943279043,148,30,0.0,16399,384524369632284,31,23.8,598.756591796875,0.12470000237226486,19,4366.753336511235,0.19029366893311156,1.57542003E9,,,,0,,1,1.22,1.57542003E9,363.0,NaN,NaN
Raw,232964928993989,649769208000000,,,-1265581155240431101,-0.2923717498779297,62.383820477407426,-7.089825194676732,9.641477943279043,148,14,0.0,49359,49706384583618,8,36.4,20.23782730102539,0.225600004196167,25,130.76026075502605,0.0011443444794587703,1.59806246E9,,,,0,,3,-0.6,1.59806246E9,363.0,NaN,NaN
Raw,232964928993989,649769208000000,,,-1265581155240431101,-0.2923717498779297,62.383820477407426,-7.089825194676732,9.641477943279043,148,22,0.0,49359,49706371095240,16,29.0,-102.51018524169922,0.24040000140666962,25,-738.123085515201,0.00277253881595763,1.60031245E9,,,,0,,3,-0.6,1.60031245E9,363.0,NaN,NaN
Raw,232964928993989,649769208000000,,,-1265581155240431101,-0.2923717498779297,62.383820477407426,-7.089825194676732,9.641477943279043,148,13,0.0,49359,49706376574035,27,24.4,661.2399291992188,0.2653000056743622,27,1028.6043770577417,0.18726787319550683,1.60087501E9,,,,0,,3,-0.6,1.60087501E9,363.0,NaN,NaN
Raw,232964928993989,649769208000000,,,-1265581155240431101,-0.2923717498779297,62.383820477407426,-7.089825194676732,9.641477943279043,148,15,0.0,49359,49706377326243,46,20.0,-630.8554077148438,1.0720000267028809,16,0.0,0.0,1.602E9,,,,0,,3,-0.6,1.602E9,363.0,NaN,NaN
Raw,232964928993989,649769208000000,,,-1265581155240431101,-0.2923717498779297,62.383820477407426,-7.089825194676732,9.641477943279043,148,5,0.0,49359,49706380093572,7,37.5,-518.997802734375,0.20440000295639038,25,-3697.030254424051,9.91474542321254E-4,1.60256256E9,,,,0,,3,-0.6,1.60256256E9,363.0,NaN,NaN
Raw,232964928993989,649769208000000,,,-1265581155240431101,-0.2923717498779297,62.383820477407426,-7.089825194676732,9.641477943279043,148,3,0.0,49359,49706373144973,70,17.0,792.7681884765625,2.0460000038146973,16,0.0,0.0,1.60481254E9,,,,0,,3,-0.6,1.60481254E9,363.0,NaN,NaN
Raw,232964928993989,649769208000000,,,-1265581155240431101,-0.2923717498779297,62.383820477407426,-7.089825194676732,9.641477943279043,148,4,0.0,49359,49706383693362,8,36.8,263.4393005371094,0.2241000086069107,25,1858.2070889587656,0.0011391319696942128,1.60537498E9,,,,0,,3,-0.6,1.60537498E9,363.0,NaN,NaN
Raw,232964928993989,649769208000000,,,-1265581155240431101,-0.2923717498779297,62.383820477407426,-7.089825194676732,9.641477943279043,148,37,0.0,16399,384510368228884,6,39.0,492.64154052734375,0.030800001695752144,25,3658.957403340043,8.449737438469402E-4,1.56109798E9,,,,0,,5,1.45,1.56109798E9,363.0,NaN,NaN
Raw,232964928993989,649769208000000,,,-1265581155240431101,-0.2923717498779297,62.383820477407426,-7.089825194676732,9.641477943279043,148,28,0.0,16399,384510360869180,92,15.2,-386.0570068359375,3.321500301361084,16,0.0,0.0,1.56109798E9,,,,0,,5,1.45,1.56109798E9,363.0,NaN,NaN
Raw,232964928993989,649769208000000,,,-1265581155240431101,-0.2923717498779297,62.383820477407426,-7.089825194676732,9.641477943279043,148,22,0.0,16399,384510369050753,11,33.6,-373.75787353515625,0.034700002521276474,17,-2150.1789741615103,0.0016707435714883973,1.56109798E9,,,,0,,5,1.45,1.56109798E9,363.0,NaN,NaN
Raw,232964928993989,649769208000000,,,-1265581155240431101,-0.2923717498779297,62.383820477407426,-7.089825194676732,9.641477943279043,148,20,0.0,16399,384510364632515,70,17.1,648.9590454101562,1.9225000143051147,16,0.0,0.0,1.56109798E9,,,,0,,5,1.45,1.56109798E9,363.0,NaN,NaN
Raw,232964928993989,649769208000000,,,-1265581155240431101,-0.2923717498779297,62.383820477407426,-7.089825194676732,9.641477943279043,148,10,0.0,16399,384510315823911,13,31.1,172.443359375,0.044600002467632294,17,981.2975144009725,0.0020932304434118673,1.56109798E9,,,,0,,5,1.45,1.56109798E9,363.0,NaN,NaN
Raw,232964928993989,649769208000000,,,-1265581155240431101,-0.2923717498779297,62.383820477407426,-7.089825194676732,9.641477943279043,148,5,0.0,17167,384510312385059,24,25.0,-4.1192474365234375,4.395600318908691,16,0.0,0.0,1.56109798E9,,,,0,,5,1.45,1.56109798E9,363.0,NaN,NaN
Raw,232964928993989,649769208000000,,,-1265581155240431101,-0.2923717498779297,62.383820477407426,-7.089825194676732,9.641477943279043,148,1,0.0,23567,384524363499092,5,40.2,406.5739440917969,0.04110000282526016,25,3004.4858091469005,0.001617496273834944,1.57542003E9,,,,0,,6,1.15,1.57542003E9,363.0,NaN,NaN
Raw,232964928993989,649769208000000,,,-1265581155240431101,-0.2923717498779297,62.383820477407426,-7.089825194676732,9.641477943279043,148,4,0.0,23567,384524361366093,16,29.5,514.20947265625,0.049400001764297485,25,3803.7393880772956,0.006146485344343376,1.57542003E9,,,,0,,6,1.15,1.57542003E9,363.0,NaN,NaN
Raw,232964928993989,649769208000000,,,-1265581155240431101,-0.2923717498779297,62.383820477407426,-7.089825194676732,9.641477943279043,148,5,0.0,23567,384524363863650,24,25.2,-408.3873596191406,0.055800002068281174,27,-636.9287557127244,0.017526047264890512,1.57542003E9,,,,0,,6,1.15,1.57542003E9,363.0,NaN,NaN
Raw,232964928993989,649769208000000,,,-1265581155240431101,-0.2923717498779297,62.383820477407426,-7.089825194676732,9.641477943279043,148,9,0.0,23567,384524376617640,9,35.7,86.55794525146484,0.04410000145435333,25,630.5551483944499,0.0028924638165555576,1.57542003E9,,,,0,,6,1.15,1.57542003E9,363.0,NaN,NaN
Raw,232964928993989,649769208000000,,,-1265581155240431101,-0.2923717498779297,62.383820477407426,-7.089825194676732,9.641477943279043,148,24,0.0,23567,384524367354343,24,25.9,-539.7844848632812,0.06180000305175781,19,-301.6081974168662,0.017526047264890512,1.57542003E9,,,,0,,6,1.15,1.57542003E9,363.0,NaN,NaN
Raw,232964928993989,649769208000000,,,-1265581155240431101,-0.2923717498779297,62.383820477407426,-7.089825194676732,9.641477943279043,148,31,0.0,23567,384524369835197,17,28.0,-114.78746795654297,0.050700001418590546,25,-863.0738794935141,0.006565131413727744,1.57542003E9,,,,0,,6,1.15,1.57542003E9,363.0,NaN,NaN
Raw,232964928993989,649769208000000,,,-1265581155240431101,-0.2923717498779297,62.383820477407426,-7.089825194676732,9.641477943279043,148,30,0.0,81935,384524369640117,9,21.5,598.8023681640625,0.058900002390146255,27,520.3766441854966,0.25482803839368795,1.17645005E9,,,,0,,1,-2.46,1.17645005E9,363.0,NaN,NaN
Raw,232964928993989,649769208000000,,,-1265581155240431101,-0.2923717498779297,62.383820477407426,-7.089825194676732,9.641477943279043,148,1,0.0,81935,384524363506163,3,31.6,406.3926086425781,0.03230000287294388,27,537.5997629102967,0.0027776256465907277,1.17645005E9,,,,0,,6,-2.46,1.17645005E9,363.0,NaN,NaN
Raw,232964928993989,649769208000000,,,-1265581155240431101,-0.2923717498779297,62.383820477407426,-7.089825194676732,9.641477943279043,148,4,0.0,81935,384524361373166,10,20.6,515.3897094726562,0.8479999899864197,16,0.0,0.0,1.17645005E9,,,,0,,6,-2.46,1.17645005E9,363.0,NaN,NaN
Raw,232964928993989,649769208000000,,,-1265581155240431101,-0.2923717498779297,62.383820477407426,-7.089825194676732,9.641477943279043,148,5,0.0,81935,384524363870781,6,25.5,-408.4169921875,0.05900000035762787,27,-541.4145002959995,0.010753742989341824,1.17645005E9,,,,0,,6,-2.46,1.17645005E9,363.0,NaN,NaN
Raw,232964928993989,649769208000000,,,-1265581155240431101,-0.2923717498779297,62.383820477407426,-7.089825194676732,9.641477943279043,148,9,0.0,81935,384524376624730,2,34.3,86.43889617919922,0.048500001430511475,27,114.875730863083,0.0020386244039789624,1.17645005E9,,,,0,,6,-2.46,1.17645005E9,363.0,NaN,NaN
Raw,232964928993989,649769208000000,,,-1265581155240431101,-0.2923717498779297,62.383820477407426,-7.089825194676732,9.641477943279043,148,24,0.0,81935,384524367361472,10,20.4,-541.3184814453125,0.8569999933242798,16,0.0,0.0,1.17645005E9,,,,0,,6,-2.46,1.17645005E9,363.0,NaN,NaN
Raw,232964928993989,649769208000000,,,-1265581155240431101,-0.2923717498779297,62.383820477407426,-7.089825194676732,9.641477943279043,148,31,0.0,81935,384524369842235,2,37.2,-114.88484191894531,0.035600002855062485,27,-153.46525920514807,0.0013505885638054542,1.17645005E9,,,,0,,6,-2.46,1.17645005E9,363.0,NaN,NaN
Fix,gps,51.524625,-0.134279,79.408142,0.000000,4.537383,1582195708000,232965907945441
Raw,232965929568724,649770208000000,,,-1265581155240431096,-0.22597694396972656,58.75181159353815,-4.813173484641869,10.562050504791834,148,5,0.0,16399,384525366448765,61,18.2,727.9970092773438,1.0855000019073486,16,0.0,0.0,1.57542003E9,,,,0,,1,1.24,1.57542003E9,363.0,NaN,NaN
Raw,232965929568724,649770208000000,,,-1265581155240431096,-0.22597694396972656,58.75181159353815,-4.813173484641869,10.562050504791834,148,13,0.0,16399,384525380145517,8,36.4,258.05426025390625,0.019600000232458115,25,2174.2902351545,0.001160791358090767,1.57542003E9,,,,0,,1,1.24,1.57542003E9,363.0,NaN,NaN
Raw,232965929568724,649770208000000,,,-1265581155240431096,-0.22597694396972656,58.75181159353815,-4.813173484641869,10.562050504791834,148,15,0.0,16399,384525380869970,5,41.4,-69.9988784790039,0.018300000578165054,25,-615.0680428944519,6.850571963914755E-4,1.57542003E9,,,,0,,1,1.24,1.57542003E9,363.0,NaN,NaN
Raw,232965929568724,649770208000000,,,-1265581155240431096,-0.22597694396972656,58.75181159353815,-4.813173484641869,10.562050504791834,148,17,0.0,16399,384525366693974,9,35.1,-525.101806640625,0.029100000858306885,25,-4379.070826766582,0.0013320557236479321,1.57542003E9,,,,0,,1,1.24,1.57542003E9,363.0,NaN,NaN
Raw,232965929568724,649770208000000,,,-1265581155240431096,-0.22597694396972656,58.75181159353815,-4.813173484641869,10.562050504791834,148,20,0.0,16399,384525372273260,27,24.2,-313.4739685058594,0.059300001710653305,19,-456.5209090301065,0.19029366893311156,1.57542003E9,,,,0,,1,1.24,1.57542003E9,363.0,NaN,NaN
Raw,232965929568724,649770208000000,,,-1265581155240431096,-0.22597694396972656,58.75181159353815,-4.813173484641869,10.562050504791834,148,24,0.0,16399,384525373655235,24,25.1,-568.1796875,0.052799999713897705,21,-2457.9657857133243,0.19029366893311156,1.57542003E9,,,,0,,1,1.24,1.57542003E9,363.0,NaN,NaN
Raw,232965929568724,649770208000000,,,-1265581155240431096,-0.22597694396972656,58.75181159353815,-4.813173484641869,10.562050504791834,148,28,0.0,16399,384525376580200,6,39.9,229.97438049316406,0.04280000180006027,25,1939.0514093637391,8.372921387687362E-4,1.57542003E9,,,,0,,1,1.24,1.57542003E9,363.0,NaN,NaN
Raw,232965929568724,649770208000000,,,-1265581155240431096,-0.22597694396972656,58.75181159353815,-4.813173484641869,10.562050504791834,148,30,0.0,16399,384525369630319,35,22.6,599.0556030273438,0.3953000009059906,21,4965.6427411196955,0.19029366893311156,1.57542003E9,,,,0,,1,1.24,1.57542003E9,363.0,NaN,NaN
Raw,232965929568724,649770208000000,,,-1265581155240431096,-0.22597694396972656,58.75181159353815,-4.813173484641869,10.562050504791834,148,14,0.0,49359,49707384583493,8,36.6,21.16658592224121,0.225600004196167,25,151.59484177447328,0.0011443444794587703,1.59806246E9,,,,0,,3,-0.55,1.59806246E9,363.0,NaN,NaN
Raw,232965929568724,649770208000000,,,-1265581155240431096,-0.22597694396972656,58.75181159353815,-4.813173484641869,10.562050504791834,148,22,0.0,49359,49707371095602,17,28.7,-101.4473876953125,0.24170000851154327,25,-839.9218692956641,0.002959872375920247,1.60031245E9,,,,0,,3,-0.55,1.60031245E9,363.0,NaN,NaN
Raw,232965929568724,649770208000000,,,-1265581155240431096,-0.22597694396972656,58.75181159353815,-4.813173484641869,10.562050504791834,148,13,0.0,49359,49707376571949,40,21.3,662.1979370117188,1.0104999542236328,16,0.0,0.0,1.60087501E9,,,,0,,3,-0.55,1.60087501E9,363.0,NaN,NaN
Raw,232965929568724,649770208000000,,,-1265581155240431096,-0.22597694396972656,58.75181159353815,-4.813173484641869,10.562050504791834,148,15,0.0,49359,49707377328369,21,26.0,-630.0864868164062,0.25220000743865967,19,-4145.559200183074,0.005352100032671997,1.602E9,,,,0,,3,-0.55,1.602E9,363.0,NaN,NaN
Raw,232965929568724,649770208000000,,,-1265581155240431096,-0.22597694396972656,58.75181159353815,-4.813173484641869,10.562050504791834,148,5,0.0,49359,49707380095300,7,37.9,-518.03271484375,0.21940000355243683,25,-4215.420520947975,9.91474542321254E-4,1.60256256E9,,,,0,,3,-0.55,1.60256256E9,363.0,NaN,NaN
Raw,232965929568724,649770208000000,,,-1265581155240431096,-0.22597694396972656,58.75181159353815,-4.813173484641869,10.562050504791834,148,3,0.0,49359,49707373142145,53,19.3,793.32861328125,1.1360000371932983,16,0.0,0.0,1.60481254E9,,,,0,,3,-0.55,1.60481254E9,363.0,NaN,NaN
Raw,232965929568724,649770208000000,,,-1265581155240431096,-0.22597694396972656,58.75181159353815,-4.813173484641869,10.562050504791834,148,4,0.0,49359,49707383692481,8,36.6,264.4217224121094,0.2241000086069107,25,2122.277751566635,0.0011391319696942128,1.60537498E9,,,,0,,3,-0.55,1.60537498E9,363.0,NaN,NaN
Raw,232965929568724,649770208000000,,,-1265581155240431096,-0.22597694396972656,58.75181159353815,-4.813173484641869,10.562050504791834,148,37,0.0,16399,384511368227246,6,38.7,493.5249328613281,0.03110000118613243,25,4152.193056961021,9.409935037250662E-4,1.56109798E9,,,,0,,5,1.5,1.56109798E9,363.0,NaN,NaN
Raw,232965929568724,649770208000000,,,-1265581155240431096,-0.22597694396972656,58.75181159353815,-4.813173484641869,10.562050504791834,148,22,0.0,16399,384511369051993,12,32.7,-372.8181457519531,0.035100001841783524,25,-2523.217395633937,0.0018243750799829725,1.56109798E9,,,,0,,5,1.5,1.56109798E9,363.0,NaN,NaN
Raw,232965929568724,649770208000000,,,-1265581155240431096,-0.22597694396972656,58.75181159353815,-4.813173484641869,10.562050504791834,148,20,0.0,16399,384511364630307,46,20.8,648.6326293945312,0.8524999618530273,16,0.0,0.0,1.56109798E9,,,,0,,5,1.5,1.56109798E9,363.0,NaN,NaN
Raw,232965929568724,649770208000000,,,-1265581155240431096,-0.22597694396972656,58.75181159353815,-4.813173484641869,10.562050504791834,148,10,0.0,16399,384511315823362,16,29.7,173.2860107421875,0.046400003135204315,25,1154.421573909982,0.0028421844273806814,1.56109798E9,,,,0,,5,1.5,1.56109798E9,363.0,NaN,NaN
Raw,232965929568724,649770208000000,,,-1265581155240431096,-0.22597694396972656,58.75181159353815,-4.813173484641869,10.562050504791834,148,1,0.0,23567,384525363497748,5,41.4,407.49652099609375,0.040800001472234726,25,3411.6782339041533,0.001484290577412798,1.57542003E9,,,,0,,6,1.18,1.57542003E9,363.0,NaN,NaN
Raw,232965929568724,649770208000000,,,-1265581155240431096,-0.22597694396972656,58.75181159353815,-4.813173484641869,10.562050504791834,148,4,0.0,23567,384525361364371,17,28.6,515.0987548828125,0.050700001418590546,25,4318.529114870699,0.006565131413727744,1.57542003E9,,,,0,,6,1.18,1.57542003E9,363.0,NaN,NaN
Raw,232965929568724,649770208000000,,,-1265581155240431096,-0.22597694396972656,58.75181159353815,-4.813173484641869,10.562050504791834,148,5,0.0,23567,384525363865028,19,27.1,-407.4439697265625,0.04830000177025795,25,-1044.6608557778875,0.007212130206821385,1.57542003E9,,,,0,,6,1.18,1.57542003E9,363.0,NaN,NaN
Raw,232965929568724,649770208000000,,,-1265581155240431096,-0.22597694396972656,58.75181159353815,-4.813173484641869,10.562050504791834,148,9,0.0,23567,384525376617344,8,36.2,87.4416732788086,0.04360000044107437,25,717.6934460640889,0.0025499350854412276,1.57542003E9,,,,0,,6,1.18,1.57542003E9,363.0,NaN,NaN
Raw,232965929568724,649770208000000,,,-1265581155240431096,-0.22597694396972656,58.75181159353815,-4.813173484641869,10.562050504791834,148,24,0.0,23567,384525367355975,46,20.2,-539.1875610351562,0.875,16,0.0,0.0,1.57542003E9,,,,0,,6,1.18,1.57542003E9,363.0,NaN,NaN
Raw,232965929568724,649770208000000,,,-1265581155240431096,-0.22597694396972656,58.75181159353815,-4.813173484641869,10.562050504791834,148,31,0.0,23567,384525369835612,19,27.1,-113.87448120117188,0.05130000039935112,25,-977.2685284490354,0.007212130206821385,1.57542003E9,,,,0,,6,1.18,1.57542003E9,363.0,NaN,NaN
Raw,232965929568724,649770208000000,,,-1265581155240431096,-0.22597694396972656,58.75181159353815,-4.813173484641869,10.562050504791834,148,24,0.0,81935,384525373663073,11,19.9,-568.5723266601562,0.9359999895095825,16,0.0,0.0,1.17645005E9,,,,0,,1,-2.86,1.17645005E9,363.0,NaN,NaN
Raw,232965929568724,649770208000000,,,-1265581155240431096,-0.22597694396972656,58.75181159353815,-4.813173484641869,10.562050504791834,148,30,0.0,81935,384525369638110,8,22.9,600.6806640625,0.7400000095367432,16,0.0,0.0,1.17645005E9,,,,0,,1,-2.86,1.17645005E9,363.0,NaN,NaN
Raw,232965929568724,649770208000000,,,-1265581155240431096,-0.22597694396972656,58.75181159353815,-4.813173484641869,10.562050504791834,148,1,0.0,81935,384525363504799,3,31.0,407.5909729003906,0.03230000287294388,25,944.8116986791441,0.0027776256465907277,1.17645005E9,,,,0,,6,-2.86,1.17645005E9,363.0,NaN,NaN
Raw,232965929568724,649770208000000,,,-1265581155240431096,-0.22597694396972656,58.75181159353815,-4.813173484641869,10.562050504791834,148,5,0.0,81935,384525363872153,7,24.3,-407.534423828125,0.07959999889135361,29,-949.1959241057164,0.0411037634920868,1.17645005E9,,,,0,,6,-2.86,1.17645005E9,363.0,NaN,NaN
Raw,232965929568724,649770208000000,,,-1265581155240431096,-0.22597694396972656,58.75181159353815,-4.813173484641869,10.562050504791834,148,9,0.0,81935,384525376624441,2,34.2,87.53080749511719,0.048500001430511475,25,202.02382435029102,0.0020386244039789624,1.17645005E9,,,,0,,6,-2.86,1.17645005E9,363.0,NaN,NaN
Raw,232965929568724,649770208000000,,,-1265581155240431096,-0.22597694396972656,58.75181159353815,-4.813173484641869,10.562050504791834,148,24,0.0,81935,384525367363263,8,22.3,-539.8914794921875,0.7369999885559082,16,0.0,0.0,1.17645005E9,,,,0,,6,-2.86,1.17645005E9,363.0,NaN,NaN
Raw,232965929568724,649770208000000,,,-1265581155240431096,-0.22597694396972656,58.75181159353815,-4.813173484641869,10.562050504791834,148,31,0.0,81935,384525369842616,2,37.7,-113.80384826660156,0.035600002855062485,25,-267.64765830080734,0.0013505885638054542,1.17645005E9,,,,0,,6,-2.86,1.17645005E9,363.0,NaN,NaN
Fix,gps,51.524630,-0.134282,80.117371,0.000000,4.497394,1582195709000,232966898986841
Raw,232966914720541,649771208000000,,,-1265581155240431091,-0.4874076843261719,59.64341835351661,-1.9138994124857414,11.469359406875757,148,5,0.0,16399,384526366446365,61,18.9,727.56884765625,1.005500078201294,16,0.0,0.0,1.57542003E9,,,,0,,1,1.01,1.57542003E9,363.0,NaN,NaN
Raw,232966914720541,649771208000000,,,-1265581155240431091,-0.4874076843261719,59.64341835351661,-1.9138994124857414,11.469359406875757,148,13,0.0,16399,384526380144695,10,34.1,257.395263671875,0.005600000265985727,25,2432.1917225110487,0.0015223494237726067,1.57542003E9,,,,0,,1,1.01,1.57542003E9,363.0,NaN,NaN
Raw,232966914720541,649771208000000,,,-1265581155240431091,-0.4874076843261719,59.64341835351661,-1.9138994124857414,11.469359406875757,148,15,0.0,16399,384526380870190,4,42.6,-70.6642074584961,0.003100000089034438,25,-685.2306823326696,5.899103906353357E-4,1.57542003E9,,,,0,,1,1.01,1.57542003E9,363.0,NaN,NaN
Raw,232966914720541,649771208000000,,,-1265581155240431091,-0.4874076843261719,59.64341835351661,-1.9138994124857414,11.469359406875757,148,17,0.0,16399,384526366695740,13,31.8,-525.8104248046875,0.03110000118613243,25,-4904.352357088879,0.002074201012354331,1.57542003E9,,,,0,,1,1.01,1.57542003E9,363.0,NaN,NaN
Raw,232966914720541,649771208000000,,,-1265581155240431091,-0.4874076843261719,59.64341835351661,-1.9138994124857414,11.469359406875757,148,20,0.0,16399,384526372274158,24,25.4,-314.0741882324219,0.05130000039935112,17,-770.1347949158354,0.19029366893311156,1.57542003E9,,,,0,,1,1.01,1.57542003E9,363.0,NaN,NaN
Raw,232966914720541,649771208000000,,,-1265581155240431091,-0.4874076843261719,59.64341835351661,-1.9138994124857414,11.469359406875757,148,24,0.0,16399,384526373657037,17,28.7,-568.8699340820312,0.04470000043511391,17,-3026.3132038771637,0.0030066398239606148,1.57542003E9,,,,0,,1,1.01,1.57542003E9,363.0,NaN,NaN
Raw,232966914720541,649771208000000,,,-1265581155240431091,-0.4874076843261719,59.64341835351661,-1.9138994124857414,11.469359406875757,148,28,0.0,16399,384526376579458,6,38.2,229.34568786621094,0.04310000315308571,25,2168.8811237940654,9.324389888310735E-4,1.57542003E9,,,,0,,1,1.01,1.57542003E9,363.0,NaN,NaN
Raw,232966914720541,649771208000000,,,-1265581155240431091,-0.4874076843261719,59.64341835351661,-1.9138994124857414,11.469359406875757,148,30,0.0,16399,384526369628298,35,22.0,599.08251953125,0.7999999523162842,16,0.0,0.0,1.57542003E9,,,,0,,1,1.01,1.57542003E9,363.0,NaN,NaN
Raw,232966914720541,649771208000000,,,-1265581155240431091,-0.4874076843261719,59.64341835351661,-1.9138994124857414,11.469359406875757,148,14,0.0,49359,49708384583468,9,35.7,20.545360565185547,0.22609999775886536,25,172.62035507747893,0.0013131822554185268,1.59806246E9,,,,0,,3,-0.73,1.59806246E9,363.0,NaN,NaN
Raw,232966914720541,649771208000000,,,-1265581155240431091,-0.4874076843261719,59.64341835351661,-1.9138994124857414,11.469359406875757,148,22,0.0,49359,49708371095989,27,24.9,-102.03531646728516,0.25780001282691956,29,-941.490815284982,0.18733370372433672,1.60031245E9,,,,0,,3,-0.73,1.60031245E9,363.0,NaN,NaN
Raw,232966914720541,649771208000000,,,-1265581155240431091,-0.4874076843261719,59.64341835351661,-1.9138994124857414,11.469359406875757,148,13,0.0,49359,49708376569774,24,25.6,661.5402221679688,0.2573000192642212,27,2352.3410520405127,0.18726787319550683,1.60087501E9,,,,0,,3,-0.73,1.60087501E9,363.0,NaN,NaN
Raw,232966914720541,649771208000000,,,-1265581155240431091,-0.4874076843261719,59.64341835351661,-1.9138994124857414,11.469359406875757,148,15,0.0,49359,49708377330179,53,19.8,-630.7244262695312,1.1419999599456787,16,0.0,0.0,1.602E9,,,,0,,3,-0.73,1.602E9,363.0,NaN,NaN
Raw,232966914720541,649771208000000,,,-1265581155240431091,-0.4874076843261719,59.64341835351661,-1.9138994124857414,11.469359406875757,148,5,0.0,49359,49708380097021,6,39.0,-518.6976928710938,0.2038000077009201,25,-4733.633084053245,8.23110960518378E-4,1.60256256E9,,,,0,,3,-0.73,1.60256256E9,363.0,NaN,NaN
Raw,232966914720541,649771208000000,,,-1265581155240431091,-0.4874076843261719,59.64341835351661,-1.9138994124857414,11.469359406875757,148,3,0.0,49359,49708373139516,24,25.9,792.513427734375,0.25279998779296875,27,7210.643046180743,0.1868083964827234,1.60481254E9,,,,0,,3,-0.73,1.60481254E9,363.0,NaN,NaN
Raw,232966914720541,649771208000000,,,-1265581155240431091,-0.4874076843261719,59.64341835351661,-1.9138994124857414,11.469359406875757,148,4,0.0,49359,49708383691608,9,35.9,263.8311767578125,0.20960000157356262,25,2386.589905575838,0.0013072006865361828,1.60537498E9,,,,0,,3,-0.73,1.60537498E9,363.0,NaN,NaN
Raw,232966914720541,649771208000000,,,-1265581155240431091,-0.4874076843261719,59.64341835351661,-1.9138994124857414,11.469359406875757,148,37,0.0,16399,384512368225592,6,39.2,492.80413818359375,0.030800001695752144,25,4645.513156682772,8.449737438469402E-4,1.56109798E9,,,,0,,5,1.3,1.56109798E9,363.0,NaN,NaN
Raw,232966914720541,649771208000000,,,-1265581155240431091,-0.4874076843261719,59.64341835351661,-1.9138994124857414,11.469359406875757,148,22,0.0,16399,384512369053261,10,34.1,-373.478271484375,0.0340999998152256,25,-2896.1967100595393,0.001536315979199305,1.56109798E9,,,,0,,5,1.3,1.56109798E9,363.0,NaN,NaN
Raw,232966914720541,649771208000000,,,-1265581155240431091,-0.4874076843261719,59.64341835351661,-1.9138994124857414,11.469359406875757,148,20,0.0,16399,384512364628100,46,20.5,649.3431396484375,0.92249995470047,16,0.0,0.0,1.56109798E9,,,,0,,5,1.3,1.56109798E9,363.0,NaN,NaN
Raw,232966914720541,649771208000000,,,-1265581155240431091,-0.4874076843261719,59.64341835351661,-1.9138994124857414,11.469359406875757,148,19,0.0,16399,384512374625202,92,15.8,239.09877014160156,3.4075000286102295,16,0.0,0.0,1.56109798E9,,,,0,,5,1.3,1.56109798E9,363.0,NaN,NaN
Raw,232966914720541,649771208000000,,,-1265581155240431091,-0.4874076843261719,59.64341835351661,-1.9138994124857414,11.469359406875757,148,10,0.0,16399,384512315822749,12,32.9,172.58187866210938,0.04410000145435333,25,1327.5314257264502,0.0018243750799829725,1.56109798E9,,,,0,,5,1.3,1.56109798E9,363.0,NaN,NaN
Raw,232966914720541,649771208000000,,,-1265581155240431091,-0.4874076843261719,59.64341835351661,-1.9138994124857414,11.469359406875757,148,5,0.0,17167,384512312385096,19,27.5,-4.781783103942871,3.00570011138916,16,0.0,0.0,1.56109798E9,,,,0,,5,1.3,1.56109798E9,363.0,NaN,NaN
Raw,232966914720541,649771208000000,,,-1265581155240431091,-0.4874076843261719,59.64341835351661,-1.9138994124857414,11.469359406875757,148,1,0.0,23567,384526363496372,4,42.3,406.8640441894531,0.0406000018119812,25,3818.9838626996784,0.0012749675427206138,1.57542003E9,,,,0,,6,0.94,1.57542003E9,363.0,NaN,NaN
Raw,232966914720541,649771208000000,,,-1265581155240431091,-0.4874076843261719,59.64341835351661,-1.9138994124857414,11.469359406875757,148,4,0.0,23567,384526361362644,19,27.8,514.4744262695312,0.05130000039935112,25,4833.44653485044,0.007212130206821385,1.57542003E9,,,,0,,6,0.94,1.57542003E9,363.0,NaN,NaN
Raw,232966914720541,649771208000000,,,-1265581155240431091,-0.4874076843261719,59.64341835351661,-1.9138994124857414,11.469359406875757,148,5,0.0,23567,384526363866384,16,29.8,-408.0445861816406,0.046400003135204315,25,-1452.3074840811314,0.006146485344343376,1.57542003E9,,,,0,,6,0.94,1.57542003E9,363.0,NaN,NaN
Raw,232966914720541,649771208000000,,,-1265581155240431091,-0.4874076843261719,59.64341835351661,-1.9138994124857414,11.469359406875757,148,9,0.0,23567,384526376617062,8,36.0,86.86869812011719,0.04360000044107437,25,805.0051266694458,0.0025499350854412276,1.57542003E9,,,,0,,6,0.94,1.57542003E9,363.0,NaN,NaN
Raw,232966914720541,649771208000000,,,-1265581155240431091,-0.4874076843261719,59.64341835351661,-1.9138994124857414,11.469359406875757,148,24,0.0,23567,384526367357890,19,27.3,-540.5697021484375,0.05430000275373459,19,-300.7128122523165,0.007212130206821385,1.57542003E9,,,,0,,6,0.94,1.57542003E9,363.0,NaN,NaN
Raw,232966914720541,649771208000000,,,-1265581155240431091,-0.4874076843261719,59.64341835351661,-1.9138994124857414,11.469359406875757,148,31,0.0,23567,384526369835978,16,29.8,-114.47157287597656,0.049400001764297485,25,-1091.2991738148805,0.006146485344343376,1.57542003E9,,,,0,,6,0.94,1.57542003E9,363.0,NaN,NaN
Raw,232966914720541,649771208000000,,,-1265581155240431091,-0.4874076843261719,59.64341835351661,-1.9138994124857414,11.469359406875757,148,24,0.0,81935,384526373664950,11,19.6,-568.7604370117188,0.16939999163150787,27,-1637.375139480731,0.25482803839368795,1.17645005E9,,,,0,,1,-7.61,1.17645005E9,363.0,NaN,NaN
Raw,232966914720541,649771208000000,,,-1265581155240431091,-0.4874076843261719,59.64341835351661,-1.9138994124857414,11.469359406875757,148,30,0.0,81935,384526369636097,10,20.3,598.9738159179688,0.08920000493526459,27,1719.2262073816266,0.25482803839368795,1.17645005E9,,,,0,,1,-7.61,1.17645005E9,363.0,NaN,NaN
Raw,232966914720541,649771208000000,,,-1265581155240431091,-0.4874076843261719,59.64341835351661,-1.9138994124857414,11.469359406875757,148,1,0.0,81935,384526363503470,4,29.1,406.7732849121094,0.03550000116229057,25,1352.112695637869,0.0037714549693657518,1.17645005E9,,,,0,,6,-7.61,1.17645005E9,363.0,NaN,NaN
Raw,232966914720541,649771208000000,,,-1265581155240431091,-0.4874076843261719,59.64341835351661,-1.9138994124857414,11.469359406875757,148,4,0.0,81935,384526361369712,16,16.4,515.8866577148438,1.9179999828338623,16,0.0,0.0,1.17645005E9,,,,0,,6,-7.61,1.17645005E9,363.0,NaN,NaN
Raw,232966914720541,649771208000000,,,-1265581155240431091,-0.4874076843261719,59.64341835351661,-1.9138994124857414,11.469359406875757,148,5,0.0,81935,384526363873526,9,21.1,-408.2000427246094,0.04989999905228615,25,-1356.8289681928934,0.34557229348499413,1.17645005E9,,,,0,,6,-7.61,1.17645005E9,363.0,NaN,NaN
Raw,232966914720541,649771208000000,,,-1265581155240431091,-0.4874076843261719,59.64341835351661,-1.9138994124857414,11.469359406875757,148,9,0.0,81935,384526376624147,3,32.1,86.75200653076172,0.050599999725818634,25,289.334050128948,0.0024208662868967453,1.17645005E9,,,,0,,6,-7.61,1.17645005E9,363.0,NaN,NaN
Raw,232966914720541,649771208000000,,,-1265581155240431091,-0.4874076843261719,59.64341835351661,-1.9138994124857414,11.469359406875757,148,24,0.0,81935,384526367365072,10,20.6,-540.6698608398438,0.08619999885559082,27,-1805.456666214063,0.34557229348499413,1.17645005E9,,,,0,,6,-7.61,1.17645005E9,363.0,NaN,NaN
Raw,232966914720541,649771208000000,,,-1265581155240431091,-0.4874076843261719,59.64341835351661,-1.9138994124857414,11.469359406875757,148,31,0.0,81935,384526369842998,2,36.2,-114.63600158691406,0.036400001496076584,25,-381.6775903013987,0.0015544510042033504,1.17645005E9,,,,0,,6,-7.61,1.17645005E9,363.0,NaN,NaN
Fix,gps,51.524635,-0.134284,80.799988,0.000000,4.311943,1582195710000,232967905229025
Raw,232967928676006,649772208000000,,,-1265581155240431092,-0.17286109924316406,58.57850192114711,-4.265235553570511,11.43800872224058,148,5,0.0,16399,384527366443833,27,24.0,728.0228271484375,0.050300002098083496,19,6763.394410344506,0.19029366893311156,1.57542003E9,,,,0,,1,1.15,1.57542003E9,363.0,NaN,NaN
Raw,232967928676006,649772208000000,,,-1265581155240431092,-0.17286109924316406,58.57850192114711,-4.265235553570511,11.43800872224058,148,10,0.0,16399,384527364320642,92,15.7,-619.2822265625,3.8975000381469727,16,0.0,0.0,1.57542003E9,,,,0,,1,1.15,1.57542003E9,363.0,NaN,NaN
Raw,232967928676006,649772208000000,,,-1265581155240431092,-0.17286109924316406,58.57850192114711,-4.265235553570511,11.43800872224058,148,13,0.0,16399,384527380143848,10,34.8,257.1780090332031,0.005600000265985727,25,2689.2555635704516,0.0015223494237726067,1.57542003E9,,,,0,,1,1.15,1.57542003E9,363.0,NaN,NaN
Raw,232967928676006,649772208000000,,,-1265581155240431092,-0.17286109924316406,58.57850192114711,-4.265235553570511,11.43800872224058,148,15,0.0,16399,384527380870440,5,41.7,-70.87334442138672,0.018300000578165054,25,-756.2139073409797,6.850571963914755E-4,1.57542003E9,,,,0,,1,1.15,1.57542003E9,363.0,NaN,NaN
Raw,232967928676006,649772208000000,,,-1265581155240431092,-0.17286109924316406,58.57850192114711,-4.265235553570511,11.43800872224058,148,17,0.0,16399,384527366697484,11,33.1,-526.0984497070312,0.03020000085234642,25,-5430.541349760516,0.001655554942969963,1.57542003E9,,,,0,,1,1.15,1.57542003E9,363.0,NaN,NaN
Raw,232967928676006,649772208000000,,,-1265581155240431092,-0.17286109924316406,58.57850192114711,-4.265235553570511,11.43800872224058,148,20,0.0,16399,384527372275303,24,25.8,-314.3632507324219,0.05130000039935112,21,-1084.6508599513306,0.19029366893311156,1.57542003E9,,,,0,,1,1.15,1.57542003E9,363.0,NaN,NaN
Raw,232967928676006,649772208000000,,,-1265581155240431092,-0.17286109924316406,58.57850192114711,-4.265235553570511,11.43800872224058,148,24,0.0,16399,384527373659011,19,27.7,-569.126708984375,0.04530000314116478,17,-3595.520826909628,0.003234992547669888,1.57542003E9,,,,0,,1,1.15,1.57542003E9,363.0,NaN,NaN
Raw,232967928676006,649772208000000,,,-1265581155240431092,-0.17286109924316406,58.57850192114711,-4.265235553570511,11.43800872224058,148,28,0.0,16399,384527376578675,5,40.1,229.11041259765625,0.04260000213980675,25,2397.877588660522,7.42145288706399E-4,1.57542003E9,,,,0,,1,1.15,1.57542003E9,363.0,NaN,NaN
Raw,232967928676006,649772208000000,,,-1265581155240431092,-0.17286109924316406,58.57850192114711,-4.265235553570511,11.43800872224058,148,30,0.0,16399,384527369626082,40,21.0,597.9407348632812,0.8600000143051147,16,0.0,0.0,1.57542003E9,,,,0,,1,1.15,1.57542003E9,363.0,NaN,NaN
Raw,232967928676006,649772208000000,,,-1265581155240431092,-0.17286109924316406,58.57850192114711,-4.265235553570511,11.43800872224058,148,14,0.0,49359,49709384583397,8,36.8,20.35563850402832,0.225600004196167,25,192.86330029546184,0.0011443444794587703,1.59806246E9,,,,0,,3,-0.63,1.59806246E9,363.0,NaN,NaN
Raw,232967928676006,649772208000000,,,-1265581155240431092,-0.17286109924316406,58.57850192114711,-4.265235553570511,11.43800872224058,148,22,0.0,49359,49709371096282,21,26.2,-102.2747802734375,0.24320000410079956,21,-1043.8879596538334,0.005357743897484537,1.60031245E9,,,,0,,3,-0.63,1.60031245E9,363.0,NaN,NaN
Raw,232967928676006,649772208000000,,,-1265581155240431092,-0.17286109924316406,58.57850192114711,-4.265235553570511,11.43800872224058,148,13,0.0,49359,49709376567397,19,27.3,661.2281494140625,0.24979999661445618,25,3013.471851143697,0.0031835540173351597,1.60087501E9,,,,0,,3,-0.63,1.60087501E9,363.0,NaN,NaN
Raw,232967928676006,649772208000000,,,-1265581155240431092,-0.17286109924316406,58.57850192114711,-4.265235553570511,11.43800872224058,148,15,0.0,49359,49709377332505,31,23.2,-630.464111328125,0.3367000222206116,19,-5406.1998000697295,0.18713636579275905,1.602E9,,,,0,,3,-0.63,1.602E9,363.0,NaN,NaN
Raw,232967928676006,649772208000000,,,-1265581155240431092,-0.17286109924316406,58.57850192114711,-4.265235553570511,11.43800872224058,148,5,0.0,49359,49709380098755,6,39.2,-518.8876342773438,0.2038000077009201,25,-5252.645968629202,8.23110960518378E-4,1.60256256E9,,,,0,,3,-0.63,1.60256256E9,363.0,NaN,NaN
Raw,232967928676006,649772208000000,,,-1265581155240431092,-0.17286109924316406,58.57850192114711,-4.265235553570511,11.43800872224058,148,21,0.0,49359,49709367544135,139,12.0,497.3088073730469,5.497000217437744,16,0.0,0.0,1.60424998E9,,,,0,,3,-0.63,1.60424998E9,363.0,NaN,NaN
Raw,232967928676006,649772208000000,,,-1265581155240431092,-0.17286109924316406,58.57850192114711,-4.265235553570511,11.43800872224058,148,3,0.0,49359,49709373136999,19,27.4,792.2566528320312,0.24530000984668732,21,8002.796809620496,0.0031757429127933436,1.60481254E9,,,,0,,3,-0.63,1.60481254E9,363.0,NaN,NaN
Raw,232967928676006,649772208000000,,,-1265581155240431092,-0.17286109924316406,58.57850192114711,-4.265235553570511,11.43800872224058,148,4,0.0,49359,49709383690751,9,35.2,263.6349792480469,0.22460000216960907,25,2650.0968992600087,0.0013072006865361828,1.60537498E9,,,,0,,3,-0.63,1.60537498E9,363.0,NaN,NaN
Raw,232967928676006,649772208000000,,,-1265581155240431092,-0.17286109924316406,58.57850192114711,-4.265235553570511,11.43800872224058,148,37,0.0,16399,384513368223947,5,41.2,492.5168151855469,0.030300000682473183,25,5137.948522637472,6.913421459270097E-4,1.56109798E9,,,,0,,5,1.38,1.56109798E9,363.0,NaN,NaN
Raw,232967928676006,649772208000000,,,-1265581155240431092,-0.17286109924316406,58.57850192114711,-4.265235553570511,11.43800872224058,148,22,0.0,16399,384513369054530,13,31.0,-373.712158203125,0.035600002855062485,25,-3270.0068696722205,0.0020932304434118673,1.56109798E9,,,,0,,5,1.38,1.56109798E9,363.0,NaN,NaN
Raw,232967928676006,649772208000000,,,-1265581155240431092,-0.17286109924316406,58.57850192114711,-4.265235553570511,11.43800872224058,148,20,0.0,16399,384513364625911,46,20.9,648.9302978515625,0.8524999618530273,16,0.0,0.0,1.56109798E9,,,,0,,5,1.38,1.56109798E9,363.0,NaN,NaN
Raw,232967928676006,649772208000000,,,-1265581155240431092,-0.17286109924316406,58.57850192114711,-4.265235553570511,11.43800872224058,148,10,0.0,16399,384513315822181,11,33.3,172.27651977539062,0.04370000213384628,25,1499.725596676406,0.0016707435714883973,1.56109798E9,,,,0,,5,1.38,1.56109798E9,363.0,NaN,NaN
Raw,232967928676006,649772208000000,,,-1265581155240431092,-0.17286109924316406,58.57850192114711,-4.265235553570511,11.43800872224058,148,5,0.0,17167,384513312385107,17,28.1,-5.271484375,2.0562000274658203,16,0.0,0.0,1.56109798E9,,,,0,,5,1.38,1.56109798E9,363.0,NaN,NaN
Raw,232967928676006,649772208000000,,,-1265581155240431092,-0.17286109924316406,58.57850192114711,-4.265235553570511,11.43800872224058,148,1,0.0,23567,384527363495016,4,43.7,406.4853515625,0.04050000011920929,25,4225.406193167101,0.0011227326889557481,1.57542003E9,,,,0,,6,1.04,1.57542003E9,363.0,NaN,NaN
Raw,232967928676006,649772208000000,,,-1265581155240431092,-0.17286109924316406,58.57850192114711,-4.265235553570511,11.43800872224058,148,4,0.0,23567,384527361360926,19,27.8,514.0767822265625,0.05130000039935112,21,5347.340479892143,0.007212130206821385,1.57542003E9,,,,0,,6,1.04,1.57542003E9,363.0,NaN,NaN
Raw,232967928676006,649772208000000,,,-1265581155240431092,-0.17286109924316406,58.57850192114711,-4.265235553570511,11.43800872224058,148,5,0.0,23567,384527363867753,21,26.5,-408.4559326171875,0.04920000210404396,21,-1860.914063510788,0.011874324619302384,1.57542003E9,,,,0,,6,1.04,1.57542003E9,363.0,NaN,NaN
Raw,232967928676006,649772208000000,,,-1265581155240431092,-0.17286109924316406,58.57850192114711,-4.265235553570511,11.43800872224058,148,9,0.0,23567,384527376616769,8,36.5,86.50676727294922,0.04360000044107437,25,891.4503456638364,0.0025499350854412276,1.57542003E9,,,,0,,6,1.04,1.57542003E9,363.0,NaN,NaN
Raw,232967928676006,649772208000000,,,-1265581155240431092,-0.17286109924316406,58.57850192114711,-4.265235553570511,11.43800872224058,148,24,0.0,23567,384527367359707,17,28.2,-540.9912719726562,0.053700003772974014,25,-841.6847477468895,0.006565131413727744,1.57542003E9,,,,0,,6,1.04,1.57542003E9,363.0,NaN,NaN
Raw,232967928676006,649772208000000,,,-1265581155240431092,-0.17286109924316406,58.57850192114711,-4.265235553570511,11.43800872224058,148,31,0.0,23567,384527369836340,16,29.4,-114.7989730834961,0.049400001764297485,25,-1206.182782077452,0.006146485344343376,1.57542003E9,,,,0,,6,1.04,1.57542003E9,363.0,NaN,NaN
Raw,232967928676006,649772208000000,,,-1265581155240431092,-0.17286109924316406,58.57850192114711,-4.265235553570511,11.43800872224058,148,24,0.0,81935,384527373666821,10,20.9,-567.8078002929688,0.8659999966621399,16,0.0,0.0,1.17645005E9,,,,0,,1,-1.49,1.17645005E9,363.0,NaN,NaN
Raw,232967928676006,649772208000000,,,-1265581155240431092,-0.17286109924316406,58.57850192114711,-4.265235553570511,11.43800872224058,148,30,0.0,81935,384527369634118,7,24.8,598.5656127929688,0.6299999952316284,16,0.0,0.0,1.17645005E9,,,,0,,1,-1.49,1.17645005E9,363.0,NaN,NaN
Raw,232967928676006,649772208000000,,,-1265581155240431092,-0.17286109924316406,58.57850192114711,-4.265235553570511,11.43800872224058,148,1,0.0,81935,384527363502127,4,29.3,406.4967041015625,0.03550000116229057,25,1758.5020454584892,0.0037714549693657518,1.17645005E9,,,,0,,6,-1.49,1.17645005E9,363.0,NaN,NaN
Raw,232967928676006,649772208000000,,,-1265581155240431092,-0.17286109924316406,58.57850192114711,-4.265235553570511,11.43800872224058,148,4,0.0,81935,384527361368004,12,18.7,513.478515625,0.9980000257492065,16,0.0,0.0,1.17645005E9,,,,0,,6,-1.49,1.17645005E9,363.0,NaN,NaN
Raw,232967928676006,649772208000000,,,-1265581155240431092,-0.17286109924316406,58.57850192114711,-4.265235553570511,11.43800872224058,148,5,0.0,81935,384527363874882,8,22.7,-408.457275390625,0.041200000792741776,25,-1765.3382819187452,0.34557229348499413,1.17645005E9,,,,0,,6,-1.49,1.17645005E9,363.0,NaN,NaN
Raw,232967928676006,649772208000000,,,-1265581155240431092,-0.17286109924316406,58.57850192114711,-4.265235553570511,11.43800872224058,148,9,0.0,81935,384527376623859,3,33.5,86.5702133178711,0.0494999997317791,25,375.78523622222923,0.0022170039651624013,1.17645005E9,,,,0,,6,-1.49,1.17645005E9,363.0,NaN,NaN
Raw,232967928676006,649772208000000,,,-1265581155240431092,-0.17286109924316406,58.57850192114711,-4.265235553570511,11.43800872224058,148,24,0.0,81935,384527367366874,10,20.4,-540.9269409179688,0.08619999885559082,25,-2346.528221789008,0.34557229348499413,1.17645005E9,,,,0,,6,-1.49,1.17645005E9,363.0,NaN,NaN
Raw,232967928676006,649772208000000,,,-1265581155240431092,-0.17286109924316406,58.57850192114711,-4.265235553570511,11.43800872224058,148,31,0.0,81935,384527369843383,2,37.3,-114.79357147216797,0.035600002855062485,25,-496.5571568972996,0.0013505885638054542,1.17645005E9,,,,0,,6,-1.49,1.17645005E9,363.0,NaN,NaN
Fix,gps,51.524637,-0.134285,81.224121,0.000000,4.299337,1582195711000,232968907287041
Raw,232968922460689,649773208000000,,,-1265581155240431094,-0.1398143768310547,57.00639303540811,-5.50912830389356,11.437458389327475,148,5,0.0,16399,384528366441461,24,25.7,727.29248046875,0.04230000078678131,21,7490.699728750145,0.19029366893311156,1.57542003E9,,,,0,,1,1.11,1.57542003E9,363.0,NaN,NaN
Raw,232968922460689,649773208000000,,,-1265581155240431094,-0.1398143768310547,57.00639303540811,-5.50912830389356,11.437458389327475,148,13,0.0,16399,384528380142974,8,36.4,257.2345275878906,0.004600000102072954,25,2946.5481526986664,0.001160791358090767,1.57542003E9,,,,0,,1,1.11,1.57542003E9,363.0,NaN,NaN
Raw,232968922460689,649773208000000,,,-1265581155240431094,-0.1398143768310547,57.00639303540811,-5.50912830389356,11.437458389327475,148,15,0.0,16399,384528380870672,4,42.1,-70.80087280273438,0.003100000089034438,25,-826.9630452647569,5.899103906353357E-4,1.57542003E9,,,,0,,1,1.11,1.57542003E9,363.0,NaN,NaN
