# 
# Header Description:
# 
# Version: v2.0.0.1 Platform: 10 Manufacturer: Google Model: Pixel 4
# 
# Raw,ElapsedRealtimeNanos,TimeNanos,LeapSecond,TimeUncertaintyNanos,FullBiasNanos,BiasNanos,BiasUncertaintyNanos,DriftNanosPerSecond,DriftUncertaintyNanosPerSecond,HardwareClockDiscontinuityCount,Svid,TimeOffsetNanos,State,ReceivedSvTimeNanos,ReceivedSvTimeUncertaintyNanos,Cn0DbHz,PseudorangeRateMetersPerSecond,PseudorangeRateUncertaintyMetersPerSecond,AccumulatedDeltaRangeState,AccumulatedDeltaRangeMeters,AccumulatedDeltaRangeUncertaintyMeters,CarrierFrequencyHz,CarrierCycles,CarrierPhase,CarrierPhaseUncertainty,MultipathIndicator,SnrInDb,ConstellationType,AgcDb,CarrierFrequencyHz,UserLatitude,UserLongitude,UserAltitude
# 
# Fix,Provider,Latitude,Longitude,Altitude,Speed,Accuracy,(UTC)TimeInMs,ElapsedRealtimeNanos
# 
# Nav,Svid,Type,Status,MessageId,Sub-messageId,Data(Bytes)
# 
Fix,gps,51.524677,-0.134431,76.947083,0.000000,3.790092,1582195001000,232258898568655
Raw,232258912755063,649063161000000,,,-1265581155274100646,-0.39896154403686523,49.583879444980994,78.3475184946283,9.64407214264689,78,5,0.0,16399,383818354828123,21,26.6,743.6102294921875,0.047700002789497375,21,1081.5300530076433,0.005442398901996786,1.57542003E9,,,,0,,1,0.59,1.57542003E9,350.0,NaN,NaN
Raw,232258912755063,649063161000000,,,-1265581155274100646,-0.39896154403686523,49.583879444980994,78.3475184946283,9.64407214264689,78,13,0.0,16399,383818367347428,8,36.4,216.59828186035156,0.030100001022219658,25,3579.922863071342,0.001160791358090767,1.57542003E9,,,,0,,1,0.59,1.57542003E9,350.0,NaN,NaN
Raw,232258912755063,649063161000000,,,-1265581155274100646,-0.39896154403686523,49.583879444980994,78.3475184946283,9.64407214264689,78,15,0.0,16399,383818367285050,11,33.2,-121.95780181884766,0.031700000166893005,25,-2064.37384089519,0.001655554942969963,1.57542003E9,,,,0,,1,0.59,1.57542003E9,350.0,NaN,NaN
Raw,232258912755063,649063161000000,,,-1265581155274100646,-0.39896154403686523,49.583879444980994,78.3475184946283,9.64407214264689,78,17,0.0,16399,383818352095052,13,31.0,-525.4241333007812,0.04010000079870224,17,-8459.113727146083,0.002074201012354331,1.57542003E9,,,,0,,1,0.59,1.57542003E9,350.0,NaN,NaN
Raw,232258912755063,649063161000000,,,-1265581155274100646,-0.39896154403686523,49.583879444980994,78.3475184946283,9.64407214264689,78,20,0.0,16399,383818358111510,31,23.0,-367.1751708984375,0.13819999992847443,19,-4976.620525403588,0.19029366893311156,1.57542003E9,,,,0,,1,0.59,1.57542003E9,350.0,NaN,NaN
Raw,232258912755063,649063161000000,,,-1265581155274100646,-0.39896154403686523,49.583879444980994,78.3475184946283,9.64407214264689,78,24,0.0,16399,383818358945554,27,24.4,-577.4060668945312,0.06830000132322311,17,-842.5867229020164,0.19029366893311156,1.57542003E9,,,,0,,1,0.59,1.57542003E9,350.0,NaN,NaN
Raw,232258912755063,649063161000000,,,-1265581155274100646,-0.39896154403686523,49.583879444980994,78.3475184946283,9.64407214264689,78,28,0.0,16399,383818363703418,4,43.2,177.36618041992188,0.02250000089406967,25,2925.525318606153,5.137929194467054E-4,1.57542003E9,,,,0,,1,0.59,1.57542003E9,350.0,NaN,NaN
Raw,232258912755063,649063161000000,,,-1265581155274100646,-0.39896154403686523,49.583879444980994,78.3475184946283,9.64407214264689,78,30,0.0,16399,383818357693325,6,39.5,604.7879638671875,0.04430000111460686,25,10153.875024234107,8.372921387687362E-4,1.57542003E9,,,,0,,1,0.59,1.57542003E9,350.0,NaN,NaN
Raw,232258912755063,649063161000000,,,-1265581155274100646,-0.39896154403686523,49.583879444980994,78.3475184946283,9.64407214264689,78,14,0.0,49359,49000371192307,8,36.8,-49.91181564331055,0.2361000031232834,25,-837.3856328057897,0.0011443444794587703,1.59806246E9,,,,0,,3,-0.21,1.59806246E9,350.0,NaN,NaN
Raw,232258912755063,649063161000000,,,-1265581155274100646,-0.39896154403686523,49.583879444980994,78.3475184946283,9.64407214264689,78,22,0.0,49359,49000357392332,53,19.8,-190.07814025878906,1.1419999599456787,16,0.0,0.0,1.60031245E9,,,,0,,3,-0.21,1.60031245E9,350.0,NaN,NaN
Raw,232258912755063,649063161000000,,,-1265581155274100646,-0.39896154403686523,49.583879444980994,78.3475184946283,9.64407214264689,78,13,0.0,49359,49000364757540,17,28.2,645.2599487304688,0.23120000958442688,25,9377.425431927904,0.002958832253614959,1.60087501E9,,,,0,,3,-0.21,1.60087501E9,350.0,NaN,NaN
Raw,232258912755063,649063161000000,,,-1265581155274100646,-0.39896154403686523,49.583879444980994,78.3475184946283,9.64407214264689,78,5,0.0,49359,49000365457052,4,42.9,-565.4971313476562,0.225600004196167,25,-9281.999258498341,5.799191056178505E-4,1.60256256E9,,,,0,,3,-0.21,1.60256256E9,350.0,NaN,NaN
Raw,232258912755063,649063161000000,,,-1265581155274100646,-0.39896154403686523,49.583879444980994,78.3475184946283,9.64407214264689,78,3,0.0,49359,49000361636744,12,32.1,776.1497192382812,0.22310000658035278,25,12704.998454139355,0.0017746797095208008,1.60481254E9,,,,0,,3,-0.21,1.60481254E9,350.0,NaN,NaN
Raw,232258912755063,649063161000000,,,-1265581155274100646,-0.39896154403686523,49.583879444980994,78.3475184946283,9.64407214264689,78,4,0.0,49359,49000370859974,6,38.3,180.9335174560547,0.23409999907016754,25,2944.472735771039,9.150404631835356E-4,1.60537498E9,,,,0,,3,-0.21,1.60537498E9,350.0,NaN,NaN
Raw,232258912755063,649063161000000,,,-1265581155274100646,-0.39896154403686523,49.583879444980994,78.3475184946283,9.64407214264689,78,37,0.0,16399,383804356028683,12,32.2,488.9081115722656,0.04560000076889992,25,8185.104408449798,0.0018243750799829725,1.56109798E9,,,,0,,5,1.01,1.56109798E9,350.0,NaN,NaN
Raw,232258912755063,649063161000000,,,-1265581155274100646,-0.39896154403686523,49.583879444980994,78.3475184946283,9.64407214264689,78,22,0.0,16399,383804354776672,10,34.5,-403.9280090332031,0.041600000113248825,25,-6083.85070743772,0.001536315979199305,1.56109798E9,,,,0,,5,1.01,1.56109798E9,350.0,NaN,NaN
Raw,232258912755063,649063161000000,,,-1265581155274100646,-0.39896154403686523,49.583879444980994,78.3475184946283,9.64407214264689,78,20,0.0,16399,383804352804709,13,31.4,648.9479370117188,0.04010000079870224,25,6705.110887586679,0.0020932304434118673,1.56109798E9,,,,0,,5,1.01,1.56109798E9,350.0,NaN,NaN
Raw,232258912755063,649063161000000,,,-1265581155274100646,-0.39896154403686523,49.583879444980994,78.3475184946283,9.64407214264689,78,10,0.0,16399,383804302892815,10,34.9,189.03738403320312,0.023600000888109207,25,2837.632294355065,0.001536315979199305,1.56109798E9,,,,0,,5,1.01,1.56109798E9,350.0,NaN,NaN
Raw,232258912755063,649063161000000,,,-1265581155274100646,-0.39896154403686523,49.583879444980994,78.3475184946283,9.64407214264689,78,1,0.0,23567,383818351086384,9,35.4,394.5206298828125,0.048600003123283386,25,6577.0954709675925,0.0028924638165555576,1.57542003E9,,,,0,,6,0.71,1.57542003E9,350.0,NaN,NaN
Raw,232258912755063,649063161000000,,,-1265581155274100646,-0.39896154403686523,49.583879444980994,78.3475184946283,9.64407214264689,78,4,0.0,23567,383818349218233,8,36.1,512.2062377929688,0.045100003480911255,25,7453.558098050453,0.0025499350854412276,1.57542003E9,,,,0,,6,0.71,1.57542003E9,350.0,NaN,NaN
Raw,232258912755063,649063161000000,,,-1265581155274100646,-0.39896154403686523,49.583879444980994,78.3475184946283,9.64407214264689,78,9,0.0,23567,383818363431978,12,32.8,59.106502532958984,0.06509999930858612,25,976.242290952298,0.003958108324583987,1.57542003E9,,,,0,,6,0.71,1.57542003E9,350.0,NaN,NaN
Raw,232258912755063,649063161000000,,,-1265581155274100646,-0.39896154403686523,49.583879444980994,78.3475184946283,9.64407214264689,78,24,0.0,23567,383818352723262,35,22.1,-540.3388671875,0.8104999661445618,16,0.0,0.0,1.57542003E9,,,,0,,6,0.71,1.57542003E9,350.0,NaN,NaN
Raw,232258912755063,649063161000000,,,-1265581155274100646,-0.39896154403686523,49.583879444980994,78.3475184946283,9.64407214264689,78,31,0.0,23567,383818356170729,9,35.9,-146.2824249267578,0.04410000145435333,25,-1988.949217510254,0.0028924638165555576,1.57542003E9,,,,0,,6,0.71,1.57542003E9,350.0,NaN,NaN
Raw,232258912755063,649063161000000,,,-1265581155274100646,-0.39896154403686523,49.583879444980994,78.3475184946283,9.64407214264689,78,24,0.0,81935,383818358953504,20,14.9,-578.204833984375,4.383500099182129,16,0.0,0.0,1.17645005E9,,,,0,,1,-8.73,1.17645005E9,350.0,NaN,NaN
Raw,232258912755063,649063161000000,,,-1265581155274100646,-0.39896154403686523,49.583879444980994,78.3475184946283,9.64407214264689,78,30,0.0,81935,383818357701143,2,37.8,604.7899169921875,0.047600001096725464,25,6252.7318034455,0.0013505885638054542,1.17645005E9,,,,0,,1,-8.73,1.17645005E9,350.0,NaN,NaN
Raw,232258912755063,649063161000000,,,-1265581155274100646,-0.39896154403686523,49.583879444980994,78.3475184946283,9.64407214264689,78,1,0.0,81935,383818351093499,5,28.6,394.6784973144531,0.04960000142455101,25,4074.4432490557965,0.0040262828122019055,1.17645005E9,,,,0,,6,-8.73,1.17645005E9,350.0,NaN,NaN
Raw,232258912755063,649063161000000,,,-1265581155274100646,-0.39896154403686523,49.583879444980994,78.3475184946283,9.64407214264689,78,4,0.0,81935,383818349225321,8,22.8,512.2938842773438,0.050200000405311584,29,5291.12227285473,0.34557229348499413,1.17645005E9,,,,0,,6,-8.73,1.17645005E9,350.0,NaN,NaN
Raw,232258912755063,649063161000000,,,-1265581155274100646,-0.39896154403686523,49.583879444980994,78.3475184946283,9.64407214264689,78,5,0.0,81935,383818349547329,9,21.7,-411.5428161621094,0.058900002390146255,25,-4249.666334112461,0.25482803839368795,1.17645005E9,,,,0,,6,-8.73,1.17645005E9,350.0,NaN,NaN
Raw,232258912755063,649063161000000,,,-1265581155274100646,-0.39896154403686523,49.583879444980994,78.3475184946283,9.64407214264689,78,9,0.0,81935,383818363439041,3,33.5,59.404293060302734,0.030000001192092896,25,609.1048647762553,0.0022170039651624013,1.17645005E9,,,,0,,6,-8.73,1.17645005E9,350.0,NaN,NaN
Raw,232258912755063,649063161000000,,,-1265581155274100646,-0.39896154403686523,49.583879444980994,78.3475184946283,9.64407214264689,78,24,0.0,81935,383818352730361,11,19.4,-540.2966918945312,0.1678999960422516,27,-5583.553883957987,0.25482803839368795,1.17645005E9,,,,0,,6,-8.73,1.17645005E9,350.0,NaN,NaN
Raw,232258912755063,649063161000000,,,-1265581155274100646,-0.39896154403686523,49.583879444980994,78.3475184946283,9.64407214264689,78,31,0.0,81935,383818356177806,3,31.4,-146.07655334472656,0.05180000141263008,25,-1513.1955528562607,0.0027776256465907277,1.17645005E9,,,,0,,6,-8.73,1.17645005E9,350.0,NaN,NaN
Fix,gps,51.524676,-0.134429,77.187378,0.000000,3.790092,1582195002000,232259898761932
Raw,232259912909277,649064161000000,,,-1265581155274100563,-0.6453628540039062,48.9748090330977,80.13764012193273,9.576672266366955,78,13,0.0,16399,383819367346728,10,34.0,216.22373962402344,0.03110000118613243,25,3796.0159682137296,0.0015223494237726067,1.57542003E9,,,,0,,1,0.73,1.57542003E9,350.0,NaN,NaN
Raw,232259912909277,649064161000000,,,-1265581155274100563,-0.6453628540039062,48.9748090330977,80.13764012193273,9.576672266366955,78,15,0.0,16399,383819367285444,12,32.4,-122.33573913574219,0.03210000321269035,25,-2186.837487005875,0.001807789796734829,1.57542003E9,,,,0,,1,0.73,1.57542003E9,350.0,NaN,NaN
Raw,232259912909277,649064161000000,,,-1265581155274100563,-0.6453628540039062,48.9748090330977,80.13764012193273,9.576672266366955,78,17,0.0,16399,383819352096863,13,31.1,-525.9852294921875,0.04010000079870224,17,-8985.14210306212,0.002074201012354331,1.57542003E9,,,,0,,1,0.73,1.57542003E9,350.0,NaN,NaN
Raw,232259912909277,649064161000000,,,-1265581155274100563,-0.6453628540039062,48.9748090330977,80.13764012193273,9.576672266366955,78,20,0.0,16399,383819358112565,31,23.5,-367.46990966796875,0.13819999992847443,21,-5344.164306090239,0.19029366893311156,1.57542003E9,,,,0,,1,0.73,1.57542003E9,350.0,NaN,NaN
Raw,232259912909277,649064161000000,,,-1265581155274100563,-0.6453628540039062,48.9748090330977,80.13764012193273,9.576672266366955,78,28,0.0,16399,383819363702825,4,44.2,176.96612548828125,0.022300001233816147,25,3102.3735682519978,4.947635405729984E-4,1.57542003E9,,,,0,,1,0.73,1.57542003E9,350.0,NaN,NaN
Raw,232259912909277,649064161000000,,,-1265581155274100563,-0.6453628540039062,48.9748090330977,80.13764012193273,9.576672266366955,78,30,0.0,16399,383819357691313,5,40.6,604.2046508789062,0.04410000145435333,25,10758.05321003109,7.42145288706399E-4,1.57542003E9,,,,0,,1,0.73,1.57542003E9,350.0,NaN,NaN
Raw,232259912909277,649064161000000,,,-1265581155274100563,-0.6453628540039062,48.9748090330977,80.13764012193273,9.576672266366955,78,14,0.0,49359,49001371192481,6,39.4,-50.27054214477539,0.2353000044822693,25,-887.788386297882,8.254288163121457E-4,1.59806246E9,,,,0,,3,-0.06,1.59806246E9,350.0,NaN,NaN
Raw,232259912909277,649064161000000,,,-1265581155274100563,-0.6453628540039062,48.9748090330977,80.13764012193273,9.576672266366955,78,22,0.0,49359,49001357393292,61,18.2,-189.89080810546875,1.2220001220703125,16,0.0,0.0,1.60031245E9,,,,0,,3,-0.06,1.60031245E9,350.0,NaN,NaN
Raw,232259912909277,649064161000000,,,-1265581155274100563,-0.6453628540039062,48.9748090330977,80.13764012193273,9.576672266366955,78,13,0.0,49359,49001364755419,24,25.5,644.7415771484375,0.23930001258850098,25,10022.100585068716,0.18726787319550683,1.60087501E9,,,,0,,3,-0.06,1.60087501E9,350.0,NaN,NaN
Raw,232259912909277,649064161000000,,,-1265581155274100563,-0.6453628540039062,48.9748090330977,80.13764012193273,9.576672266366955,78,5,0.0,49359,49001365458921,4,42.9,-565.9190673828125,0.225600004196167,25,-9848.019838423306,5.799191056178505E-4,1.60256256E9,,,,0,,3,-0.06,1.60256256E9,350.0,NaN,NaN
Raw,232259912909277,649064161000000,,,-1265581155274100563,-0.6453628540039062,48.9748090330977,80.13764012193273,9.576672266366955,78,3,0.0,49359,49001361634155,13,31.5,775.6968383789062,0.22360000014305115,25,13480.588231655458,0.002036211542260784,1.60481254E9,,,,0,,3,-0.06,1.60481254E9,350.0,NaN,NaN
Raw,232259912909277,649064161000000,,,-1265581155274100563,-0.6453628540039062,48.9748090330977,80.13764012193273,9.576672266366955,78,4,0.0,49359,49001370859368,5,40.2,180.56219482421875,0.23360000550746918,25,3124.910768259304,7.282974831186631E-4,1.60537498E9,,,,0,,3,-0.06,1.60537498E9,350.0,NaN,NaN
Raw,232259912909277,649064161000000,,,-1265581155274100563,-0.6453628540039062,48.9748090330977,80.13764012193273,9.576672266366955,78,37,0.0,16399,383805356027068,10,34.1,488.4742431640625,0.044600002467632294,25,8673.48134481675,0.001536315979199305,1.56109798E9,,,,0,,5,1.2,1.56109798E9,350.0,NaN,NaN
Raw,232259912909277,649064161000000,,,-1265581155274100563,-0.6453628540039062,48.9748090330977,80.13764012193273,9.576672266366955,78,22,0.0,16399,383805354778023,10,34.1,-404.4051208496094,0.041600000113248825,25,-6488.338859188169,0.001536315979199305,1.56109798E9,,,,0,,5,1.2,1.56109798E9,350.0,NaN,NaN
Raw,232259912909277,649064161000000,,,-1265581155274100563,-0.6453628540039062,48.9748090330977,80.13764012193273,9.576672266366955,78,20,0.0,16399,383805352802557,13,31.4,648.4007568359375,0.04010000079870224,25,7353.459212642865,0.0020932304434118673,1.56109798E9,,,,0,,5,1.2,1.56109798E9,350.0,NaN,NaN
Raw,232259912909277,649064161000000,,,-1265581155274100563,-0.6453628540039062,48.9748090330977,80.13764012193273,9.576672266366955,78,19,0.0,16399,383805361776993,70,17.4,192.46197509765625,3.4180002212524414,16,0.0,0.0,1.56109798E9,,,,0,,5,1.2,1.56109798E9,350.0,NaN,NaN
Raw,232259912909277,649064161000000,,,-1265581155274100563,-0.6453628540039062,48.9748090330977,80.13764012193273,9.576672266366955,78,11,0.0,16399,383805345769896,159,11.1,198.24237060546875,10.004000663757324,16,0.0,0.0,1.56109798E9,,,,0,,5,1.2,1.56109798E9,350.0,NaN,NaN
Raw,232259912909277,649064161000000,,,-1265581155274100563,-0.6453628540039062,48.9748090330977,80.13764012193273,9.576672266366955,78,10,0.0,16399,383805302892176,9,35.3,188.48800659179688,0.023100001737475395,25,3026.071380145231,0.0013442764594430532,1.56109798E9,,,,0,,5,1.2,1.56109798E9,350.0,NaN,NaN
Raw,232259912909277,649064161000000,,,-1265581155274100563,-0.6453628540039062,48.9748090330977,80.13764012193273,9.576672266366955,78,1,0.0,23567,383819351085077,9,35.7,393.96697998046875,0.048600003123283386,25,6971.010682042457,0.0028924638165555576,1.57542003E9,,,,0,,6,0.79,1.57542003E9,350.0,NaN,NaN
Raw,232259912909277,649064161000000,,,-1265581155274100563,-0.6453628540039062,48.9748090330977,80.13764012193273,9.576672266366955,78,4,0.0,23567,383819349216526,7,37.6,511.695068359375,0.04490000009536743,25,7965.220509223738,0.0021883771969841777,1.57542003E9,,,,0,,6,0.79,1.57542003E9,350.0,NaN,NaN
Raw,232259912909277,649064161000000,,,-1265581155274100563,-0.6453628540039062,48.9748090330977,80.13764012193273,9.576672266366955,78,5,0.0,23567,383819349541559,61,18.4,-412.0714111328125,1.7720000743865967,16,0.0,0.0,1.57542003E9,,,,0,,6,0.79,1.57542003E9,350.0,NaN,NaN
Raw,232259912909277,649064161000000,,,-1265581155274100563,-0.6453628540039062,48.9748090330977,80.13764012193273,9.576672266366955,78,9,0.0,23567,383819363431781,8,36.0,58.731781005859375,0.06310000270605087,25,1034.8566926299834,0.0025499350854412276,1.57542003E9,,,,0,,6,0.79,1.57542003E9,350.0,NaN,NaN
Raw,232259912909277,649064161000000,,,-1265581155274100563,-0.6453628540039062,48.9748090330977,80.13764012193273,9.576672266366955,78,24,0.0,23567,383819352725011,40,21.9,-540.9383544921875,0.8104999661445618,16,0.0,0.0,1.57542003E9,,,,0,,6,0.79,1.57542003E9,350.0,NaN,NaN
Raw,232259912909277,649064161000000,,,-1265581155274100563,-0.6453628540039062,48.9748090330977,80.13764012193273,9.576672266366955,78,31,0.0,23567,383819356171213,6,38.0,-146.79598999023438,0.04310000315308571,25,-2135.800008598636,0.0020551716777868216,1.57542003E9,,,,0,,6,0.79,1.57542003E9,350.0,NaN,NaN
Raw,232259912909277,649064161000000,,,-1265581155274100563,-0.6453628540039062,48.9748090330977,80.13764012193273,9.576672266366955,78,24,0.0,81935,383819358955425,10,20.6,-577.892822265625,0.10270000249147415,27,-4826.217865183166,0.25482803839368795,1.17645005E9,,,,0,,1,-3.52,1.17645005E9,350.0,NaN,NaN
Raw,232259912909277,649064161000000,,,-1265581155274100563,-0.6453628540039062,48.9748090330977,80.13764012193273,9.576672266366955,78,30,0.0,81935,383819357699126,2,41.2,604.226806640625,0.04560000076889992,25,6856.909379714898,9.173809224587568E-4,1.17645005E9,,,,0,,1,-3.52,1.17645005E9,350.0,NaN,NaN
Raw,232259912909277,649064161000000,,,-1265581155274100563,-0.6453628540039062,48.9748090330977,80.13764012193273,9.576672266366955,78,1,0.0,81935,383819351092180,4,30.0,393.9202880859375,0.04570000246167183,25,4468.365759731703,0.0032108332879374254,1.17645005E9,,,,0,,6,-3.52,1.17645005E9,350.0,NaN,NaN
Raw,232259912909277,649064161000000,,,-1265581155274100563,-0.6453628540039062,48.9748090330977,80.13764012193273,9.576672266366955,78,4,0.0,81935,383819349223618,7,24.2,511.6018981933594,0.04560000076889992,29,5802.643404278323,0.08959753608771179,1.17645005E9,,,,0,,6,-3.52,1.17645005E9,350.0,NaN,NaN
Raw,232259912909277,649064161000000,,,-1265581155274100563,-0.6453628540039062,48.9748090330977,80.13764012193273,9.576672266366955,78,5,0.0,81935,383819349548723,8,23.3,-412.18902587890625,0.047700002789497375,25,-4661.9083184150295,0.25482803839368795,1.17645005E9,,,,0,,6,-3.52,1.17645005E9,350.0,NaN,NaN
Raw,232259912909277,649064161000000,,,-1265581155274100563,-0.6453628540039062,48.9748090330977,80.13764012193273,9.576672266366955,78,9,0.0,81935,383819363438843,2,36.6,58.68467712402344,0.027400000020861626,25,667.7235566359492,0.0015544510042033504,1.17645005E9,,,,0,,6,-3.52,1.17645005E9,350.0,NaN,NaN
Raw,232259912909277,649064161000000,,,-1265581155274100563,-0.6453628540039062,48.9748090330977,80.13764012193273,9.576672266366955,78,24,0.0,81935,383819352732164,11,19.4,-541.0252075195312,0.1678999960422516,25,-6124.518241454724,0.25482803839368795,1.17645005E9,,,,0,,6,-3.52,1.17645005E9,350.0,NaN,NaN
Raw,232259912909277,649064161000000,,,-1265581155274100563,-0.6453628540039062,48.9748090330977,80.13764012193273,9.576672266366955,78,31,0.0,81935,383819356178300,4,30.3,-146.82440185546875,0.05320000275969505,25,-1660.051380346695,0.0032108332879374254,1.17645005E9,,,,0,,6,-3.52,1.17645005E9,350.0,NaN,NaN
Fix,gps,51.524676,-0.134426,77.419373,0.000000,3.790092,1582195003000,232260904467605
Raw,232260930266410,649065161000000,,,-1265581155274100487,-0.9102110862731934,47.890833229757845,78.07695193051676,9.576778038444186,78,13,0.0,16399,383820367346017,13,31.3,216.73011779785156,0.032600000500679016,25,4012.657806432646,0.002074201012354331,1.57542003E9,,,,0,,1,0.73,1.57542003E9,350.0,NaN,NaN
Raw,232260930266410,649065161000000,,,-1265581155274100487,-0.9102110862731934,47.890833229757845,78.07695193051676,9.576778038444186,78,15,0.0,16399,383820367285838,10,34.6,-121.79864501953125,0.03110000118613243,25,-2308.7306032261786,0.0015223494237726067,1.57542003E9,,,,0,,1,0.73,1.57542003E9,350.0,NaN,NaN
Raw,232260930266410,649065161000000,,,-1265581155274100487,-0.9102110862731934,47.890833229757845,78.07695193051676,9.576778038444186,78,17,0.0,16399,383820352098534,13,31.3,-525.4892578125,0.04010000079870224,25,-9510.675709024184,0.002074201012354331,1.57542003E9,,,,0,,1,0.73,1.57542003E9,350.0,NaN,NaN
Raw,232260930266410,649065161000000,,,-1265581155274100487,-0.9102110862731934,47.890833229757845,78.07695193051676,9.576778038444186,78,20,0.0,16399,383820358113784,24,25.4,-366.88262939453125,0.06030000001192093,29,-5711.133028678608,0.19029366893311156,1.57542003E9,,,,0,,1,0.73,1.57542003E9,350.0,NaN,NaN
Raw,232260930266410,649065161000000,,,-1265581155274100487,-0.9102110862731934,47.890833229757845,78.07695193051676,9.576778038444186,78,24,0.0,16399,383820358949392,24,25.7,-577.1323852539062,0.030300000682473183,19,-264.97162489455656,0.19029366893311156,1.57542003E9,,,,0,,1,0.73,1.57542003E9,350.0,NaN,NaN
Raw,232260930266410,649065161000000,,,-1265581155274100487,-0.9102110862731934,47.890833229757845,78.07695193051676,9.576778038444186,78,28,0.0,16399,383820363702231,4,44.0,177.51934814453125,0.022300001233816147,25,3279.8020191579967,4.947635405729984E-4,1.57542003E9,,,,0,,1,0.73,1.57542003E9,350.0,NaN,NaN
Raw,232260930266410,649065161000000,,,-1265581155274100487,-0.9102110862731934,47.890833229757845,78.07695193051676,9.576778038444186,78,30,0.0,16399,383820357689302,5,40.5,604.7161865234375,0.04410000145435333,25,11362.728393018419,7.42145288706399E-4,1.57542003E9,,,,0,,1,0.73,1.57542003E9,350.0,NaN,NaN
Raw,232260930266410,649065161000000,,,-1265581155274100487,-0.9102110862731934,47.890833229757845,78.07695193051676,9.576778038444186,78,14,0.0,49359,49002371192617,5,40.8,-49.687217712402344,0.23510000109672546,25,-937.5803203145849,7.316300713026974E-4,1.59806246E9,,,,0,,3,-0.02,1.59806246E9,350.0,NaN,NaN
Raw,232260930266410,649065161000000,,,-1265581155274100487,-0.9102110862731934,47.890833229757845,78.07695193051676,9.576778038444186,78,22,0.0,49359,49002357393965,53,19.4,-190.153076171875,1.1419999599456787,16,0.0,0.0,1.60031245E9,,,,0,,3,-0.02,1.60031245E9,350.0,NaN,NaN
Raw,232260930266410,649065161000000,,,-1265581155274100487,-0.9102110862731934,47.890833229757845,78.07695193051676,9.576778038444186,78,13,0.0,49359,49002364753282,27,24.0,645.3114013671875,0.24729999899864197,29,10667.336108934178,0.18726787319550683,1.60087501E9,,,,0,,3,-0.02,1.60087501E9,350.0,NaN,NaN
Raw,232260930266410,649065161000000,,,-1265581155274100487,-0.9102110862731934,47.890833229757845,78.07695193051676,9.576778038444186,78,15,0.0,49359,49002362453998,80,16.6,-658.8884887695312,4.369499683380127,16,0.0,0.0,1.602E9,,,,0,,3,-0.02,1.602E9,350.0,NaN,NaN
Raw,232260930266410,649065161000000,,,-1265581155274100487,-0.9102110862731934,47.890833229757845,78.07695193051676,9.576778038444186,78,5,0.0,49359,49002365460826,4,42.5,-565.39453125,0.225600004196167,25,-10413.495168260513,5.799191056178505E-4,1.60256256E9,,,,0,,3,-0.02,1.60256256E9,350.0,NaN,NaN
Raw,232260930266410,649065161000000,,,-1265581155274100487,-0.9102110862731934,47.890833229757845,78.07695193051676,9.576778038444186,78,3,0.0,49359,49002361631566,14,30.8,776.215087890625,0.22439999878406525,25,14256.728945578787,0.002353785798744343,1.60481254E9,,,,0,,3,-0.02,1.60481254E9,350.0,NaN,NaN
Raw,232260930266410,649065161000000,,,-1265581155274100487,-0.9102110862731934,47.890833229757845,78.07695193051676,9.576778038444186,78,4,0.0,49359,49002370858783,6,39.0,181.16384887695312,0.233800008893013,25,3305.9691320185516,8.216689731510993E-4,1.60537498E9,,,,0,,3,-0.02,1.60537498E9,350.0,NaN,NaN
Raw,232260930266410,649065161000000,,,-1265581155274100487,-0.9102110862731934,47.890833229757845,78.07695193051676,9.576778038444186,78,37,0.0,16399,383806356025413,11,33.8,488.9611511230469,0.04520000144839287,25,9162.387583872125,0.0016707435714883973,1.56109798E9,,,,0,,5,1.24,1.56109798E9,350.0,NaN,NaN
Raw,232260930266410,649065161000000,,,-1265581155274100487,-0.9102110862731934,47.890833229757845,78.07695193051676,9.576778038444186,78,22,0.0,16399,383806354779377,9,35.2,-403.88055419921875,0.04110000282526016,25,-6892.283729455894,0.0013442764594430532,1.56109798E9,,,,0,,5,1.24,1.56109798E9,350.0,NaN,NaN
Raw,232260930266410,649065161000000,,,-1265581155274100487,-0.9102110862731934,47.890833229757845,78.07695193051676,9.576778038444186,78,20,0.0,16399,383806352800410,14,30.5,648.8886108398438,0.04090000316500664,25,8002.303892126307,0.0024196975554572116,1.56109798E9,,,,0,,5,1.24,1.56109798E9,350.0,NaN,NaN
Raw,232260930266410,649065161000000,,,-1265581155274100487,-0.9102110862731934,47.890833229757845,78.07695193051676,9.576778038444186,78,19,0.0,16399,383806361776325,35,22.2,192.35635375976562,0.7730000019073486,16,0.0,0.0,1.56109798E9,,,,0,,5,1.24,1.56109798E9,350.0,NaN,NaN
Raw,232260930266410,649065161000000,,,-1265581155274100487,-0.9102110862731934,47.890833229757845,78.07695193051676,9.576778038444186,78,10,0.0,16399,383806302891560,10,34.8,188.9656219482422,0.023600000888109207,25,3215.000612876324,0.001536315979199305,1.56109798E9,,,,0,,5,1.24,1.56109798E9,350.0,NaN,NaN
Raw,232260930266410,649065161000000,,,-1265581155274100487,-0.9102110862731934,47.890833229757845,78.07695193051676,9.576778038444186,78,5,0.0,17167,383806299042519,70,17.9,30.793533325195312,13.152400016784668,16,0.0,0.0,1.56109798E9,,,,0,,5,1.24,1.56109798E9,350.0,NaN,NaN
Raw,232260930266410,649065161000000,,,-1265581155274100487,-0.9102110862731934,47.890833229757845,78.07695193051676,9.576778038444186,78,1,0.0,23567,383820351083750,9,35.4,394.5016784667969,0.048600003123283386,25,7365.467110267912,0.0028924638165555576,1.57542003E9,,,,0,,6,0.79,1.57542003E9,350.0,NaN,NaN
Raw,232260930266410,649065161000000,,,-1265581155274100487,-0.9102110862731934,47.890833229757845,78.07695193051676,9.576778038444186,78,4,0.0,23567,383820349214826,6,38.0,512.1795654296875,0.044600002467632294,25,8477.371309942342,0.0020551716777868216,1.57542003E9,,,,0,,6,0.79,1.57542003E9,350.0,NaN,NaN
Raw,232260930266410,649065161000000,,,-1265581155274100487,-0.9102110862731934,47.890833229757845,78.07695193051676,9.576778038444186,78,5,0.0,23567,383820349542870,53,19.5,-412.1095275878906,0.9419999718666077,16,0.0,0.0,1.57542003E9,,,,0,,6,0.79,1.57542003E9,350.0,NaN,NaN
Raw,232260930266410,649065161000000,,,-1265581155274100487,-0.9102110862731934,47.890833229757845,78.07695193051676,9.576778038444186,78,9,0.0,23567,383820363431572,8,36.7,59.20168685913086,0.06310000270605087,25,1093.995081697894,0.0025499350854412276,1.57542003E9,,,,0,,6,0.79,1.57542003E9,350.0,NaN,NaN
Raw,232260930266410,649065161000000,,,-1265581155274100487,-0.9102110862731934,47.890833229757845,78.07695193051676,9.576778038444186,78,24,0.0,23567,383820352726825,35,22.6,-540.6338500976562,0.750499963760376,16,0.0,0.0,1.57542003E9,,,,0,,6,0.79,1.57542003E9,350.0,NaN,NaN
Raw,232260930266410,649065161000000,,,-1265581155274100487,-0.9102110862731934,47.890833229757845,78.07695193051676,9.576778038444186,78,31,0.0,23567,383820356171698,6,38.0,-146.24180603027344,0.04310000315308571,25,-2282.095632765384,0.0020551716777868216,1.57542003E9,,,,0,,6,0.79,1.57542003E9,350.0,NaN,NaN
Raw,232260930266410,649065161000000,,,-1265581155274100487,-0.9102110862731934,47.890833229757845,78.07695193051676,9.576778038444186,78,24,0.0,81935,383820358957352,11,19.0,-577.4403076171875,1.0234999656677246,16,0.0,0.0,1.17645005E9,,,,0,,1,-1.11,1.17645005E9,350.0,NaN,NaN
Raw,232260930266410,649065161000000,,,-1265581155274100487,-0.9102110862731934,47.890833229757845,78.07695193051676,9.576778038444186,78,30,0.0,81935,383820357697108,2,41.7,604.7112426757812,0.04560000076889992,25,7461.586813107892,9.173809224587568E-4,1.17645005E9,,,,0,,1,-1.11,1.17645005E9,350.0,NaN,NaN
Raw,232260930266410,649065161000000,,,-1265581155274100487,-0.9102110862731934,47.890833229757845,78.07695193051676,9.576778038444186,78,1,0.0,81935,383820351090865,4,30.6,394.26971435546875,0.04570000246167183,25,4862.833235180687,0.0032108332879374254,1.17645005E9,,,,0,,6,-1.11,1.17645005E9,350.0,NaN,NaN
Raw,232260930266410,649065161000000,,,-1265581155274100487,-0.9102110862731934,47.890833229757845,78.07695193051676,9.576778038444186,78,4,0.0,81935,383820349221902,5,27.1,511.8903503417969,0.0495000034570694,25,6314.817575812026,0.004332076888121183,1.17645005E9,,,,0,,6,-1.11,1.17645005E9,350.0,NaN,NaN
Raw,232260930266410,649065161000000,,,-1265581155274100487,-0.9102110862731934,47.890833229757845,78.07695193051676,9.576778038444186,78,5,0.0,81935,383820349550121,9,21.1,-411.702880859375,0.058900002390146255,25,-5073.53641718194,0.25482803839368795,1.17645005E9,,,,0,,6,-1.11,1.17645005E9,350.0,NaN,NaN
Raw,232260930266410,649065161000000,,,-1265581155274100487,-0.9102110862731934,47.890833229757845,78.07695193051676,9.576778038444186,78,9,0.0,81935,383820363438647,2,36.7,58.94817352294922,0.027400000020861626,25,726.8716495837042,0.0015544510042033504,1.17645005E9,,,,0,,6,-1.11,1.17645005E9,350.0,NaN,NaN
Raw,232260930266410,649065161000000,,,-1265581155274100487,-0.9102110862731934,47.890833229757845,78.07695193051676,9.576778038444186,78,24,0.0,81935,383820352733972,12,18.8,-539.5856323242188,0.934499979019165,16,0.0,0.0,1.17645005E9,,,,0,,6,-1.11,1.17645005E9,350.0,NaN,NaN
Raw,232260930266410,649065161000000,,,-1265581155274100487,-0.9102110862731934,47.890833229757845,78.07695193051676,9.576778038444186,78,31,0.0,81935,383820356178784,3,31.1,-146.5322723388672,0.05180000141263008,25,-1806.3531860891474,0.0027776256465907277,1.17645005E9,,,,0,,6,-1.11,1.17645005E9,350.0,NaN,NaN
Fix,gps,51.524678,-0.134422,77.679138,0.000000,3.790092,1582195004000,232261896943433
Raw,232261909671299,649066161000000,,,-1265581155274100404,-0.7542810440063477,48.41936970478855,79.65007697207207,10.553260288478889,78,13,0.0,16399,383821367345331,14,30.4,216.8287353515625,0.033400002866983414,25,4229.45706062821,0.002397700231676362,1.57542003E9,,,,0,,1,0.68,1.57542003E9,350.0,NaN,NaN
Raw,232261909671299,649066161000000,,,-1265581155274100404,-0.7542810440063477,48.41936970478855,79.65007697207207,10.553260288478889,78,15,0.0,16399,383821367286200,7,37.0,-121.69036102294922,0.029900001361966133,25,-2430.440874201918,0.0010085564157135064,1.57542003E9,,,,0,,1,0.68,1.57542003E9,350.0,NaN,NaN
Raw,232261909671299,649066161000000,,,-1265581155274100404,-0.7542810440063477,48.41936970478855,79.65007697207207,10.553260288478889,78,17,0.0,16399,383821352100359,17,28.8,-525.4692993164062,0.04320000112056732,25,-10036.149894455883,0.0030066398239606148,1.57542003E9,,,,0,,1,0.68,1.57542003E9,350.0,NaN,NaN
Raw,232261909671299,649066161000000,,,-1265581155274100404,-0.7542810440063477,48.41936970478855,79.65007697207207,10.553260288478889,78,20,0.0,16399,383821358115006,24,25.5,-366.7696533203125,0.06030000001192093,25,-6077.938080749094,0.19029366893311156,1.57542003E9,,,,0,,1,0.68,1.57542003E9,350.0,NaN,NaN
Raw,232261909671299,649066161000000,,,-1265581155274100404,-0.7542810440063477,48.41936970478855,79.65007697207207,10.553260288478889,78,24,0.0,16399,383821358951254,24,25.7,-577.3060913085938,0.06030000001192093,21,-842.3058099924828,0.19029366893311156,1.57542003E9,,,,0,,1,0.68,1.57542003E9,350.0,NaN,NaN
Raw,232261909671299,649066161000000,,,-1265581155274100404,-0.7542810440063477,48.41936970478855,79.65007697207207,10.553260288478889,78,28,0.0,16399,383821363701645,4,43.5,177.64736938476562,0.02250000089406967,25,3457.408505669769,5.137929194467054E-4,1.57542003E9,,,,0,,1,0.68,1.57542003E9,350.0,NaN,NaN
Raw,232261909671299,649066161000000,,,-1265581155274100404,-0.7542810440063477,48.41936970478855,79.65007697207207,10.553260288478889,78,30,0.0,16399,383821357687275,5,41.1,604.760009765625,0.043800003826618195,25,11967.483117320802,6.850571963914755E-4,1.57542003E9,,,,0,,1,0.68,1.57542003E9,350.0,NaN,NaN
Raw,232261909671299,649066161000000,,,-1265581155274100404,-0.7542810440063477,48.41936970478855,79.65007697207207,10.553260288478889,78,14,0.0,49359,49003371192768,5,41.4,-49.53981018066406,0.23480001091957092,25,-987.1670167658249,6.753508417684034E-4,1.59806246E9,,,,0,,3,-0.07,1.59806246E9,350.0,NaN,NaN
Raw,232261909671299,649066161000000,,,-1265581155274100404,-0.7542810440063477,48.41936970478855,79.65007697207207,10.553260288478889,78,22,0.0,49359,49003357394287,27,24.8,-190.09481811523438,0.26680001616477966,19,-3360.2904383147666,0.18733370372433672,1.60031245E9,,,,0,,3,-0.07,1.60031245E9,350.0,NaN,NaN
Raw,232261909671299,649066161000000,,,-1265581155274100404,-0.7542810440063477,48.41936970478855,79.65007697207207,10.553260288478889,78,13,0.0,49359,49003364751207,40,21.6,645.3718872070312,0.9924999475479126,16,0.0,0.0,1.60087501E9,,,,0,,3,-0.07,1.60087501E9,350.0,NaN,NaN
Raw,232261909671299,649066161000000,,,-1265581155274100404,-0.7542810440063477,48.41936970478855,79.65007697207207,10.553260288478889,78,15,0.0,49359,49003362456197,27,24.4,-658.155517578125,0.2443000078201294,19,-12216.389015332497,0.18713636579275905,1.602E9,,,,0,,3,-0.07,1.602E9,350.0,NaN,NaN
Raw,232261909671299,649066161000000,,,-1265581155274100404,-0.7542810440063477,48.41936970478855,79.65007697207207,10.553260288478889,78,5,0.0,49359,49003365462732,4,42.3,-565.2991333007812,0.225600004196167,25,-10978.795552522084,5.799191056178505E-4,1.60256256E9,,,,0,,3,-0.07,1.60256256E9,350.0,NaN,NaN
Raw,232261909671299,649066161000000,,,-1265581155274100404,-0.7542810440063477,48.41936970478855,79.65007697207207,10.553260288478889,78,3,0.0,49359,49003361629034,16,29.8,776.2753295898438,0.22540000081062317,25,15032.9661177928,0.002764764268779405,1.60481254E9,,,,0,,3,-0.07,1.60481254E9,350.0,NaN,NaN
Raw,232261909671299,649066161000000,,,-1265581155274100404,-0.7542810440063477,48.41936970478855,79.65007697207207,10.553260288478889,78,4,0.0,49359,49003370858193,7,37.2,181.3473663330078,0.23440000414848328,25,3487.250626143159,9.897376030341073E-4,1.60537498E9,,,,0,,3,-0.07,1.60537498E9,350.0,NaN,NaN
Raw,232261909671299,649066161000000,,,-1265581155274100404,-0.7542810440063477,48.41936970478855,79.65007697207207,10.553260288478889,78,37,0.0,16399,383807356023755,17,28.1,489.0753479003906,0.04920000210404396,25,9651.393821017857,0.003034223768286223,1.56109798E9,,,,0,,5,1.18,1.56109798E9,350.0,NaN,NaN
Raw,232261909671299,649066161000000,,,-1265581155274100404,-0.7542810440063477,48.41936970478855,79.65007697207207,10.553260288478889,78,22,0.0,16399,383807354780698,11,33.3,-403.7939758300781,0.0422000028192997,25,-7296.0978403399995,0.0016707435714883973,1.56109798E9,,,,0,,5,1.18,1.56109798E9,350.0,NaN,NaN
Raw,232261909671299,649066161000000,,,-1265581155274100404,-0.7542810440063477,48.41936970478855,79.65007697207207,10.553260288478889,78,20,0.0,16399,383807352798254,13,31.9,648.9774169921875,0.04010000079870224,25,8651.237875327577,0.0020932304434118673,1.56109798E9,,,,0,,5,1.18,1.56109798E9,350.0,NaN,NaN
Raw,232261909671299,649066161000000,,,-1265581155274100404,-0.7542810440063477,48.41936970478855,79.65007697207207,10.553260288478889,78,19,0.0,16399,383807361775689,46,20.4,192.15472412109375,0.9179999828338623,16,0.0,0.0,1.56109798E9,,,,0,,5,1.18,1.56109798E9,350.0,NaN,NaN
Raw,232261909671299,649066161000000,,,-1265581155274100404,-0.7542810440063477,48.41936970478855,79.65007697207207,10.553260288478889,78,10,0.0,16399,383807302890940,10,34.0,188.96893310546875,0.023600000888109207,25,3403.9920239436033,0.001536315979199305,1.56109798E9,,,,0,,5,1.18,1.56109798E9,350.0,NaN,NaN
Raw,232261909671299,649066161000000,,,-1265581155274100404,-0.7542810440063477,48.41936970478855,79.65007697207207,10.553260288478889,78,1,0.0,23567,383821351082449,10,34.1,394.6123352050781,0.04910000041127205,25,7760.051680640642,0.003311109885939926,1.57542003E9,,,,0,,6,0.76,1.57542003E9,350.0,NaN,NaN
Raw,232261909671299,649066161000000,,,-1265581155274100404,-0.7542810440063477,48.41936970478855,79.65007697207207,10.553260288478889,78,4,0.0,23567,383821349213124,6,38.1,512.2833251953125,0.044600002467632294,25,8989.628557769773,0.0020551716777868216,1.57542003E9,,,,0,,6,0.76,1.57542003E9,350.0,NaN,NaN
Raw,232261909671299,649066161000000,,,-1265581155274100404,-0.7542810440063477,48.41936970478855,79.65007697207207,10.553260288478889,78,5,0.0,23567,383821349544353,46,20.4,-412.290283203125,0.871999979019165,16,0.0,0.0,1.57542003E9,,,,0,,6,0.76,1.57542003E9,350.0,NaN,NaN
Raw,232261909671299,649066161000000,,,-1265581155274100404,-0.7542810440063477,48.41936970478855,79.65007697207207,10.553260288478889,78,9,0.0,23567,383821363431352,7,37.1,59.33994674682617,0.0479000024497509,25,1153.2911926419438,0.0021883771969841777,1.57542003E9,,,,0,,6,0.76,1.57542003E9,350.0,NaN,NaN
Raw,232261909671299,649066161000000,,,-1265581155274100404,-0.7542810440063477,48.41936970478855,79.65007697207207,10.553260288478889,78,31,0.0,23567,383821356172193,7,37.4,-146.10086059570312,0.04340000078082085,25,-2428.234707156565,0.0021883771969841777,1.57542003E9,,,,0,,6,0.76,1.57542003E9,350.0,NaN,NaN
Raw,232261909671299,649066161000000,,,-1265581155274100404,-0.7542810440063477,48.41936970478855,79.65007697207207,10.553260288478889,78,24,0.0,81935,383821358959286,11,19.9,-577.355712890625,0.1768999993801117,27,-5980.9381879544235,0.25482803839368795,1.17645005E9,,,,0,,1,-2.19,1.17645005E9,350.0,NaN,NaN
Raw,232261909671299,649066161000000,,,-1265581155274100404,-0.7542810440063477,48.41936970478855,79.65007697207207,10.553260288478889,78,30,0.0,81935,383821357695093,2,41.5,604.7610473632812,0.04560000076889992,25,8066.337415948568,9.173809224587568E-4,1.17645005E9,,,,0,,1,-2.19,1.17645005E9,350.0,NaN,NaN
Raw,232261909671299,649066161000000,,,-1265581155274100404,-0.7542810440063477,48.41936970478855,79.65007697207207,10.553260288478889,78,1,0.0,81935,383821351089548,3,31.0,394.4924621582031,0.04430000111460686,25,5257.408084379103,0.0027776256465907277,1.17645005E9,,,,0,,6,-2.19,1.17645005E9,350.0,NaN,NaN
Raw,232261909671299,649066161000000,,,-1265581155274100404,-0.7542810440063477,48.41936970478855,79.65007697207207,10.553260288478889,78,4,0.0,81935,383821349220184,4,30.6,512.0291137695312,0.04270000010728836,25,6827.0794479458245,0.0032108332879374254,1.17645005E9,,,,0,,6,-2.19,1.17645005E9,350.0,NaN,NaN
Raw,232261909671299,649066161000000,,,-1265581155274100404,-0.7542810440063477,48.41936970478855,79.65007697207207,10.553260288478889,78,5,0.0,81935,383821349551397,9,21.4,-411.58099365234375,0.058900002390146255,25,-5485.109652728303,0.25482803839368795,1.17645005E9,,,,0,,6,-2.19,1.17645005E9,350.0,NaN,NaN
Raw,232261909671299,649066161000000,,,-1265581155274100404,-0.7542810440063477,48.41936970478855,79.65007697207207,10.553260288478889,78,9,0.0,81935,383821363438450,2,36.4,59.15156555175781,0.027400000020861626,25,786.1588665617516,0.0015544510042033504,1.17645005E9,,,,0,,6,-2.19,1.17645005E9,350.0,NaN,NaN
Raw,232261909671299,649066161000000,,,-1265581155274100404,-0.7542810440063477,48.41936970478855,79.65007697207207,10.553260288478889,78,24,0.0,81935,383821352735756,12,18.1,-540.0570678710938,1.0145000219345093,16,0.0,0.0,1.17645005E9,,,,0,,6,-2.19,1.17645005E9,350.0,NaN,NaN
Raw,232261909671299,649066161000000,,,-1265581155274100404,-0.7542810440063477,48.41936970478855,79.65007697207207,10.553260288478889,78,31,0.0,81935,383821356179275,4,30.4,-146.36854553222656,0.05320000275969505,25,-1952.5003866892876,0.0032108332879374254,1.17645005E9,,,,0,,6,-2.19,1.17645005E9,350.0,NaN,NaN
Fix,gps,51.524679,-0.134420,77.391968,0.000000,3.790092,1582195005000,232262899361554
Raw,232262918517233,649067161000000,,,-1265581155274100325,-0.3161907196044922,46.58236139221117,79.69392546267467,9.630269284207781,78,13,0.0,16399,383822367344595,16,29.5,216.43814086914062,0.03440000116825104,25,4446.158197054168,0.00281634630106073,1.57542003E9,,,,0,,1,0.63,1.57542003E9,350.0,NaN,NaN
Raw,232262918517233,649067161000000,,,-1265581155274100325,-0.3161907196044922,46.58236139221117,79.69392546267467,9.630269284207781,78,15,0.0,16399,383822367286584,6,38.8,-122.06462097167969,0.029600001871585846,25,-2552.270494289418,9.324389888310735E-4,1.57542003E9,,,,0,,1,0.63,1.57542003E9,350.0,NaN,NaN
Raw,232262918517233,649067161000000,,,-1265581155274100325,-0.3161907196044922,46.58236139221117,79.69392546267467,9.630269284207781,78,17,0.0,16399,383822352102077,24,25.5,-525.8727416992188,0.05130000039935112,25,-10561.761302624845,0.19029366893311156,1.57542003E9,,,,0,,1,0.63,1.57542003E9,350.0,NaN,NaN
Raw,232262918517233,649067161000000,,,-1265581155274100325,-0.3161907196044922,46.58236139221117,79.69392546267467,9.630269284207781,78,20,0.0,16399,383822358116273,21,26.7,-367.1471862792969,0.053700003772974014,25,-6444.833289704692,0.005442398901996786,1.57542003E9,,,,0,,1,0.63,1.57542003E9,350.0,NaN,NaN
Raw,232262918517233,649067161000000,,,-1265581155274100325,-0.3161907196044922,46.58236139221117,79.69392546267467,9.630269284207781,78,24,0.0,16399,383822358953150,24,25.6,-577.7506713867188,0.07530000060796738,17,-1419.803243011055,0.19029366893311156,1.57542003E9,,,,0,,1,0.63,1.57542003E9,350.0,NaN,NaN
Raw,232262918517233,649067161000000,,,-1265581155274100325,-0.3161907196044922,46.58236139221117,79.69392546267467,9.630269284207781,78,28,0.0,16399,383822363701074,5,41.2,177.2704620361328,0.02280000038444996,25,3634.9183776208943,6.850571963914755E-4,1.57542003E9,,,,0,,1,0.63,1.57542003E9,350.0,NaN,NaN
Raw,232262918517233,649067161000000,,,-1265581155274100325,-0.3161907196044922,46.58236139221117,79.69392546267467,9.630269284207781,78,30,0.0,16399,383822357685262,5,40.9,604.3179931640625,0.04410000145435333,25,12572.067640749305,7.42145288706399E-4,1.57542003E9,,,,0,,1,0.63,1.57542003E9,350.0,NaN,NaN
Raw,232262918517233,649067161000000,,,-1265581155274100325,-0.3161907196044922,46.58236139221117,79.69392546267467,9.630269284207781,78,14,0.0,49359,49004371192934,4,42.0,-49.89208984375,0.2346000075340271,25,-1036.8341463892684,5.815521404373922E-4,1.59806246E9,,,,0,,3,-0.16,1.59806246E9,350.0,NaN,NaN
Raw,232262918517233,649067161000000,,,-1265581155274100325,-0.3161907196044922,46.58236139221117,79.69392546267467,9.630269284207781,78,22,0.0,49359,49004357394920,31,23.4,-190.4595184326172,0.3367000222206116,29,-3550.399336669277,0.18733370372433672,1.60031245E9,,,,0,,3,-0.16,1.60031245E9,350.0,NaN,NaN
Raw,232262918517233,649067161000000,,,-1265581155274100325,-0.3161907196044922,46.58236139221117,79.69392546267467,9.630269284207781,78,13,0.0,49359,49004364748991,35,22.0,644.9318237304688,0.9324999451637268,16,0.0,0.0,1.60087501E9,,,,0,,3,-0.16,1.60087501E9,350.0,NaN,NaN
Raw,232262918517233,649067161000000,,,-1265581155274100325,-0.3161907196044922,46.58236139221117,79.69392546267467,9.630269284207781,78,15,0.0,49359,49004362458455,21,26.4,-658.5817260742188,0.2296999990940094,25,-12874.603924104438,0.005352100032671997,1.602E9,,,,0,,3,-0.16,1.602E9,350.0,NaN,NaN
Raw,232262918517233,649067161000000,,,-1265581155274100325,-0.3161907196044922,46.58236139221117,79.69392546267467,9.630269284207781,78,5,0.0,49359,49004365464631,4,42.1,-565.6844482421875,0.225600004196167,25,-11544.241746326388,5.799191056178505E-4,1.60256256E9,,,,0,,3,-0.16,1.60256256E9,350.0,NaN,NaN
Raw,232262918517233,649067161000000,,,-1265581155274100325,-0.3161907196044922,46.58236139221117,79.69392546267467,9.630269284207781,78,3,0.0,49359,49004361626423,12,32.9,775.8955688476562,0.22310000658035278,25,15809.11496234605,0.0017746797095208008,1.60481254E9,,,,0,,3,-0.16,1.60481254E9,350.0,NaN,NaN
Raw,232262918517233,649067161000000,,,-1265581155274100325,-0.3161907196044922,46.58236139221117,79.69392546267467,9.630269284207781,78,4,0.0,49359,49004370857562,8,36.3,181.00477600097656,0.2346000075340271,25,3668.473006106748,0.0011391319696942128,1.60537498E9,,,,0,,3,-0.16,1.60537498E9,350.0,NaN,NaN
Raw,232262918517233,649067161000000,,,-1265581155274100325,-0.3161907196044922,46.58236139221117,79.69392546267467,9.630269284207781,78,37,0.0,16399,383808356021996,27,24.6,488.58624267578125,0.06530000269412994,21,10140.159597620044,0.1920394882785269,1.56109798E9,,,,0,,5,1.06,1.56109798E9,350.0,NaN,NaN
Raw,232262918517233,649067161000000,,,-1265581155274100325,-0.3161907196044922,46.58236139221117,79.69392546267467,9.630269284207781,78,22,0.0,16399,383808354782059,12,32.0,-404.19732666015625,0.04260000213980675,25,-7700.048757434665,0.0018243750799829725,1.56109798E9,,,,0,,5,1.06,1.56109798E9,350.0,NaN,NaN
Raw,232262918517233,649067161000000,,,-1265581155274100325,-0.3161907196044922,46.58236139221117,79.69392546267467,9.630269284207781,78,20,0.0,16399,383808352796086,13,31.7,648.5012817382812,0.04010000079870224,25,9300.015538058926,0.0020932304434118673,1.56109798E9,,,,0,,5,1.06,1.56109798E9,350.0,NaN,NaN
Raw,232262918517233,649067161000000,,,-1265581155274100325,-0.3161907196044922,46.58236139221117,79.69392546267467,9.630269284207781,78,19,0.0,16399,383808361775131,40,21.3,191.35775756835938,0.8479999899864197,16,0.0,0.0,1.56109798E9,,,,0,,5,1.06,1.56109798E9,350.0,NaN,NaN
Raw,232262918517233,649067161000000,,,-1265581155274100325,-0.3161907196044922,46.58236139221117,79.69392546267467,9.630269284207781,78,11,0.0,16399,383808345767879,92,15.0,198.8568878173828,2.864000082015991,16,0.0,0.0,1.56109798E9,,,,0,,5,1.06,1.56109798E9,350.0,NaN,NaN
Raw,232262918517233,649067161000000,,,-1265581155274100325,-0.3161907196044922,46.58236139221117,79.69392546267467,9.630269284207781,78,10,0.0,16399,383808302890312,11,33.7,188.5133819580078,0.02420000173151493,25,3592.7771725107964,0.0016707435714883973,1.56109798E9,,,,0,,5,1.06,1.56109798E9,350.0,NaN,NaN
Raw,232262918517233,649067161000000,,,-1265581155274100325,-0.3161907196044922,46.58236139221117,79.69392546267467,9.630269284207781,78,1,0.0,23567,383822351081133,12,32.6,394.1964416503906,0.05010000243782997,25,8154.475084149621,0.003958108324583987,1.57542003E9,,,,0,,6,0.68,1.57542003E9,350.0,NaN,NaN
Raw,232262918517233,649067161000000,,,-1265581155274100325,-0.3161907196044922,46.58236139221117,79.69392546267467,9.630269284207781,78,4,0.0,23567,383822349211404,6,38.2,511.8804016113281,0.044600002467632294,25,9501.74697865957,0.0020551716777868216,1.57542003E9,,,,0,,6,0.68,1.57542003E9,350.0,NaN,NaN
Raw,232262918517233,649067161000000,,,-1265581155274100325,-0.3161907196044922,46.58236139221117,79.69392546267467,9.630269284207781,78,5,0.0,23567,383822349545709,46,20.8,-411.4053955078125,0.871999979019165,16,0.0,0.0,1.57542003E9,,,,0,,6,0.68,1.57542003E9,350.0,NaN,NaN
Raw,232262918517233,649067161000000,,,-1265581155274100325,-0.3161907196044922,46.58236139221117,79.69392546267467,9.630269284207781,78,9,0.0,23567,383822363431157,8,36.5,58.92793655395508,0.06310000270605087,25,1212.453146277483,0.0025499350854412276,1.57542003E9,,,,0,,6,0.68,1.57542003E9,350.0,NaN,NaN
Raw,232262918517233,649067161000000,,,-1265581155274100325,-0.3161907196044922,46.58236139221117,79.69392546267467,9.630269284207781,78,24,0.0,23567,383822352730580,53,19.0,-541.033447265625,1.7705000638961792,16,0.0,0.0,1.57542003E9,,,,0,,6,0.68,1.57542003E9,350.0,NaN,NaN
Raw,232262918517233,649067161000000,,,-1265581155274100325,-0.3161907196044922,46.58236139221117,79.69392546267467,9.630269284207781,78,31,0.0,23567,383822356172687,7,37.1,-146.48907470703125,0.04340000078082085,25,-2574.508083991829,0.0021883771969841777,1.57542003E9,,,,0,,6,0.68,1.57542003E9,350.0,NaN,NaN
Raw,232262918517233,649067161000000,,,-1265581155274100325,-0.3161907196044922,46.58236139221117,79.69392546267467,9.630269284207781,78,30,0.0,81935,383822357693076,2,41.1,604.3115234375,0.04560000076889992,25,8670.919998936262,9.173809224587568E-4,1.17645005E9,,,,0,,1,-3.62,1.17645005E9,350.0,NaN,NaN
Raw,232262918517233,649067161000000,,,-1265581155274100325,-0.3161907196044922,46.58236139221117,79.69392546267467,9.630269284207781,78,1,0.0,81935,383822351088230,4,30.5,393.9306335449219,0.04570000246167183,25,5651.81326802905,0.0032108332879374254,1.17645005E9,,,,0,,6,-3.62,1.17645005E9,350.0,NaN,NaN
Raw,232262918517233,649067161000000,,,-1265581155274100325,-0.3161907196044922,46.58236139221117,79.69392546267467,9.630269284207781,78,4,0.0,81935,383822349218481,4,29.6,511.6462707519531,0.04450000077486038,29,7339.438571575231,0.0037714549693657518,1.17645005E9,,,,0,,6,-3.62,1.17645005E9,350.0,NaN,NaN
Raw,232262918517233,649067161000000,,,-1265581155274100325,-0.3161907196044922,46.58236139221117,79.69392546267467,9.630269284207781,78,5,0.0,81935,383822349552765,11,19.6,-412.0528869628906,0.16339999437332153,25,-5896.921267981408,0.25482803839368795,1.17645005E9,,,,0,,6,-3.62,1.17645005E9,350.0,NaN,NaN
Raw,232262918517233,649067161000000,,,-1265581155274100325,-0.3161907196044922,46.58236139221117,79.69392546267467,9.630269284207781,78,9,0.0,81935,383822363438253,2,36.0,58.681549072265625,0.027400000020861626,25,845.305355208958,0.0015544510042033504,1.17645005E9,,,,0,,6,-3.62,1.17645005E9,350.0,NaN,NaN
Raw,232262918517233,649067161000000,,,-1265581155274100325,-0.3161907196044922,46.58236139221117,79.69392546267467,9.630269284207781,78,24,0.0,81935,383822352737575,11,19.7,-540.9404907226562,0.1678999960422516,27,-7745.990885708136,0.25482803839368795,1.17645005E9,,,,0,,6,-3.62,1.17645005E9,350.0,NaN,NaN
Raw,232262918517233,649067161000000,,,-1265581155274100325,-0.3161907196044922,46.58236139221117,79.69392546267467,9.630269284207781,78,31,0.0,81935,383822356179763,4,30.6,-146.72894287109375,0.05320000275969505,25,-2098.766071789383,0.0032108332879374254,1.17645005E9,,,,0,,6,-3.62,1.17645005E9,350.0,NaN,NaN
Fix,gps,51.524680,-0.134419,77.506531,0.000000,3.790092,1582195006000,232263902742852
Raw,232263928251292,649068161000000,,,-1265581155274100248,-0.05366992950439453,45.78737934934907,78.038326830916,9.656431570107262,78,5,0.0,16399,383823354815777,31,23.5,743.4603881835938,0.10220000147819519,19,338.0657718096217,0.19029366893311156,1.57542003E9,,,,0,,1,0.52,1.57542003E9,350.0,NaN,NaN
Raw,232263928251292,649068161000000,,,-1265581155274100248,-0.05366992950439453,45.78737934934907,78.038326830916,9.656431570107262,78,13,0.0,16399,383823367343852,12,32.6,216.76246643066406,0.03210000321269035,25,4662.737228236534,0.001807789796734829,1.57542003E9,,,,0,,1,0.52,1.57542003E9,350.0,NaN,NaN
Raw,232263928251292,649068161000000,,,-1265581155274100248,-0.05366992950439453,45.78737934934907,78.038326830916,9.656431570107262,78,15,0.0,16399,383823367287023,7,37.8,-121.75515747070312,0.029900001361966133,25,-2674.2109729384874,0.0010085564157135064,1.57542003E9,,,,0,,1,0.52,1.57542003E9,350.0,NaN,NaN
Raw,232263928251292,649068161000000,,,-1265581155274100248,-0.05366992950439453,45.78737934934907,78.038326830916,9.656431570107262,78,17,0.0,16399,383823352103813,19,27.6,-525.6688232421875,0.043800000101327896,25,-11087.553512722787,0.003234992547669888,1.57542003E9,,,,0,,1,0.52,1.57542003E9,350.0,NaN,NaN
Raw,232263928251292,649068161000000,,,-1265581155274100248,-0.05366992950439453,45.78737934934907,78.038326830916,9.656431570107262,78,20,0.0,16399,383823358117514,19,27.2,-366.8041076660156,0.052800003439188004,21,-6811.822038189495,0.003234992547669888,1.57542003E9,,,,0,,1,0.52,1.57542003E9,350.0,NaN,NaN
Raw,232263928251292,649068161000000,,,-1265581155274100248,-0.05366992950439453,45.78737934934907,78.038326830916,9.656431570107262,78,24,0.0,16399,383823358955173,19,27.8,-577.462890625,0.052800003439188004,17,-1997.4455075685312,0.003234992547669888,1.57542003E9,,,,0,,1,0.52,1.57542003E9,350.0,NaN,NaN
Raw,232263928251292,649068161000000,,,-1265581155274100248,-0.05366992950439453,45.78737934934907,78.038326830916,9.656431570107262,78,28,0.0,16399,383823363700471,5,41.7,177.6110076904297,0.02280000038444996,25,3812.335261295372,6.850571963914755E-4,1.57542003E9,,,,0,,1,0.52,1.57542003E9,350.0,NaN,NaN
Raw,232263928251292,649068161000000,,,-1265581155274100248,-0.05366992950439453,45.78737934934907,78.038326830916,9.656431570107262,78,30,0.0,16399,383823357683251,5,41.4,604.5785522460938,0.043800003826618195,25,13176.48331287214,6.850571963914755E-4,1.57542003E9,,,,0,,1,0.52,1.57542003E9,350.0,NaN,NaN
Raw,232263928251292,649068161000000,,,-1265581155274100248,-0.05366992950439453,45.78737934934907,78.038326830916,9.656431570107262,78,14,0.0,49359,49005371193120,4,42.0,-49.54234313964844,0.2346000075340271,25,-1086.581206843066,5.815521404373922E-4,1.59806246E9,,,,0,,3,-0.14,1.59806246E9,350.0,NaN,NaN
Raw,232263928251292,649068161000000,,,-1265581155274100248,-0.05366992950439453,45.78737934934907,78.038326830916,9.656431570107262,78,22,0.0,49359,49005357395632,31,23.1,-190.0745391845703,0.3367000222206116,21,-3740.744143783272,0.18733370372433672,1.60031245E9,,,,0,,3,-0.14,1.60031245E9,350.0,NaN,NaN
Raw,232263928251292,649068161000000,,,-1265581155274100248,-0.05366992950439453,45.78737934934907,78.038326830916,9.656431570107262,78,13,0.0,49359,49005364746726,35,22.4,644.9224853515625,0.9324999451637268,16,0.0,0.0,1.60087501E9,,,,0,,3,-0.14,1.60087501E9,350.0,NaN,NaN
Raw,232263928251292,649068161000000,,,-1265581155274100248,-0.05366992950439453,45.78737934934907,78.038326830916,9.656431570107262,78,15,0.0,49359,49005362460448,27,24.8,-658.2705078125,0.2443000078201294,21,-13533.130528004036,0.18713636579275905,1.602E9,,,,0,,3,-0.14,1.602E9,350.0,NaN,NaN
Raw,232263928251292,649068161000000,,,-1265581155274100248,-0.05366992950439453,45.78737934934907,78.038326830916,9.656431570107262,78,5,0.0,49359,49005365466526,4,42.1,-565.3665771484375,0.225600004196167,25,-12109.802562334851,5.799191056178505E-4,1.60256256E9,,,,0,,3,-0.14,1.60256256E9,350.0,NaN,NaN
Raw,232263928251292,649068161000000,,,-1265581155274100248,-0.05366992950439453,45.78737934934907,78.038326830916,9.656431570107262,78,3,0.0,49359,49005361623851,12,32.2,776.1530151367188,0.22310000658035278,25,16585.114738671113,0.0017746797095208008,1.60481254E9,,,,0,,3,-0.14,1.60481254E9,350.0,NaN,NaN
Raw,232263928251292,649068161000000,,,-1265581155274100248,-0.05366992950439453,45.78737934934907,78.038326830916,9.656431570107262,78,4,0.0,49359,49005370857000,7,37.2,181.38992309570312,0.23440000414848328,25,3849.6337907404322,9.897376030341073E-4,1.60537498E9,,,,0,,3,-0.14,1.60537498E9,350.0,NaN,NaN
Raw,232263928251292,649068161000000,,,-1265581155274100248,-0.05366992950439453,45.78737934934907,78.038326830916,9.656431570107262,78,37,0.0,16399,383809356020479,21,26.6,488.82574462890625,0.050700001418590546,29,10628.937338081616,0.005492329335005111,1.56109798E9,,,,0,,5,0.98,1.56109798E9,350.0,NaN,NaN
Raw,232263928251292,649068161000000,,,-1265581155274100248,-0.05366992950439453,45.78737934934907,78.038326830916,9.656431570107262,78,22,0.0,16399,383809354783424,12,32.0,-403.9110412597656,0.04260000213980675,25,-8104.128292157799,0.0018243750799829725,1.56109798E9,,,,0,,5,0.98,1.56109798E9,350.0,NaN,NaN
Raw,232263928251292,649068161000000,,,-1265581155274100248,-0.05366992950439453,45.78737934934907,78.038326830916,9.656431570107262,78,20,0.0,16399,383809352793913,12,32.0,648.7799682617188,0.03960000351071358,25,9948.64534917808,0.0018243750799829725,1.56109798E9,,,,0,,5,0.98,1.56109798E9,350.0,NaN,NaN
Raw,232263928251292,649068161000000,,,-1265581155274100248,-0.05366992950439453,45.78737934934907,78.038326830916,9.656431570107262,78,19,0.0,16399,383809361774452,27,24.3,192.13055419921875,0.04280000180006027,19,3703.2318177478446,0.1920394882785269,1.56109798E9,,,,0,,5,0.98,1.56109798E9,350.0,NaN,NaN
Raw,232263928251292,649068161000000,,,-1265581155274100248,-0.05366992950439453,45.78737934934907,78.038326830916,9.656431570107262,78,10,0.0,16399,383809302889673,10,34.1,188.7754669189453,0.023600000888109207,25,3781.3987610061163,0.001536315979199305,1.56109798E9,,,,0,,5,0.98,1.56109798E9,350.0,NaN,NaN
Raw,232263928251292,649068161000000,,,-1265581155274100248,-0.05366992950439453,45.78737934934907,78.038326830916,9.656431570107262,78,1,0.0,23567,383823351079818,11,33.3,394.45379638671875,0.04970000311732292,25,8548.739518462053,0.003596550258902148,1.57542003E9,,,,0,,6,0.57,1.57542003E9,350.0,NaN,NaN
Raw,232263928251292,649068161000000,,,-1265581155274100248,-0.05366992950439453,45.78737934934907,78.038326830916,9.656431570107262,78,4,0.0,23567,383823349209701,6,38.4,512.0935668945312,0.044600002467632294,25,10013.676007783364,0.0020551716777868216,1.57542003E9,,,,0,,6,0.57,1.57542003E9,350.0,NaN,NaN
Raw,232263928251292,649068161000000,,,-1265581155274100248,-0.05366992950439453,45.78737934934907,78.038326830916,9.656431570107262,78,5,0.0,23567,383823349547097,46,20.9,-411.0438537597656,0.871999979019165,16,0.0,0.0,1.57542003E9,,,,0,,6,0.57,1.57542003E9,350.0,NaN,NaN
Raw,232263928251292,649068161000000,,,-1265581155274100248,-0.05366992950439453,45.78737934934907,78.038326830916,9.656431570107262,78,9,0.0,23567,383823363430970,8,36.9,59.18424606323242,0.06310000270605087,25,1271.4491655829813,0.0025499350854412276,1.57542003E9,,,,0,,6,0.57,1.57542003E9,350.0,NaN,NaN
Raw,232263928251292,649068161000000,,,-1265581155274100248,-0.05366992950439453,45.78737934934907,78.038326830916,9.656431570107262,78,31,0.0,23567,383823356173180,8,36.1,-146.2137908935547,0.04360000044107437,25,-2720.921898582762,0.0025499350854412276,1.57542003E9,,,,0,,6,0.57,1.57542003E9,350.0,NaN,NaN
Raw,232263928251292,649068161000000,,,-1265581155274100248,-0.05366992950439453,45.78737934934907,78.038326830916,9.656431570107262,78,24,0.0,81935,383823358963150,16,16.5,-576.994384765625,1.94350004196167,16,0.0,0.0,1.17645005E9,,,,0,,1,-3.91,1.17645005E9,350.0,NaN,NaN
Raw,232263928251292,649068161000000,,,-1265581155274100248,-0.05366992950439453,45.78737934934907,78.038326830916,9.656431570107262,78,30,0.0,81935,383823357691060,2,41.2,604.5762329101562,0.04560000076889992,25,9275.33700741372,9.173809224587568E-4,1.17645005E9,,,,0,,1,-3.91,1.17645005E9,350.0,NaN,NaN
Raw,232263928251292,649068161000000,,,-1265581155274100248,-0.05366992950439453,45.78737934934907,78.038326830916,9.656431570107262,78,1,0.0,81935,383823351086914,3,31.6,394.536865234375,0.04430000111460686,25,6046.095506780629,0.0027776256465907277,1.17645005E9,,,,0,,6,-3.91,1.17645005E9,350.0,NaN,NaN
Raw,232263928251292,649068161000000,,,-1265581155274100248,-0.05366992950439453,45.78737934934907,78.038326830916,9.656431570107262,78,4,0.0,81935,383823349216773,4,30.2,512.12890625,0.04270000010728836,25,7851.379252752714,0.0032108332879374254,1.17645005E9,,,,0,,6,-3.91,1.17645005E9,350.0,NaN,NaN
Raw,232263928251292,649068161000000,,,-1265581155274100248,-0.05366992950439453,45.78737934934907,78.038326830916,9.656431570107262,78,5,0.0,81935,383823349554150,10,20.6,-411.7593688964844,0.08920000493526459,25,-6308.840483042517,0.25482803839368795,1.17645005E9,,,,0,,6,-3.91,1.17645005E9,350.0,NaN,NaN
Raw,232263928251292,649068161000000,,,-1265581155274100248,-0.05366992950439453,45.78737934934907,78.038326830916,9.656431570107262,78,9,0.0,81935,383823363438055,2,36.3,59.24089813232422,0.027400000020861626,25,904.3224614290117,0.0015544510042033504,1.17645005E9,,,,0,,6,-3.91,1.17645005E9,350.0,NaN,NaN
Raw,232263928251292,649068161000000,,,-1265581155274100248,-0.05366992950439453,45.78737934934907,78.038326830916,9.656431570107262,78,24,0.0,81935,383823352739363,12,18.2,-538.2477416992188,1.0145000219345093,16,0.0,0.0,1.17645005E9,,,,0,,6,-3.91,1.17645005E9,350.0,NaN,NaN
