# 
# Header Description:
# 
# Version: v2.0.0.1 Platform: 10 Manufacturer: Google Model: Pixel 4
# 
# Raw,ElapsedRealtimeNanos,TimeNanos,LeapSecond,TimeUncertaintyNanos,FullBiasNanos,BiasNanos,BiasUncertaintyNanos,DriftNanosPerSecond,DriftUncertaintyNanosPerSecond,HardwareClockDiscontinuityCount,Svid,TimeOffsetNanos,State,ReceivedSvTimeNanos,ReceivedSvTimeUncertaintyNanos,Cn0DbHz,PseudorangeRateMetersPerSecond,PseudorangeRateUncertaintyMetersPerSecond,AccumulatedDeltaRangeState,AccumulatedDeltaRangeMeters,AccumulatedDeltaRangeUncertaintyMeters,CarrierFrequencyHz,CarrierCycles,CarrierPhase,CarrierPhaseUncertainty,MultipathIndicator,SnrInDb,ConstellationType,AgcDb,CarrierFrequencyHz,UserLatitude,UserLongitude,UserAltitude
# 
# Fix,Provider,Latitude,Longitude,Altitude,Speed,Accuracy,(UTC)TimeInMs,ElapsedRealtimeNanos
# 
# Nav,Svid,Type,Status,MessageId,Sub-messageId,Data(Bytes)
# 
Raw,232499918291884,649304183000000,,,-1265581155251075315,-0.691530704498291,38.516118365805596,20.595954783775326,12.901444938593414,121,5,0.0,16399,384059353222610,19,27.3,730.52294921875,0.04530000314116478,21,8499.38204409537,0.003234992547669888,1.57542003E9,,,,0,,1,0.74,1.57542003E9,355.0,NaN,NaN
Raw,232499918291884,649304183000000,,,-1265581155251075315,-0.691530704498291,38.516118365805596,20.595954783775326,12.901444938593414,121,13,0.0,16399,384059366158194,6,38.0,221.65774536132812,0.02810000069439411,25,2619.4455428437705,9.324389888310735E-4,1.57542003E9,,,,0,,1,0.74,1.57542003E9,355.0,NaN,NaN
Raw,232499918291884,649304183000000,,,-1265581155251075315,-0.691530704498291,38.516118365805596,20.595954783775326,12.901444938593414,121,15,0.0,16399,384059366366626,13,31.6,-113.42652893066406,0.03110000118613243,21,-1323.9205877060424,0.002074201012354331,1.57542003E9,,,,0,,1,0.74,1.57542003E9,355.0,NaN,NaN
Raw,232499918291884,649304183000000,,,-1265581155251075315,-0.691530704498291,38.516118365805596,20.595954783775326,12.901444938593414,121,17,0.0,16399,384059351508550,19,27.6,-535.3555908203125,0.04230000078678131,21,-4236.2441920895735,0.003234992547669888,1.57542003E9,,,,0,,1,0.74,1.57542003E9,355.0,NaN,NaN
Raw,232499918291884,649304183000000,,,-1265581155251075315,-0.691530704498291,38.516118365805596,20.595954783775326,12.901444938593414,121,24,0.0,16399,384059358399404,16,29.6,-583.5072631835938,0.05090000107884407,21,-2251.8804185598265,0.00281634630106073,1.57542003E9,,,,0,,1,0.74,1.57542003E9,355.0,NaN,NaN
Raw,232499918291884,649304183000000,,,-1265581155251075315,-0.691530704498291,38.516118365805596,20.595954783775326,12.901444938593414,121,28,0.0,16399,384059362544019,5,40.5,186.33543395996094,0.006599999964237213,17,2201.468954578538,7.42145288706399E-4,1.57542003E9,,,,0,,1,0.74,1.57542003E9,355.0,NaN,NaN
Raw,232499918291884,649304183000000,,,-1265581155251075315,-0.691530704498291,38.516118365805596,20.595954783775326,12.901444938593414,121,30,0.0,16399,384059356198284,5,41.5,593.8914794921875,0.04230000078678131,17,7034.06802825484,6.850571963914755E-4,1.57542003E9,,,,0,,1,0.74,1.57542003E9,355.0,NaN,NaN
Raw,232499918291884,649304183000000,,,-1265581155251075315,-0.691530704498291,38.516118365805596,20.595954783775326,12.901444938593414,121,14,0.0,49359,49241370213145,16,29.7,-34.25041198730469,0.23890000581741333,21,-366.8036541717286,0.0027764423980239216,1.59806246E9,,,,0,,3,-0.19,1.59806246E9,355.0,NaN,NaN
Raw,232499918291884,649304183000000,,,-1265581155251075315,-0.691530704498291,38.516118365805596,20.595954783775326,12.901444938593414,121,22,0.0,49359,49241356524284,17,28.8,-170.01402282714844,0.2492000013589859,21,-1625.1152069371408,0.002959872375920247,1.60031245E9,,,,0,,3,-0.19,1.60031245E9,355.0,NaN,NaN
Raw,232499918291884,649304183000000,,,-1265581155251075315,-0.691530704498291,38.516118365805596,20.595954783775326,12.901444938593414,121,13,0.0,49359,49241363226635,14,30.2,642.5904541015625,0.21240000426769257,21,7343.963373784933,0.0023595752053329456,1.60087501E9,,,,0,,3,-0.19,1.60087501E9,355.0,NaN,NaN
Raw,232499918291884,649304183000000,,,-1265581155251075315,-0.691530704498291,38.516118365805596,20.595954783775326,12.901444938593414,121,15,0.0,49359,49241361966039,16,29.7,-658.385986328125,0.21040000021457672,21,-7523.088823384629,0.002769618214569399,1.602E9,,,,0,,3,-0.19,1.602E9,355.0,NaN,NaN
Raw,232499918291884,649304183000000,,,-1265581155251075315,-0.691530704498291,38.516118365805596,20.595954783775326,12.901444938593414,121,5,0.0,49359,49241364896439,5,40.1,-559.751220703125,0.22460000216960907,25,-6398.255289422185,7.295756082573676E-4,1.60256256E9,,,,0,,3,-0.19,1.60256256E9,355.0,NaN,NaN
Raw,232499918291884,649304183000000,,,-1265581155251075315,-0.691530704498291,38.516118365805596,20.595954783775326,12.901444938593414,121,3,0.0,49359,49241360000554,7,37.9,774.138427734375,0.20440000295639038,25,8840.259739925452,9.900844722691658E-4,1.60481254E9,,,,0,,3,-0.19,1.60481254E9,355.0,NaN,NaN
Raw,232499918291884,649304183000000,,,-1265581155251075315,-0.691530704498291,38.516118365805596,20.595954783775326,12.901444938593414,121,4,0.0,49359,49241369693586,9,35.6,200.6673583984375,0.23360000550746918,21,2286.339351655475,0.0013072006865361828,1.60537498E9,,,,0,,3,-0.19,1.60537498E9,355.0,NaN,NaN
Raw,232499918291884,649304183000000,,,-1265581155251075315,-0.691530704498291,38.516118365805596,20.595954783775326,12.901444938593414,121,37,0.0,16399,384045354625403,6,38.9,481.54156494140625,0.04010000079870224,21,4844.683953745011,9.409935037250662E-4,1.56109798E9,,,,0,,5,0.83,1.56109798E9,355.0,NaN,NaN
Raw,232499918291884,649304183000000,,,-1265581155251075315,-0.691530704498291,38.516118365805596,20.595954783775326,12.901444938593414,121,22,0.0,16399,384045354088173,19,27.1,-402.75360107421875,0.046800002455711365,21,-4052.742026437451,0.0032646714781548623,1.56109798E9,,,,0,,5,0.83,1.56109798E9,355.0,NaN,NaN
Raw,232499918291884,649304183000000,,,-1265581155251075315,-0.691530704498291,38.516118365805596,20.595954783775326,12.901444938593414,121,20,0.0,16399,384045351273241,6,38.0,641.1185302734375,0.035600002855062485,17,7520.023301052045,9.409935037250662E-4,1.56109798E9,,,,0,,5,0.83,1.56109798E9,355.0,NaN,NaN
Raw,232499918291884,649304183000000,,,-1265581155251075315,-0.691530704498291,38.516118365805596,20.595954783775326,12.901444938593414,121,19,0.0,16399,384045360607364,24,25.7,199.89390563964844,0.5615000128746033,16,0.0,0.0,1.56109798E9,,,,0,,5,0.83,1.56109798E9,355.0,NaN,NaN
Raw,232499918291884,649304183000000,,,-1265581155251075315,-0.691530704498291,38.516118365805596,20.595954783775326,12.901444938593414,121,10,0.0,16399,384045301733578,14,30.4,174.23431396484375,0.009399999864399433,21,1754.1260483867839,0.0024196975554572116,1.56109798E9,,,,0,,5,0.83,1.56109798E9,355.0,NaN,NaN
Raw,232499918291884,649304183000000,,,-1265581155251075315,-0.691530704498291,38.516118365805596,20.595954783775326,12.901444938593414,121,1,0.0,23567,384059349757867,5,40.3,389.9810485839844,0.04410000145435333,25,4580.09305498413,0.001617496273834944,1.57542003E9,,,,0,,6,0.74,1.57542003E9,355.0,NaN,NaN
Raw,232499918291884,649304183000000,,,-1265581155251075315,-0.691530704498291,38.516118365805596,20.595954783775326,12.901444938593414,121,4,0.0,23567,384059347796515,9,35.1,504.4317321777344,0.04260000213980675,25,5921.111009986442,0.0028924638165555576,1.57542003E9,,,,0,,6,0.74,1.57542003E9,355.0,NaN,NaN
Raw,232499918291884,649304183000000,,,-1265581155251075315,-0.691530704498291,38.516118365805596,20.595954783775326,12.901444938593414,121,5,0.0,23567,384059348861466,19,27.2,-419.2831726074219,0.049800001084804535,21,-4924.772656277077,0.007212130206821385,1.57542003E9,,,,0,,6,0.74,1.57542003E9,355.0,NaN,NaN
Raw,232499918291884,649304183000000,,,-1265581155251075315,-0.691530704498291,38.516118365805596,20.595954783775326,12.901444938593414,121,9,0.0,23567,384059362371170,13,31.1,59.74774169921875,0.04910000041127205,25,699.1926200301374,0.004528989424958011,1.57542003E9,,,,0,,6,0.74,1.57542003E9,355.0,NaN,NaN
Raw,232499918291884,649304183000000,,,-1265581155251075315,-0.691530704498291,38.516118365805596,20.595954783775326,12.901444938593414,121,24,0.0,23567,384059352148518,17,28.0,-549.7203369140625,0.5205000042915344,16,0.0,0.0,1.57542003E9,,,,0,,6,0.74,1.57542003E9,355.0,NaN,NaN
Raw,232499918291884,649304183000000,,,-1265581155251075315,-0.691530704498291,38.516118365805596,20.595954783775326,12.901444938593414,121,31,0.0,23567,384059355274493,9,35.2,-144.29931640625,0.048600003123283386,21,-1649.6194542909932,0.0028924638165555576,1.57542003E9,,,,0,,6,0.74,1.57542003E9,355.0,NaN,NaN
Raw,232499918291884,649304183000000,,,-1265581155251075315,-0.691530704498291,38.516118365805596,20.595954783775326,12.901444938593414,121,24,0.0,81935,384059358407217,4,30.3,-583.0712890625,0.05620000138878822,29,-1375.1682559922938,0.0032108332879374254,1.17645005E9,,,,0,,1,-0.35,1.17645005E9,355.0,NaN,NaN
Raw,232499918291884,649304183000000,,,-1265581155251075315,-0.691530704498291,38.516118365805596,20.595954783775326,12.901444938593414,121,30,0.0,81935,384059356206111,2,38.0,593.859619140625,0.045500002801418304,25,2289.343823902315,0.0012486574029382824,1.17645005E9,,,,0,,1,-0.35,1.17645005E9,355.0,NaN,NaN
Raw,232499918291884,649304183000000,,,-1265581155251075315,-0.691530704498291,38.516118365805596,20.595954783775326,12.901444938593414,121,1,0.0,81935,384059349764953,2,39.7,390.1161804199219,0.03450000286102295,25,2061.054412089876,0.001121243362856653,1.17645005E9,,,,0,,6,-0.35,1.17645005E9,355.0,NaN,NaN
Raw,232499918291884,649304183000000,,,-1265581155251075315,-0.691530704498291,38.516118365805596,20.595954783775326,12.901444938593414,121,4,0.0,81935,384059347803618,3,31.4,504.2661437988281,0.03830000013113022,25,2666.320624293212,0.0027776256465907277,1.17645005E9,,,,0,,6,-0.35,1.17645005E9,355.0,NaN,NaN
Raw,232499918291884,649304183000000,,,-1265581155251075315,-0.691530704498291,38.516118365805596,20.595954783775326,12.901444938593414,121,5,0.0,81935,384059348868549,5,28.2,-419.21551513671875,0.045099999755620956,25,-2219.8079091385207,0.0040262828122019055,1.17645005E9,,,,0,,6,-0.35,1.17645005E9,355.0,NaN,NaN
Raw,232499918291884,649304183000000,,,-1265581155251075315,-0.691530704498291,38.516118365805596,20.595954783775326,12.901444938593414,121,9,0.0,81935,384059362378272,4,30.3,59.71036148071289,0.01720000058412552,25,310.65931576585575,0.0032108332879374254,1.17645005E9,,,,0,,6,-0.35,1.17645005E9,355.0,NaN,NaN
Raw,232499918291884,649304183000000,,,-1265581155251075315,-0.691530704498291,38.516118365805596,20.595954783775326,12.901444938593414,121,24,0.0,81935,384059352155554,12,18.9,-549.8170166015625,1.684499979019165,16,0.0,0.0,1.17645005E9,,,,0,,6,-0.35,1.17645005E9,355.0,NaN,NaN
Raw,232499918291884,649304183000000,,,-1265581155251075315,-0.691530704498291,38.516118365805596,20.595954783775326,12.901444938593414,121,31,0.0,81935,384059355281578,4,29.8,-144.83486938476562,0.05350000038743019,25,-766.0860992156217,0.0037714549693657518,1.17645005E9,,,,0,,6,-0.35,1.17645005E9,355.0,NaN,NaN
Fix,gps,51.524771,-0.134194,78.588684,0.770000,3.790092,1582195242000,232499899466257
Fix,gps,51.524772,-0.134191,76.884094,0.000000,3.790092,1582195243000,232500899694534
Raw,232500916639431,649305183000000,,,-1265581155251075290,-0.3819084167480469,36.246310628484935,22.69346279197017,11.783542240187272,121,5,0.0,16399,384060353220150,31,23.0,729.2440185546875,0.1307000070810318,21,9229.350736742597,0.19029366893311156,1.57542003E9,,,,0,,1,0.4,1.57542003E9,355.0,NaN,NaN
Raw,232500916639431,649305183000000,,,-1265581155251075290,-0.3819084167480469,36.246310628484935,22.69346279197017,11.783542240187272,121,13,0.0,16399,384060366157427,6,38.1,220.7223358154297,0.02810000069439411,25,2840.9101459037743,9.324389888310735E-4,1.57542003E9,,,,0,,1,0.4,1.57542003E9,355.0,NaN,NaN
Raw,232500916639431,649305183000000,,,-1265581155251075290,-0.3819084167480469,36.246310628484935,22.69346279197017,11.783542240187272,121,15,0.0,16399,384060366366972,12,32.6,-114.7490234375,0.03060000203549862,21,-1437.9474506418344,0.001807789796734829,1.57542003E9,,,,0,,1,0.4,1.57542003E9,355.0,NaN,NaN
Raw,232500916639431,649305183000000,,,-1265581155251075290,-0.3819084167480469,36.246310628484935,22.69346279197017,11.783542240187272,121,17,0.0,16399,384060351510439,27,24.3,-536.6658935546875,0.05780000239610672,29,-4772.0719392629835,0.19029366893311156,1.57542003E9,,,,0,,1,0.4,1.57542003E9,355.0,NaN,NaN
Raw,232500916639431,649305183000000,,,-1265581155251075290,-0.3819084167480469,36.246310628484935,22.69346279197017,11.783542240187272,121,24,0.0,16399,384060358401310,9,35.1,-584.78857421875,0.0471000038087368,25,-2835.644276563044,0.0013320557236479321,1.57542003E9,,,,0,,1,0.4,1.57542003E9,355.0,NaN,NaN
Raw,232500916639431,649305183000000,,,-1265581155251075290,-0.3819084167480469,36.246310628484935,22.69346279197017,11.783542240187272,121,28,0.0,16399,384060362543394,4,42.2,185.59347534179688,0.02110000140964985,25,2387.8108061371818,5.899103906353357E-4,1.57542003E9,,,,0,,1,0.4,1.57542003E9,355.0,NaN,NaN
Raw,232500916639431,649305183000000,,,-1265581155251075290,-0.3819084167480469,36.246310628484935,22.69346279197017,11.783542240187272,121,30,0.0,16399,384060356196298,6,39.6,593.1676635742188,0.04280000180006027,25,7627.977282836128,8.372921387687362E-4,1.57542003E9,,,,0,,1,0.4,1.57542003E9,355.0,NaN,NaN
Raw,232500916639431,649305183000000,,,-1265581155251075290,-0.3819084167480469,36.246310628484935,22.69346279197017,11.783542240187272,121,14,0.0,49359,49242370213202,8,36.1,-35.40461730957031,0.2346000075340271,29,-401.2258850605881,0.0011443444794587703,1.59806246E9,,,,0,,3,-0.47,1.59806246E9,355.0,NaN,NaN
Raw,232500916639431,649305183000000,,,-1265581155251075290,-0.3819084167480469,36.246310628484935,22.69346279197017,11.783542240187272,121,22,0.0,49359,49242356524708,17,28.2,-170.8057861328125,0.2492000013589859,29,-1795.1850946934974,0.002959872375920247,1.60031245E9,,,,0,,3,-0.47,1.60031245E9,355.0,NaN,NaN
Raw,232500916639431,649305183000000,,,-1265581155251075290,-0.3819084167480469,36.246310628484935,22.69346279197017,11.783542240187272,121,13,0.0,49359,49242363224467,27,24.6,642.0616455078125,0.24580000340938568,29,7986.698648282179,0.18726787319550683,1.60087501E9,,,,0,,3,-0.47,1.60087501E9,355.0,NaN,NaN
Raw,232500916639431,649305183000000,,,-1265581155251075290,-0.3819084167480469,36.246310628484935,22.69346279197017,11.783542240187272,121,15,0.0,49359,49242361968281,11,33.8,-659.5563354492188,0.22269999980926514,25,-8181.770073048358,0.0016280864052631069,1.602E9,,,,0,,3,-0.47,1.602E9,355.0,NaN,NaN
Raw,232500916639431,649305183000000,,,-1265581155251075290,-0.3819084167480469,36.246310628484935,22.69346279197017,11.783542240187272,121,5,0.0,49359,49242364898317,7,37.6,-560.8950805664062,0.22540000081062317,25,-6958.315641519232,9.91474542321254E-4,1.60256256E9,,,,0,,3,-0.47,1.60256256E9,355.0,NaN,NaN
Raw,232500916639431,649305183000000,,,-1265581155251075290,-0.3819084167480469,36.246310628484935,22.69346279197017,11.783542240187272,121,3,0.0,49359,49242359998004,9,35.8,772.9095458984375,0.21860000491142273,25,9613.991675861018,0.0013076588157421632,1.60481254E9,,,,0,,3,-0.47,1.60481254E9,355.0,NaN,NaN
Raw,232500916639431,649305183000000,,,-1265581155251075290,-0.3819084167480469,36.246310628484935,22.69346279197017,11.783542240187272,121,4,0.0,49359,49242369692929,14,30.9,199.55564880371094,0.23640000820159912,25,2486.659060294076,0.0023529611661979592,1.60537498E9,,,,0,,3,-0.47,1.60537498E9,355.0,NaN,NaN
Raw,232500916639431,649305183000000,,,-1265581155251075290,-0.3819084167480469,36.246310628484935,22.69346279197017,11.783542240187272,121,37,0.0,16399,384046354623803,5,41.1,480.75787353515625,0.03930000215768814,17,5326.095079686834,6.913421459270097E-4,1.56109798E9,,,,0,,5,0.41,1.56109798E9,355.0,NaN,NaN
Raw,232500916639431,649305183000000,,,-1265581155251075290,-0.3819084167480469,36.246310628484935,22.69346279197017,11.783542240187272,121,22,0.0,16399,384046354089518,12,32.7,-404.16973876953125,0.04260000213980675,17,-4456.0462116881345,0.0018243750799829725,1.56109798E9,,,,0,,5,0.41,1.56109798E9,355.0,NaN,NaN
Raw,232500916639431,649305183000000,,,-1265581155251075290,-0.3819084167480469,36.246310628484935,22.69346279197017,11.783542240187272,121,20,0.0,16399,384046351271129,10,34.9,639.6782836914062,0.03710000216960907,17,8160.55264826414,0.001536315979199305,1.56109798E9,,,,0,,5,0.41,1.56109798E9,355.0,NaN,NaN
Raw,232500916639431,649305183000000,,,-1265581155251075290,-0.3819084167480469,36.246310628484935,22.69346279197017,11.783542240187272,121,19,0.0,16399,384046360606698,19,27.5,198.44512939453125,0.025800000876188278,19,2203.3522669142667,0.0032646714781548623,1.56109798E9,,,,0,,5,0.41,1.56109798E9,355.0,NaN,NaN
Raw,232500916639431,649305183000000,,,-1265581155251075290,-0.3819084167480469,36.246310628484935,22.69346279197017,11.783542240187272,121,10,0.0,16399,384046301732980,17,28.9,173.4828643798828,0.02670000120997429,21,1928.3382468895834,0.003034223768286223,1.56109798E9,,,,0,,5,0.41,1.56109798E9,355.0,NaN,NaN
Raw,232500916639431,649305183000000,,,-1265581155251075290,-0.3819084167480469,36.246310628484935,22.69346279197017,11.783542240187272,121,5,0.0,17167,384046298021315,31,23.0,5.338697910308838,5.736599922180176,16,0.0,0.0,1.56109798E9,,,,0,,5,0.41,1.56109798E9,355.0,NaN,NaN
Raw,232500916639431,649305183000000,,,-1265581155251075290,-0.3819084167480469,36.246310628484935,22.69346279197017,11.783542240187272,121,1,0.0,23567,384060349756571,10,34.7,389.3134460449219,0.04610000178217888,21,4969.853671160885,0.003311109885939926,1.57542003E9,,,,0,,6,0.44,1.57542003E9,355.0,NaN,NaN
Raw,232500916639431,649305183000000,,,-1265581155251075290,-0.3819084167480469,36.246310628484935,22.69346279197017,11.783542240187272,121,4,0.0,23567,384060347794858,8,36.5,503.3525390625,0.042100001126527786,25,6425.179940840526,0.0025499350854412276,1.57542003E9,,,,0,,6,0.44,1.57542003E9,355.0,NaN,NaN
Raw,232500916639431,649305183000000,,,-1265581155251075290,-0.3819084167480469,36.246310628484935,22.69346279197017,11.783542240187272,121,5,0.0,23567,384060348862842,19,27.2,-420.69256591796875,0.049800001084804535,21,-5344.751289211144,0.007212130206821385,1.57542003E9,,,,0,,6,0.44,1.57542003E9,355.0,NaN,NaN
Raw,232500916639431,649305183000000,,,-1265581155251075290,-0.3819084167480469,36.246310628484935,22.69346279197017,11.783542240187272,121,9,0.0,23567,384060362370969,19,27.7,58.78908920288086,0.052800003439188004,21,758.4869846249678,0.007212130206821385,1.57542003E9,,,,0,,6,0.44,1.57542003E9,355.0,NaN,NaN
Raw,232500916639431,649305183000000,,,-1265581155251075290,-0.3819084167480469,36.246310628484935,22.69346279197017,11.783542240187272,121,24,0.0,23567,384060352150394,31,23.5,-550.8050537109375,0.6904999613761902,16,0.0,0.0,1.57542003E9,,,,0,,6,0.44,1.57542003E9,355.0,NaN,NaN
Raw,232500916639431,649305183000000,,,-1265581155251075290,-0.3819084167480469,36.246310628484935,22.69346279197017,11.783542240187272,121,31,0.0,23567,384060355274952,8,36.7,-145.26930236816406,0.048100002110004425,25,-1794.0765968515095,0.0025499350854412276,1.57542003E9,,,,0,,6,0.44,1.57542003E9,355.0,NaN,NaN
Raw,232500916639431,649305183000000,,,-1265581155251075290,-0.3819084167480469,36.246310628484935,22.69346279197017,11.783542240187272,121,24,0.0,81935,384060358409166,8,23.1,-584.874267578125,0.06120000034570694,29,-1958.9897679305016,0.25482803839368795,1.17645005E9,,,,0,,1,-5.04,1.17645005E9,355.0,NaN,NaN
Raw,232500916639431,649305183000000,,,-1265581155251075290,-0.3819084167480469,36.246310628484935,22.69346279197017,11.783542240187272,121,30,0.0,81935,384060356204130,2,34.1,593.1937866210938,0.048500001430511475,25,2883.145138865605,0.0020386244039789624,1.17645005E9,,,,0,,1,-5.04,1.17645005E9,355.0,NaN,NaN
Raw,232500916639431,649305183000000,,,-1265581155251075290,-0.3819084167480469,36.246310628484935,22.69346279197017,11.783542240187272,121,1,0.0,81935,384060349763653,2,34.3,388.87158203125,0.03800000250339508,25,2450.867491098586,0.0020386244039789624,1.17645005E9,,,,0,,6,-5.04,1.17645005E9,355.0,NaN,NaN
Raw,232500916639431,649305183000000,,,-1265581155251075290,-0.3819084167480469,36.246310628484935,22.69346279197017,11.783542240187272,121,4,0.0,81935,384060347801939,8,22.7,503.2296142578125,0.047200001776218414,29,3170.3939462131593,0.34557229348499413,1.17645005E9,,,,0,,6,-5.04,1.17645005E9,355.0,NaN,NaN
Raw,232500916639431,649305183000000,,,-1265581155251075290,-0.3819084167480469,36.246310628484935,22.69346279197017,11.783542240187272,121,5,0.0,81935,384060348869954,9,21.4,-421.2562255859375,0.7985000014305115,16,0.0,0.0,1.17645005E9,,,,0,,6,-5.04,1.17645005E9,355.0,NaN,NaN
Raw,232500916639431,649305183000000,,,-1265581155251075290,-0.3819084167480469,36.246310628484935,22.69346279197017,11.783542240187272,121,9,0.0,81935,384060362378058,11,19.5,58.14726638793945,0.15289999544620514,29,370.00623076204585,0.34557229348499413,1.17645005E9,,,,0,,6,-5.04,1.17645005E9,355.0,NaN,NaN
Raw,232500916639431,649305183000000,,,-1265581155251075290,-0.3819084167480469,36.246310628484935,22.69346279197017,11.783542240187272,121,31,0.0,81935,384060355282052,3,32.8,-145.76950073242188,0.04910000041127205,29,-910.6170265106884,0.0024208662868967453,1.17645005E9,,,,0,,6,-5.04,1.17645005E9,355.0,NaN,NaN
Fix,gps,51.524770,-0.134191,76.581909,0.000000,3.790092,1582195244000,232501903069321
Raw,232501917339114,649306183000000,,,-1265581155251075281,-0.10593557357788086,33.33925633342005,17.7891424067921,11.536251100017722,121,5,0.0,16399,384061353217851,21,26.1,729.5490112304688,0.04620000347495079,21,9958.527351843737,0.005442398901996786,1.57542003E9,,,,0,,1,0.65,1.57542003E9,355.0,NaN,NaN
Raw,232501917339114,649306183000000,,,-1265581155251075281,-0.10593557357788086,33.33925633342005,17.7891424067921,11.536251100017722,121,13,0.0,16399,384061366156700,6,38.0,220.9940185546875,0.02810000069439411,25,3061.5610761634334,9.324389888310735E-4,1.57542003E9,,,,0,,1,0.65,1.57542003E9,355.0,NaN,NaN
Raw,232501917339114,649306183000000,,,-1265581155251075281,-0.10593557357788086,33.33925633342005,17.7891424067921,11.536251100017722,121,15,0.0,16399,384061366367383,10,34.6,-114.48884582519531,0.029600001871585846,17,-1552.766752570252,0.0015223494237726067,1.57542003E9,,,,0,,1,0.65,1.57542003E9,355.0,NaN,NaN
Raw,232501917339114,649306183000000,,,-1265581155251075281,-0.10593557357788086,33.33925633342005,17.7891424067921,11.536251100017722,121,24,0.0,16399,384061358403287,11,33.7,-584.6719970703125,0.04820000380277634,25,-3420.6070084523108,0.001655554942969963,1.57542003E9,,,,0,,1,0.65,1.57542003E9,355.0,NaN,NaN
Raw,232501917339114,649306183000000,,,-1265581155251075281,-0.10593557357788086,33.33925633342005,17.7891424067921,11.536251100017722,121,28,0.0,16399,384061362542789,7,37.5,185.98736572265625,0.02240000106394291,25,2573.423651251183,0.0010085564157135064,1.57542003E9,,,,0,,1,0.65,1.57542003E9,355.0,NaN,NaN
Raw,232501917339114,649306183000000,,,-1265581155251075281,-0.10593557357788086,33.33925633342005,17.7891424067921,11.536251100017722,121,30,0.0,16399,384061356194331,9,35.8,593.5084838867188,0.04410000145435333,25,8221.085752950656,0.0013320557236479321,1.57542003E9,,,,0,,1,0.65,1.57542003E9,355.0,NaN,NaN
Raw,232501917339114,649306183000000,,,-1265581155251075281,-0.10593557357788086,33.33925633342005,17.7891424067921,11.536251100017722,121,14,0.0,49359,49243370213337,11,33.7,-35.112091064453125,0.2362000048160553,25,-436.7021512945149,0.0016320979185651513,1.59806246E9,,,,0,,3,-0.29,1.59806246E9,355.0,NaN,NaN
Raw,232501917339114,649306183000000,,,-1265581155251075281,-0.10593557357788086,33.33925633342005,17.7891424067921,11.536251100017722,121,22,0.0,49359,49243356525192,13,31.5,-170.51455688476562,0.24610000848770142,25,-1966.0770919658444,0.002041937391252294,1.60031245E9,,,,0,,3,-0.29,1.60031245E9,355.0,NaN,NaN
Raw,232501917339114,649306183000000,,,-1265581155251075281,-0.10593557357788086,33.33925633342005,17.7891424067921,11.536251100017722,121,13,0.0,49359,49243363222281,27,24.8,642.2501831054688,0.24580000340938568,21,8628.43783959263,0.18726787319550683,1.60087501E9,,,,0,,3,-0.29,1.60087501E9,355.0,NaN,NaN
Raw,232501917339114,649306183000000,,,-1265581155251075281,-0.10593557357788086,33.33925633342005,17.7891424067921,11.536251100017722,121,15,0.0,49359,49243361970528,14,30.4,-659.402587890625,0.22439999878406525,25,-8841.46742940073,0.0023579182120561683,1.602E9,,,,0,,3,-0.29,1.602E9,355.0,NaN,NaN
Raw,232501917339114,649306183000000,,,-1265581155251075281,-0.10593557357788086,33.33925633342005,17.7891424067921,11.536251100017722,121,5,0.0,49359,49243364900116,21,26.8,-560.554443359375,0.23270000517368317,25,-7519.267164485661,0.005350221243369457,1.60256256E9,,,,0,,3,-0.29,1.60256256E9,355.0,NaN,NaN
Raw,232501917339114,649306183000000,,,-1265581155251075281,-0.10593557357788086,33.33925633342005,17.7891424067921,11.536251100017722,121,3,0.0,49359,49243359995405,6,39.2,773.141357421875,0.21729999780654907,25,10386.822386926264,8.219569400701237E-4,1.60481254E9,,,,0,,3,-0.29,1.60481254E9,355.0,NaN,NaN
Raw,232501917339114,649306183000000,,,-1265581155251075281,-0.10593557357788086,33.33925633342005,17.7891424067921,11.536251100017722,121,4,0.0,49359,49243369692222,19,27.7,199.75436401367188,0.23930001258850098,21,2686.1274528601157,0.0031746303132669834,1.60537498E9,,,,0,,3,-0.29,1.60537498E9,355.0,NaN,NaN
Raw,232501917339114,649306183000000,,,-1265581155251075281,-0.10593557357788086,33.33925633342005,17.7891424067921,11.536251100017722,121,37,0.0,16399,384047354622183,6,39.4,481.0970458984375,0.0398000031709671,17,5806.834036709664,8.449737438469402E-4,1.56109798E9,,,,0,,5,0.64,1.56109798E9,355.0,NaN,NaN
Raw,232501917339114,649306183000000,,,-1265581155251075281,-0.10593557357788086,33.33925633342005,17.7891424067921,11.536251100017722,121,22,0.0,16399,384047354090863,11,33.9,-404.03570556640625,0.0422000028192997,17,-4860.414576537709,0.0016707435714883973,1.56109798E9,,,,0,,5,0.64,1.56109798E9,355.0,NaN,NaN
Raw,232501917339114,649306183000000,,,-1265581155251075281,-0.10593557357788086,33.33925633342005,17.7891424067921,11.536251100017722,121,20,0.0,16399,384047351268980,7,37.9,639.863525390625,0.03590000048279762,17,8800.135050457973,0.0010178092579723537,1.56109798E9,,,,0,,5,0.64,1.56109798E9,355.0,NaN,NaN
Raw,232501917339114,649306183000000,,,-1265581155251075281,-0.10593557357788086,33.33925633342005,17.7891424067921,11.536251100017722,121,19,0.0,16399,384047360606030,31,23.9,198.57078552246094,0.1112000048160553,21,2401.6385081317358,0.1920394882785269,1.56109798E9,,,,0,,5,0.64,1.56109798E9,355.0,NaN,NaN
Raw,232501917339114,649306183000000,,,-1265581155251075281,-0.10593557357788086,33.33925633342005,17.7891424067921,11.536251100017722,121,10,0.0,16399,384047301732246,27,24.9,173.50328063964844,0.04280000180006027,21,2101.6841413607067,0.1920394882785269,1.56109798E9,,,,0,,5,0.64,1.56109798E9,355.0,NaN,NaN
Raw,232501917339114,649306183000000,,,-1265581155251075281,-0.10593557357788086,33.33925633342005,17.7891424067921,11.536251100017722,121,1,0.0,23567,384061349755255,6,38.3,389.51263427734375,0.044600002467632294,25,5359.190180712322,0.0020551716777868216,1.57542003E9,,,,0,,6,0.6,1.57542003E9,355.0,NaN,NaN
Raw,232501917339114,649306183000000,,,-1265581155251075281,-0.10593557357788086,33.33925633342005,17.7891424067921,11.536251100017722,121,4,0.0,23567,384061347793157,6,39.3,503.4895935058594,0.04130000248551369,25,6928.376686185589,0.0018458486430946374,1.57542003E9,,,,0,,6,0.6,1.57542003E9,355.0,NaN,NaN
Raw,232501917339114,649306183000000,,,-1265581155251075281,-0.10593557357788086,33.33925633342005,17.7891424067921,11.536251100017722,121,5,0.0,23567,384061348864233,19,27.5,-420.7605285644531,0.049800001084804535,21,-5765.800264523343,0.007212130206821385,1.57542003E9,,,,0,,6,0.6,1.57542003E9,355.0,NaN,NaN
Raw,232501917339114,649306183000000,,,-1265581155251075281,-0.10593557357788086,33.33925633342005,17.7891424067921,11.536251100017722,121,9,0.0,23567,384061362370731,17,28.8,58.70151901245117,0.05220000073313713,25,817.0372361097791,0.006565131413727744,1.57542003E9,,,,0,,6,0.6,1.57542003E9,355.0,NaN,NaN
Raw,232501917339114,649306183000000,,,-1265581155251075281,-0.10593557357788086,33.33925633342005,17.7891424067921,11.536251100017722,121,24,0.0,23567,384061352152161,27,24.0,-550.8050537109375,0.6904999613761902,16,0.0,0.0,1.57542003E9,,,,0,,6,0.6,1.57542003E9,355.0,NaN,NaN
Raw,232501917339114,649306183000000,,,-1265581155251075281,-0.10593557357788086,33.33925633342005,17.7891424067921,11.536251100017722,121,31,0.0,23567,384061355275453,8,36.7,-145.1768341064453,0.048100002110004425,25,-1939.5600147068349,0.0025499350854412276,1.57542003E9,,,,0,,6,0.6,1.57542003E9,355.0,NaN,NaN
Raw,232501917339114,649306183000000,,,-1265581155251075281,-0.10593557357788086,33.33925633342005,17.7891424067921,11.536251100017722,121,24,0.0,81935,384061358411119,6,26.5,-584.666015625,0.06909999996423721,29,-2543.960354200577,0.007288081858568245,1.17645005E9,,,,0,,1,-1.6,1.17645005E9,355.0,NaN,NaN
Raw,232501917339114,649306183000000,,,-1265581155251075281,-0.10593557357788086,33.33925633342005,17.7891424067921,11.536251100017722,121,30,0.0,81935,384061356202150,2,37.6,593.4933471679688,0.04610000178217888,25,3476.2822379778618,0.0013505885638054542,1.17645005E9,,,,0,,1,-1.6,1.17645005E9,355.0,NaN,NaN
Raw,232501917339114,649306183000000,,,-1265581155251075281,-0.10593557357788086,33.33925633342005,17.7891424067921,11.536251100017722,121,1,0.0,81935,384061349762352,5,28.5,389.5605163574219,0.04660000279545784,25,2840.033494912436,0.0040262828122019055,1.17645005E9,,,,0,,6,-1.6,1.17645005E9,355.0,NaN,NaN
Raw,232501917339114,649306183000000,,,-1265581155251075281,-0.10593557357788086,33.33925633342005,17.7891424067921,11.536251100017722,121,4,0.0,81935,384061347800260,4,29.7,503.4214782714844,0.04150000214576721,29,3673.592638536357,0.0037714549693657518,1.17645005E9,,,,0,,6,-1.6,1.17645005E9,355.0,NaN,NaN
Raw,232501917339114,649306183000000,,,-1265581155251075281,-0.10593557357788086,33.33925633342005,17.7891424067921,11.536251100017722,121,5,0.0,81935,384061348871355,5,27.9,-420.9432067871094,0.04800000041723251,27,-3059.780024304828,0.004332076888121183,1.17645005E9,,,,0,,6,-1.6,1.17645005E9,355.0,NaN,NaN
Raw,232501917339114,649306183000000,,,-1265581155251075281,-0.10593557357788086,33.33925633342005,17.7891424067921,11.536251100017722,121,9,0.0,81935,384061362377887,7,24.7,58.49577713012695,0.6195000410079956,16,0.0,0.0,1.17645005E9,,,,0,,6,-1.6,1.17645005E9,355.0,NaN,NaN
Raw,232501917339114,649306183000000,,,-1265581155251075281,-0.10593557357788086,33.33925633342005,17.7891424067921,11.536251100017722,121,24,0.0,81935,384061352159240,16,16.7,-552.1995849609375,1.934499979019165,16,0.0,0.0,1.17645005E9,,,,0,,6,-1.6,1.17645005E9,355.0,NaN,NaN
Raw,232501917339114,649306183000000,,,-1265581155251075281,-0.10593557357788086,33.33925633342005,17.7891424067921,11.536251100017722,121,31,0.0,81935,384061355282540,3,33.7,-145.2449951171875,0.04800000041723251,25,-1056.1315153845132,0.0022170039651624013,1.17645005E9,,,,0,,6,-1.6,1.17645005E9,355.0,NaN,NaN
Fix,gps,51.524770,-0.134192,76.399353,0.000000,3.790092,1582195245000,232502901249421
Raw,232502938782810,649307183000000,,,-1265581155251075267,-0.7246928215026855,33.02983895991929,18.403989924777886,11.539676365706663,121,5,0.0,16399,384062353215348,31,23.2,729.0960083007812,0.1307000070810318,21,10687.991298815343,0.19029366893311156,1.57542003E9,,,,0,,1,0.65,1.57542003E9,355.0,NaN,NaN
Raw,232502938782810,649307183000000,,,-1265581155251075267,-0.7246928215026855,33.02983895991929,18.403989924777886,11.539676365706663,121,13,0.0,16399,384062366155955,6,38.5,220.78700256347656,0.02810000069439411,25,3282.5661050408135,9.324389888310735E-4,1.57542003E9,,,,0,,1,0.65,1.57542003E9,355.0,NaN,NaN
Raw,232502938782810,649307183000000,,,-1265581155251075267,-0.7246928215026855,33.02983895991929,18.403989924777886,11.539676365706663,121,15,0.0,16399,384062366367734,7,37.1,-114.63422393798828,0.028400002047419548,17,-1667.1944307546592,0.0010085564157135064,1.57542003E9,,,,0,,1,0.65,1.57542003E9,355.0,NaN,NaN
Raw,232502938782810,649307183000000,,,-1265581155251075267,-0.7246928215026855,33.02983895991929,18.403989924777886,11.539676365706663,121,17,0.0,16399,384062351513762,27,24.1,-536.661865234375,0.027800001204013824,19,-242.22919509792922,0.19029366893311156,1.57542003E9,,,,0,,1,0.65,1.57542003E9,355.0,NaN,NaN
Raw,232502938782810,649307183000000,,,-1265581155251075267,-0.7246928215026855,33.02983895991929,18.403989924777886,11.539676365706663,121,20,0.0,16399,384062357393692,24,25.4,-359.56402587890625,0.02879999950528145,19,-164.37381928295014,0.19029366893311156,1.57542003E9,,,,0,,1,0.65,1.57542003E9,355.0,NaN,NaN
Raw,232502938782810,649307183000000,,,-1265581155251075267,-0.7246928215026855,33.02983895991929,18.403989924777886,11.539676365706663,121,24,0.0,16399,384062358405218,9,35.2,-584.9441528320312,0.0471000038087368,25,-4005.305183674919,0.0013320557236479321,1.57542003E9,,,,0,,1,0.65,1.57542003E9,355.0,NaN,NaN
Raw,232502938782810,649307183000000,,,-1265581155251075267,-0.7246928215026855,33.02983895991929,18.403989924777886,11.539676365706663,121,28,0.0,16399,384062362542193,6,38.0,185.81521606445312,0.022100001573562622,25,2759.439855370767,9.324389888310735E-4,1.57542003E9,,,,0,,1,0.65,1.57542003E9,355.0,NaN,NaN
Raw,232502938782810,649307183000000,,,-1265581155251075267,-0.7246928215026855,33.02983895991929,18.403989924777886,11.539676365706663,121,30,0.0,16399,384062356192361,12,32.9,593.3177490234375,0.04560000076889992,25,8814.648751100858,0.001807789796734829,1.57542003E9,,,,0,,1,0.65,1.57542003E9,355.0,NaN,NaN
Raw,232502938782810,649307183000000,,,-1265581155251075267,-0.7246928215026855,33.02983895991929,18.403989924777886,11.539676365706663,121,14,0.0,49359,49244370213444,10,34.8,-35.261924743652344,0.23560000956058502,25,-471.7732438508729,0.0015007797454374234,1.59806246E9,,,,0,,3,-0.26,1.59806246E9,355.0,NaN,NaN
Raw,232502938782810,649307183000000,,,-1265581155251075267,-0.7246928215026855,33.02983895991929,18.403989924777886,11.539676365706663,121,22,0.0,49359,49244356525838,13,31.3,-170.59353637695312,0.24610000848770142,25,-2136.4765153420067,0.002041937391252294,1.60031245E9,,,,0,,3,-0.26,1.60031245E9,355.0,NaN,NaN
Raw,232502938782810,649307183000000,,,-1265581155251075267,-0.7246928215026855,33.02983895991929,18.403989924777886,11.539676365706663,121,13,0.0,49359,49244363220116,16,29.1,642.08642578125,0.22840000689029694,25,9270.741894206862,0.0027715645241306536,1.60087501E9,,,,0,,3,-0.26,1.60087501E9,355.0,NaN,NaN
Raw,232502938782810,649307183000000,,,-1265581155251075267,-0.7246928215026855,33.02983895991929,18.403989924777886,11.539676365706663,121,15,0.0,49359,49244361972720,17,28.9,-659.6066284179688,0.22670000791549683,25,-9500.862344206513,0.0029567544367518762,1.602E9,,,,0,,3,-0.26,1.602E9,355.0,NaN,NaN
Raw,232502938782810,649307183000000,,,-1265581155251075267,-0.7246928215026855,33.02983895991929,18.403989924777886,11.539676365706663,121,5,0.0,49359,49244364902018,19,27.1,-560.785400390625,0.23180000483989716,25,-8079.817813360991,0.0031802016284280693,1.60256256E9,,,,0,,3,-0.26,1.60256256E9,355.0,NaN,NaN
Raw,232502938782810,649307183000000,,,-1265581155251075267,-0.7246928215026855,33.02983895991929,18.403989924777886,11.539676365706663,121,3,0.0,49359,49244359992824,6,39.9,772.8866577148438,0.20229999721050262,25,11159.954532253261,8.219569400701237E-4,1.60481254E9,,,,0,,3,-0.26,1.60481254E9,355.0,NaN,NaN
Raw,232502938782810,649307183000000,,,-1265581155251075267,-0.7246928215026855,33.02983895991929,18.403989924777886,11.539676365706663,121,4,0.0,49359,49244369691575,11,33.9,199.68255615234375,0.234700009226799,25,2885.9807874803832,0.0016246636830792964,1.60537498E9,,,,0,,3,-0.26,1.60537498E9,355.0,NaN,NaN
Raw,232502938782810,649307183000000,,,-1265581155251075267,-0.7246928215026855,33.02983895991929,18.403989924777886,11.539676365706663,121,37,0.0,16399,384048354620581,7,37.4,480.8993225097656,0.040400002151727676,17,6287.962556509331,0.0010178092579723537,1.56109798E9,,,,0,,5,0.71,1.56109798E9,355.0,NaN,NaN
Raw,232502938782810,649307183000000,,,-1265581155251075267,-0.7246928215026855,33.02983895991929,18.403989924777886,11.539676365706663,121,22,0.0,16399,384048354092214,12,32.4,-404.1695556640625,0.04260000213980675,17,-5264.3841456177515,0.0018243750799829725,1.56109798E9,,,,0,,5,0.71,1.56109798E9,355.0,NaN,NaN
Raw,232502938782810,649307183000000,,,-1265581155251075267,-0.7246928215026855,33.02983895991929,18.403989924777886,11.539676365706663,121,20,0.0,16399,384048351266846,7,37.4,639.622314453125,0.03590000048279762,17,9439.989871447206,0.0010178092579723537,1.56109798E9,,,,0,,5,0.71,1.56109798E9,355.0,NaN,NaN
Raw,232502938782810,649307183000000,,,-1265581155251075267,-0.7246928215026855,33.02983895991929,18.403989924777886,11.539676365706663,121,19,0.0,16399,384048360605414,27,24.2,198.40570068359375,0.04130000248551369,21,2600.224033939814,0.1920394882785269,1.56109798E9,,,,0,,5,0.71,1.56109798E9,355.0,NaN,NaN
Raw,232502938782810,649307183000000,,,-1265581155251075267,-0.7246928215026855,33.02983895991929,18.403989924777886,11.539676365706663,121,10,0.0,16399,384048301731863,35,22.3,173.89175415039062,0.7879999876022339,16,0.0,0.0,1.56109798E9,,,,0,,5,0.71,1.56109798E9,355.0,NaN,NaN
Raw,232502938782810,649307183000000,,,-1265581155251075267,-0.7246928215026855,33.02983895991929,18.403989924777886,11.539676365706663,121,1,0.0,23567,384062349753971,5,40.3,389.36724853515625,0.04410000145435333,25,5748.758817052323,0.001617496273834944,1.57542003E9,,,,0,,6,0.6,1.57542003E9,355.0,NaN,NaN
Raw,232502938782810,649307183000000,,,-1265581155251075267,-0.7246928215026855,33.02983895991929,18.403989924777886,11.539676365706663,121,4,0.0,23567,384062347791497,6,39.7,503.3108215332031,0.04130000248551369,25,7431.893828207273,0.0018458486430946374,1.57542003E9,,,,0,,6,0.6,1.57542003E9,355.0,NaN,NaN
Raw,232502938782810,649307183000000,,,-1265581155251075267,-0.7246928215026855,33.02983895991929,18.403989924777886,11.539676365706663,121,5,0.0,23567,384062348865637,19,27.3,-420.8716735839844,0.049800001084804535,21,-6186.528240807522,0.007212130206821385,1.57542003E9,,,,0,,6,0.6,1.57542003E9,355.0,NaN,NaN
Raw,232502938782810,649307183000000,,,-1265581155251075267,-0.7246928215026855,33.02983895991929,18.403989924777886,11.539676365706663,121,9,0.0,23567,384062362370532,13,31.6,58.559913635253906,0.04910000041127205,25,875.7893947326152,0.004528989424958011,1.57542003E9,,,,0,,6,0.6,1.57542003E9,355.0,NaN,NaN
Raw,232502938782810,649307183000000,,,-1265581155251075267,-0.7246928215026855,33.02983895991929,18.403989924777886,11.539676365706663,121,24,0.0,23567,384062352154080,31,23.7,-551.2522583007812,0.6904999613761902,16,0.0,0.0,1.57542003E9,,,,0,,6,0.6,1.57542003E9,355.0,NaN,NaN
Raw,232502938782810,649307183000000,,,-1265581155251075267,-0.7246928215026855,33.02983895991929,18.403989924777886,11.539676365706663,121,31,0.0,23567,384062355275937,8,36.5,-145.33062744140625,0.048100002110004425,25,-2084.688248981965,0.0025499350854412276,1.57542003E9,,,,0,,6,0.6,1.57542003E9,355.0,NaN,NaN
Raw,232502938782810,649307183000000,,,-1265581155251075267,-0.7246928215026855,33.02983895991929,18.403989924777886,11.539676365706663,121,24,0.0,81935,384062358413069,5,27.3,-584.9208374023438,0.06300000101327896,25,-3128.6388363875108,0.004332076888121183,1.17645005E9,,,,0,,1,-4.11,1.17645005E9,355.0,NaN,NaN
Raw,232502938782810,649307183000000,,,-1265581155251075267,-0.7246928215026855,33.02983895991929,18.403989924777886,11.539676365706663,121,30,0.0,81935,384062356200171,2,38.5,593.2766723632812,0.045500002801418304,25,4069.803899874436,0.0012486574029382824,1.17645005E9,,,,0,,1,-4.11,1.17645005E9,355.0,NaN,NaN
Raw,232502938782810,649307183000000,,,-1265581155251075267,-0.7246928215026855,33.02983895991929,18.403989924777886,11.539676365706663,121,1,0.0,81935,384062349761055,5,28.7,389.3591003417969,0.04660000279545784,25,3229.6304240092118,0.0040262828122019055,1.17645005E9,,,,0,,6,-4.11,1.17645005E9,355.0,NaN,NaN
Raw,232502938782810,649307183000000,,,-1265581155251075267,-0.7246928215026855,33.02983895991929,18.403989924777886,11.539676365706663,121,4,0.0,81935,384062347798579,5,28.7,503.3251037597656,0.04360000044107437,25,4177.119539653766,0.0040262828122019055,1.17645005E9,,,,0,,6,-4.11,1.17645005E9,355.0,NaN,NaN
Raw,232502938782810,649307183000000,,,-1265581155251075267,-0.7246928215026855,33.02983895991929,18.403989924777886,11.539676365706663,121,5,0.0,81935,384062348872765,5,27.8,-420.9665222167969,0.04800000041723251,25,-3480.4858811180475,0.004332076888121183,1.17645005E9,,,,0,,6,-4.11,1.17645005E9,355.0,NaN,NaN
Raw,232502938782810,649307183000000,,,-1265581155251075267,-0.7246928215026855,33.02983895991929,18.403989924777886,11.539676365706663,121,9,0.0,81935,384062362377696,8,23.7,58.502567291259766,0.03720000013709068,27,484.1984396424079,0.34557229348499413,1.17645005E9,,,,0,,6,-4.11,1.17645005E9,355.0,NaN,NaN
Raw,232502938782810,649307183000000,,,-1265581155251075267,-0.7246928215026855,33.02983895991929,18.403989924777886,11.539676365706663,121,31,0.0,81935,384062355283026,2,34.2,-145.31410217285156,0.04700000211596489,25,-1201.2601674896202,0.0020386244039789624,1.17645005E9,,,,0,,6,-4.11,1.17645005E9,355.0,NaN,NaN
Fix,gps,51.524770,-0.134192,76.277039,0.000000,3.790092,1582195246000,232503898620614
Raw,232503915875199,649308183000000,,,-1265581155251075248,-0.9939332008361816,34.02876973268576,17.59275308469095,10.542195574866113,121,5,0.0,16399,384063353213008,40,21.7,728.9769897460938,0.8659999966621399,16,0.0,0.0,1.57542003E9,,,,0,,1,0.56,1.57542003E9,355.0,NaN,NaN
Raw,232503915875199,649308183000000,,,-1265581155251075248,-0.9939332008361816,34.02876973268576,17.59275308469095,10.542195574866113,121,13,0.0,16399,384063366155216,6,38.6,220.67282104492188,0.02810000069439411,25,3503.2487627849146,9.324389888310735E-4,1.57542003E9,,,,0,,1,0.56,1.57542003E9,355.0,NaN,NaN
Raw,232503915875199,649308183000000,,,-1265581155251075248,-0.9939332008361816,34.02876973268576,17.59275308469095,10.542195574866113,121,15,0.0,16399,384063366368097,7,37.1,-114.75389862060547,0.028400002047419548,17,-1781.938781089044,0.0010085564157135064,1.57542003E9,,,,0,,1,0.56,1.57542003E9,355.0,NaN,NaN
Raw,232503915875199,649308183000000,,,-1265581155251075248,-0.9939332008361816,34.02876973268576,17.59275308469095,10.542195574866113,121,20,0.0,16399,384063357394903,21,26.0,-359.6634521484375,0.05220000073313713,21,-524.0232625061864,0.005442398901996786,1.57542003E9,,,,0,,1,0.56,1.57542003E9,355.0,NaN,NaN
Raw,232503915875199,649308183000000,,,-1265581155251075248,-0.9939332008361816,34.02876973268576,17.59275308469095,10.542195574866113,121,24,0.0,16399,384063358407184,11,33.3,-585.0693359375,0.04820000380277634,25,-4590.359965223303,0.001655554942969963,1.57542003E9,,,,0,,1,0.56,1.57542003E9,355.0,NaN,NaN
Raw,232503915875199,649308183000000,,,-1265581155251075248,-0.9939332008361816,34.02876973268576,17.59275308469095,10.542195574866113,121,28,0.0,16399,384063362541586,7,37.2,185.67181396484375,0.02240000106394291,25,2945.145083242871,0.0010085564157135064,1.57542003E9,,,,0,,1,0.56,1.57542003E9,355.0,NaN,NaN
Raw,232503915875199,649308183000000,,,-1265581155251075248,-0.9939332008361816,34.02876973268576,17.59275308469095,10.542195574866113,121,30,0.0,16399,384063356190335,11,33.3,593.0410766601562,0.04520000144839287,25,9407.751916766696,0.001655554942969963,1.57542003E9,,,,0,,1,0.56,1.57542003E9,355.0,NaN,NaN
Raw,232503915875199,649308183000000,,,-1265581155251075248,-0.9939332008361816,34.02876973268576,17.59275308469095,10.542195574866113,121,14,0.0,49359,49245370213576,12,32.3,-35.3863639831543,0.23660001158714294,25,-507.1344496920385,0.0017821758057520194,1.59806246E9,,,,0,,3,-0.39,1.59806246E9,355.0,NaN,NaN
Raw,232503915875199,649308183000000,,,-1265581155251075248,-0.9939332008361816,34.02876973268576,17.59275308469095,10.542195574866113,121,22,0.0,49359,49245356526403,17,28.0,-170.68373107910156,0.2492000013589859,25,-2307.184424369062,0.002959872375920247,1.60031245E9,,,,0,,3,-0.39,1.60031245E9,355.0,NaN,NaN
Raw,232503915875199,649308183000000,,,-1265581155251075248,-0.9939332008361816,34.02876973268576,17.59275308469095,10.542195574866113,121,13,0.0,49359,49245363217997,16,29.7,641.9019775390625,0.22840000689029694,25,9912.669648743133,0.0027715645241306536,1.60087501E9,,,,0,,3,-0.39,1.60087501E9,355.0,NaN,NaN
Raw,232503915875199,649308183000000,,,-1265581155251075248,-0.9939332008361816,34.02876973268576,17.59275308469095,10.542195574866113,121,15,0.0,49359,49245361974861,10,34.5,-659.728515625,0.22210000455379486,25,-10160.574002731826,0.0014970909974500758,1.602E9,,,,0,,3,-0.39,1.602E9,355.0,NaN,NaN
Raw,232503915875199,649308183000000,,,-1265581155251075248,-0.9939332008361816,34.02876973268576,17.59275308469095,10.542195574866113,121,5,0.0,49359,49245364903925,19,27.9,-560.9253540039062,0.23180000483989716,25,-8640.772611719878,0.0031802016284280693,1.60256256E9,,,,0,,3,-0.39,1.60256256E9,355.0,NaN,NaN
Raw,232503915875199,649308183000000,,,-1265581155251075248,-0.9939332008361816,34.02876973268576,17.59275308469095,10.542195574866113,121,3,0.0,49359,49245359990240,5,40.1,772.7726440429688,0.20210000872612,25,11932.74598486584,7.285527265186209E-4,1.60481254E9,,,,0,,3,-0.39,1.60481254E9,355.0,NaN,NaN
Raw,232503915875199,649308183000000,,,-1265581155251075248,-0.9939332008361816,34.02876973268576,17.59275308469095,10.542195574866113,121,4,0.0,49359,49245369690911,11,33.2,199.58888244628906,0.234700009226799,25,3085.568471813624,0.0016246636830792964,1.60537498E9,,,,0,,3,-0.39,1.60537498E9,355.0,NaN,NaN
Raw,232503915875199,649308183000000,,,-1265581155251075248,-0.9939332008361816,34.02876973268576,17.59275308469095,10.542195574866113,121,37,0.0,16399,384049354618967,9,35.6,480.6674499511719,0.04110000282526016,25,6768.776004157729,0.0013442764594430532,1.56109798E9,,,,0,,5,0.54,1.56109798E9,355.0,NaN,NaN
Raw,232503915875199,649308183000000,,,-1265581155251075248,-0.9939332008361816,34.02876973268576,17.59275308469095,10.542195574866113,121,22,0.0,16399,384049354093544,14,30.9,-404.37725830078125,0.04390000179409981,25,-5668.632181816768,0.0024196975554572116,1.56109798E9,,,,0,,5,0.54,1.56109798E9,355.0,NaN,NaN
Raw,232503915875199,649308183000000,,,-1265581155251075248,-0.9939332008361816,34.02876973268576,17.59275308469095,10.542195574866113,121,20,0.0,16399,384049351264708,6,38.4,639.4553833007812,0.035600002855062485,25,10079.567352667658,9.409935037250662E-4,1.56109798E9,,,,0,,5,0.54,1.56109798E9,355.0,NaN,NaN
Raw,232503915875199,649308183000000,,,-1265581155251075248,-0.9939332008361816,34.02876973268576,17.59275308469095,10.542195574866113,121,19,0.0,16399,384049360604720,27,24.3,198.3800048828125,0.02630000002682209,29,2798.6909458927253,0.1920394882785269,1.56109798E9,,,,0,,5,0.54,1.56109798E9,355.0,NaN,NaN
Raw,232503915875199,649308183000000,,,-1265581155251075248,-0.9939332008361816,34.02876973268576,17.59275308469095,10.542195574866113,121,10,0.0,16399,384049301731314,40,21.7,173.52688598632812,0.7730000019073486,16,0.0,0.0,1.56109798E9,,,,0,,5,0.54,1.56109798E9,355.0,NaN,NaN
Raw,232503915875199,649308183000000,,,-1265581155251075248,-0.9939332008361816,34.02876973268576,17.59275308469095,10.542195574866113,121,5,0.0,17167,384049298021308,27,24.3,3.811984062194824,5.096099853515625,16,0.0,0.0,1.56109798E9,,,,0,,5,0.54,1.56109798E9,355.0,NaN,NaN
Raw,232503915875199,649308183000000,,,-1265581155251075248,-0.9939332008361816,34.02876973268576,17.59275308469095,10.542195574866113,121,1,0.0,23567,384063349752677,6,39.4,389.12066650390625,0.04430000111460686,25,6137.925538897827,0.0018458486430946374,1.57542003E9,,,,0,,6,0.55,1.57542003E9,355.0,NaN,NaN
Raw,232503915875199,649308183000000,,,-1265581155251075248,-0.9939332008361816,34.02876973268576,17.59275308469095,10.542195574866113,121,4,0.0,23567,384063347789806,6,38.5,503.09246826171875,0.041600000113248825,25,7935.030634245447,0.0020551716777868216,1.57542003E9,,,,0,,6,0.55,1.57542003E9,355.0,NaN,NaN
Raw,232503915875199,649308183000000,,,-1265581155251075248,-0.9939332008361816,34.02876973268576,17.59275308469095,10.542195574866113,121,5,0.0,23567,384063348867039,21,26.4,-421.11309814453125,0.050700001418590546,21,-6607.668426860388,0.011874324619302384,1.57542003E9,,,,0,,6,0.55,1.57542003E9,355.0,NaN,NaN
Raw,232503915875199,649308183000000,,,-1265581155251075248,-0.9939332008361816,34.02876973268576,17.59275308469095,10.542195574866113,121,9,0.0,23567,384063362370337,14,30.7,58.389869689941406,0.04990000277757645,25,934.1897363085595,0.005233075867304602,1.57542003E9,,,,0,,6,0.55,1.57542003E9,355.0,NaN,NaN
Raw,232503915875199,649308183000000,,,-1265581155251075248,-0.9939332008361816,34.02876973268576,17.59275308469095,10.542195574866113,121,24,0.0,23567,384063352155836,31,23.7,-550.8811645507812,0.6904999613761902,16,0.0,0.0,1.57542003E9,,,,0,,6,0.55,1.57542003E9,355.0,NaN,NaN
Raw,232503915875199,649308183000000,,,-1265581155251075248,-0.9939332008361816,34.02876973268576,17.59275308469095,10.542195574866113,121,31,0.0,23567,384063355276423,9,35.3,-145.5003204345703,0.048600003123283386,25,-2230.1677853415804,0.0028924638165555576,1.57542003E9,,,,0,,6,0.55,1.57542003E9,355.0,NaN,NaN
Raw,232503915875199,649308183000000,,,-1265581155251075248,-0.9939332008361816,34.02876973268576,17.59275308469095,10.542195574866113,121,24,0.0,81935,384063358415015,6,26.7,-585.1155395507812,0.06909999996423721,25,-3713.7063485619,0.007288081858568245,1.17645005E9,,,,0,,1,-6.21,1.17645005E9,355.0,NaN,NaN
Raw,232503915875199,649308183000000,,,-1265581155251075248,-0.9939332008361816,34.02876973268576,17.59275308469095,10.542195574866113,121,30,0.0,81935,384063356198191,2,37.2,593.0375366210938,0.04610000178217888,25,4662.903028207851,0.0013505885638054542,1.17645005E9,,,,0,,1,-6.21,1.17645005E9,355.0,NaN,NaN
Raw,232503915875199,649308183000000,,,-1265581155251075248,-0.9939332008361816,34.02876973268576,17.59275308469095,10.542195574866113,121,1,0.0,81935,384063349759755,7,24.7,389.0981750488281,0.08860000222921371,29,3618.812383605365,0.0411037634920868,1.17645005E9,,,,0,,6,-6.21,1.17645005E9,355.0,NaN,NaN
Raw,232503915875199,649308183000000,,,-1265581155251075248,-0.9939332008361816,34.02876973268576,17.59275308469095,10.542195574866113,121,4,0.0,81935,384063347796902,5,28.7,503.1258544921875,0.04360000044107437,25,4680.261856230868,0.0040262828122019055,1.17645005E9,,,,0,,6,-6.21,1.17645005E9,355.0,NaN,NaN
Raw,232503915875199,649308183000000,,,-1265581155251075248,-0.9939332008361816,34.02876973268576,17.59275308469095,10.542195574866113,121,5,0.0,81935,384063348874163,6,25.7,-421.0305480957031,0.06650000065565109,25,-3901.613030654805,0.010753742989341824,1.17645005E9,,,,0,,6,-6.21,1.17645005E9,355.0,NaN,NaN
Raw,232503915875199,649308183000000,,,-1265581155251075248,-0.9939332008361816,34.02876973268576,17.59275308469095,10.542195574866113,121,9,0.0,81935,384063362377505,8,22.5,58.41046142578125,0.024699999019503593,25,542.6024910005316,0.34557229348499413,1.17645005E9,,,,0,,6,-6.21,1.17645005E9,355.0,NaN,NaN
Raw,232503915875199,649308183000000,,,-1265581155251075248,-0.9939332008361816,34.02876973268576,17.59275308469095,10.542195574866113,121,31,0.0,81935,384063355283511,3,31.9,-145.4009552001953,0.050300002098083496,25,-1346.7335232125383,0.0027776256465907277,1.17645005E9,,,,0,,6,-6.21,1.17645005E9,355.0,NaN,NaN
Fix,gps,51.524770,-0.134192,76.192871,0.000000,3.790092,1582195247000,232504903552120
Raw,232504914286861,649309183000000,,,-1265581155251075230,-0.5239439010620117,34.69003058853559,16.7349924361984,10.545479280932897,121,5,0.0,16399,384064353210627,35,22.9,728.510986328125,0.40130001306533813,19,12145.778582023015,0.19029366893311156,1.57542003E9,,,,0,,1,0.69,1.57542003E9,355.0,NaN,NaN
Raw,232504914286861,649309183000000,,,-1265581155251075230,-0.5239439010620117,34.69003058853559,16.7349924361984,10.545479280932897,121,13,0.0,16399,384064366154493,6,39.1,220.3525848388672,0.027800001204013824,25,3723.7202081651244,8.372921387687362E-4,1.57542003E9,,,,0,,1,0.69,1.57542003E9,355.0,NaN,NaN
Raw,232504914286861,649309183000000,,,-1265581155251075230,-0.5239439010620117,34.69003058853559,16.7349924361984,10.545479280932897,121,15,0.0,16399,384064366368494,9,35.6,-115.04837799072266,0.029100000858306885,17,-1896.8622150677957,0.0013320557236479321,1.57542003E9,,,,0,,1,0.69,1.57542003E9,355.0,NaN,NaN
Raw,232504914286861,649309183000000,,,-1265581155251075230,-0.5239439010620117,34.69003058853559,16.7349924361984,10.545479280932897,121,20,0.0,16399,384064357396100,40,21.5,-360.4923400878906,0.871999979019165,16,0.0,0.0,1.57542003E9,,,,0,,1,0.69,1.57542003E9,355.0,NaN,NaN
Raw,232504914286861,649309183000000,,,-1265581155251075230,-0.5239439010620117,34.69003058853559,16.7349924361984,10.545479280932897,121,24,0.0,16399,384064358409147,11,33.2,-585.4420776367188,0.04820000380277634,25,-5175.653149118803,0.001655554942969963,1.57542003E9,,,,0,,1,0.69,1.57542003E9,355.0,NaN,NaN
Raw,232504914286861,649309183000000,,,-1265581155251075230,-0.5239439010620117,34.69003058853559,16.7349924361984,10.545479280932897,121,28,0.0,16399,384064362540955,8,36.9,185.39512634277344,0.022600000724196434,25,3130.64737397917,0.001160791358090767,1.57542003E9,,,,0,,1,0.69,1.57542003E9,355.0,NaN,NaN
Raw,232504914286861,649309183000000,,,-1265581155251075230,-0.5239439010620117,34.69003058853559,16.7349924361984,10.545479280932897,121,30,0.0,16399,384064356188419,10,34.4,592.6798706054688,0.044600002467632294,25,10000.599580326765,0.0015223494237726067,1.57542003E9,,,,0,,1,0.69,1.57542003E9,355.0,NaN,NaN
Raw,232504914286861,649309183000000,,,-1265581155251075230,-0.5239439010620117,34.69003058853559,16.7349924361984,10.545479280932897,121,14,0.0,49359,49246370213676,9,35.3,-35.60997772216797,0.23510000109672546,25,-542.6652290140495,0.0013131822554185268,1.59806246E9,,,,0,,3,-0.29,1.59806246E9,355.0,NaN,NaN
Raw,232504914286861,649309183000000,,,-1265581155251075230,-0.5239439010620117,34.69003058853559,16.7349924361984,10.545479280932897,121,22,0.0,49359,49246356526932,17,28.5,-170.9290771484375,0.2492000013589859,25,-2478.00222801846,0.002959872375920247,1.60031245E9,,,,0,,3,-0.29,1.60031245E9,355.0,NaN,NaN
Raw,232504914286861,649309183000000,,,-1265581155251075230,-0.5239439010620117,34.69003058853559,16.7349924361984,10.545479280932897,121,13,0.0,49359,49246363215830,21,26.5,641.5470581054688,0.23120000958442688,29,10554.363546013608,0.005355861144370204,1.60087501E9,,,,0,,3,-0.29,1.60087501E9,355.0,NaN,NaN
Raw,232504914286861,649309183000000,,,-1265581155251075230,-0.5239439010620117,34.69003058853559,16.7349924361984,10.545479280932897,121,15,0.0,49359,49246361977077,11,33.8,-660.0545043945312,0.22269999980926514,25,-10820.505326878478,0.0016280864052631069,1.602E9,,,,0,,3,-0.29,1.602E9,355.0,NaN,NaN
Raw,232504914286861,649309183000000,,,-1265581155251075230,-0.5239439010620117,34.69003058853559,16.7349924361984,10.545479280932897,121,5,0.0,49359,49246364905796,35,22.9,-560.9776611328125,0.5878000259399414,29,-9201.686506151478,0.18707067385874782,1.60256256E9,,,,0,,3,-0.29,1.60256256E9,355.0,NaN,NaN
Raw,232504914286861,649309183000000,,,-1265581155251075230,-0.5239439010620117,34.69003058853559,16.7349924361984,10.545479280932897,121,3,0.0,49359,49246359987655,6,39.9,772.4205932617188,0.21729999780654907,25,12705.316783543554,8.219569400701237E-4,1.60481254E9,,,,0,,3,-0.29,1.60481254E9,355.0,NaN,NaN
Raw,232504914286861,649309183000000,,,-1265581155251075230,-0.5239439010620117,34.69003058853559,16.7349924361984,10.545479280932897,121,4,0.0,49359,49246369690277,16,29.3,199.34962463378906,0.23739999532699585,25,3285.0321541072262,0.002763795652773509,1.60537498E9,,,,0,,3,-0.29,1.60537498E9,355.0,NaN,NaN
Raw,232504914286861,649309183000000,,,-1265581155251075230,-0.5239439010620117,34.69003058853559,16.7349924361984,10.545479280932897,121,37,0.0,16399,384050354617363,6,38.0,480.3351745605469,0.04010000079870224,25,7249.257488046455,9.409935037250662E-4,1.56109798E9,,,,0,,5,0.68,1.56109798E9,355.0,NaN,NaN
Raw,232504914286861,649309183000000,,,-1265581155251075230,-0.5239439010620117,34.69003058853559,16.7349924361984,10.545479280932897,121,22,0.0,16399,384050354094916,13,31.6,-404.69171142578125,0.04310000315308571,25,-6073.17724413342,0.0020932304434118673,1.56109798E9,,,,0,,5,0.68,1.56109798E9,355.0,NaN,NaN
Raw,232504914286861,649309183000000,,,-1265581155251075230,-0.5239439010620117,34.69003058853559,16.7349924361984,10.545479280932897,121,20,0.0,16399,384050351262573,6,38.3,639.067138671875,0.035600002855062485,25,10718.80405300551,9.409935037250662E-4,1.56109798E9,,,,0,,5,0.68,1.56109798E9,355.0,NaN,NaN
Raw,232504914286861,649309183000000,,,-1265581155251075230,-0.5239439010620117,34.69003058853559,16.7349924361984,10.545479280932897,121,19,0.0,16399,384050360604036,24,25.3,198.04373168945312,0.0333000011742115,25,2996.8683266794114,0.1920394882785269,1.56109798E9,,,,0,,5,0.68,1.56109798E9,355.0,NaN,NaN
Raw,232504914286861,649309183000000,,,-1265581155251075230,-0.5239439010620117,34.69003058853559,16.7349924361984,10.545479280932897,121,10,0.0,16399,384050301730864,46,20.2,172.37464904785156,0.9179999828338623,16,0.0,0.0,1.56109798E9,,,,0,,5,0.68,1.56109798E9,355.0,NaN,NaN
Raw,232504914286861,649309183000000,,,-1265581155251075230,-0.5239439010620117,34.69003058853559,16.7349924361984,10.545479280932897,121,1,0.0,23567,384064349751368,6,38.2,388.7959289550781,0.044600002467632294,25,6526.87029917196,0.0020551716777868216,1.57542003E9,,,,0,,6,0.66,1.57542003E9,355.0,NaN,NaN
Raw,232504914286861,649309183000000,,,-1265581155251075230,-0.5239439010620117,34.69003058853559,16.7349924361984,10.545479280932897,121,4,0.0,23567,384064347788136,7,37.7,502.76123046875,0.04190000146627426,25,8437.933786839094,0.0021883771969841777,1.57542003E9,,,,0,,6,0.66,1.57542003E9,355.0,NaN,NaN
Raw,232504914286861,649309183000000,,,-1265581155251075230,-0.5239439010620117,34.69003058853559,16.7349924361984,10.545479280932897,121,5,0.0,23567,384064348868442,19,27.6,-421.5075988769531,0.049800001084804535,25,-7028.93702330368,0.007212130206821385,1.57542003E9,,,,0,,6,0.66,1.57542003E9,355.0,NaN,NaN
Raw,232504914286861,649309183000000,,,-1265581155251075230,-0.5239439010620117,34.69003058853559,16.7349924361984,10.545479280932897,121,9,0.0,23567,384064362370146,13,31.5,58.06028366088867,0.04910000041127205,25,992.3905168786167,0.004528989424958011,1.57542003E9,,,,0,,6,0.66,1.57542003E9,355.0,NaN,NaN
Raw,232504914286861,649309183000000,,,-1265581155251075230,-0.5239439010620117,34.69003058853559,16.7349924361984,10.545479280932897,121,24,0.0,23567,384064352157739,40,21.8,-551.35693359375,0.8104999661445618,16,0.0,0.0,1.57542003E9,,,,0,,6,0.66,1.57542003E9,355.0,NaN,NaN
Raw,232504914286861,649309183000000,,,-1265581155251075230,-0.5239439010620117,34.69003058853559,16.7349924361984,10.545479280932897,121,31,0.0,23567,384064355276905,8,36.2,-145.7924041748047,0.048100002110004425,25,-2375.8434560789874,0.0025499350854412276,1.57542003E9,,,,0,,6,0.66,1.57542003E9,355.0,NaN,NaN
Raw,232504914286861,649309183000000,,,-1265581155251075230,-0.5239439010620117,34.69003058853559,16.7349924361984,10.545479280932897,121,24,0.0,81935,384064358416972,6,26.7,-585.4649047851562,0.06909999996423721,29,-4298.98759668341,0.007288081858568245,1.17645005E9,,,,0,,1,-0.95,1.17645005E9,355.0,NaN,NaN
Raw,232504914286861,649309183000000,,,-1265581155251075230,-0.5239439010620117,34.69003058853559,16.7349924361984,10.545479280932897,121,30,0.0,81935,384064356196213,2,38.8,592.6860961914062,0.045500002801418304,25,5255.743831808634,0.0012486574029382824,1.17645005E9,,,,0,,1,-0.95,1.17645005E9,355.0,NaN,NaN
