# 
# Header Description:
# 
# Version: v2.0.0.1 Platform: 10 Manufacturer: samsung Model: SM-G973F
# 
# Raw,ElapsedRealtimeNanos,TimeNanos,LeapSecond,TimeUncertaintyNanos,FullBiasNanos,BiasNanos,BiasUncertaintyNanos,DriftNanosPerSecond,DriftUncertaintyNanosPerSecond,HardwareClockDiscontinuityCount,Svid,TimeOffsetNanos,State,ReceivedSvTimeNanos,ReceivedSvTimeUncertaintyNanos,Cn0DbHz,PseudorangeRateMetersPerSecond,PseudorangeRateUncertaintyMetersPerSecond,AccumulatedDeltaRangeState,AccumulatedDeltaRangeMeters,AccumulatedDeltaRangeUncertaintyMeters,CarrierFrequencyHz,CarrierCycles,CarrierPhase,CarrierPhaseUncertainty,MultipathIndicator,SnrInDb,ConstellationType,AgcDb,CarrierFrequencyHz,UserLatitude,UserLongitude,UserAltitude
# 
# Fix,Provider,Latitude,Longitude,Altitude,Speed,Accuracy,(UTC)TimeInMs,ElapsedRealtimeNanos
# 
# Nav,Svid,Type,Status,MessageId,Sub-messageId,Data(Bytes)
# 
Fix,gps,51.524375,-0.134485,97.911597,0.279286,3.000000,1581585683000,109837642591885
Raw,109837664465231,2409487000000,,,-1265618491513467290,0.0,6.3163418286518755,,,14,2,0.0,16396,379300915024093,1000000000,12.0,581.0911600926993,2.99792458E8,16,1394929.8776638447,3.4028234663852886E38,1.57542003E9,,,,1,,1,34.44438552856445,1.57542003E9,201.0,NaN,NaN
Raw,109837664465231,2409487000000,,,-1265618491513467290,0.0,6.3163418286518755,,,14,5,0.0,16431,379300931469430,15,42.248870849609375,239.03897951202816,0.0024943198077380657,25,223937.55601147065,0.0012471599038690329,1.57542003E9,,,,0,,1,34.44438552856445,1.57542003E9,201.0,NaN,NaN
Raw,109837664465231,2409487000000,,,-1265618491513467290,0.0,6.3163418286518755,,,14,7,0.0,16431,379300925280144,9,51.003761291503906,468.8375463244738,9.595915325917304E-4,25,938170.2603621072,4.797957662958652E-4,1.57542003E9,,,,0,,1,34.44438552856445,1.57542003E9,201.0,NaN,NaN
Raw,109837664465231,2409487000000,,,-1265618491513467290,0.0,6.3163418286518755,,,14,8,0.0,16384,379300916321745,1000000000,15.805477142333984,-296.11536917376384,2.99792458E8,16,-487674.4177072029,3.4028234663852886E38,1.57542003E9,,,,1,,1,34.44438552856445,1.57542003E9,201.0,NaN,NaN
Raw,109837664465231,2409487000000,,,-1265618491513467290,0.0,6.3163418286518755,,,14,13,0.0,16431,379300930847795,15,42.068519592285156,-360.50233549135737,0.0025466526858508587,17,-1058054.1569845108,0.09642016274210786,1.57542003E9,,,,0,,1,34.44438552856445,1.57542003E9,201.0,NaN,NaN
Raw,109837664465231,2409487000000,,,-1265618491513467290,0.0,6.3163418286518755,,,14,15,0.0,16431,379300924059223,32,33.060081481933594,-618.9213916577864,0.006773535627871752,17,-1581749.4023316198,0.09853360421311831,1.57542003E9,,,,0,,1,34.44438552856445,1.57542003E9,201.0,NaN,NaN
Raw,109837664465231,2409487000000,,,-1265618491513467290,0.0,6.3163418286518755,,,14,21,0.0,16431,379300917177996,17,40.88554382324219,-191.19224280607887,0.0029182233847677708,17,-710606.9172627383,0.09660594809156632,1.57542003E9,,,,0,,1,34.44438552856445,1.57542003E9,201.0,NaN,NaN
Raw,109837664465231,2409487000000,,,-1265618491513467290,0.0,6.3163418286518755,,,14,27,0.0,16419,379300916521353,69,26.984981536865234,-14.935810071550975,299.7954224168143,16,-377302.0071515823,3.4028234663852886E38,1.57542003E9,,,,1,,1,34.44438552856445,1.57542003E9,201.0,NaN,NaN
Raw,109837664465231,2409487000000,,,-1265618491513467290,0.0,6.3163418286518755,,,14,28,0.0,16431,379300924903597,21,37.88410568237305,-524.6371082346886,0.0041227820329368114,17,-1427307.6130700503,0.09720822741565084,1.57542003E9,,,,0,,1,34.44438552856445,1.57542003E9,201.0,NaN,NaN
Raw,109837664465231,2409487000000,,,-1265618491513467290,0.0,6.3163418286518755,,,14,30,0.0,16431,379300931661107,10,49.88225173950195,156.18239507151884,0.0010918474290519953,25,65535.61773638569,5.459237145259976E-4,1.57542003E9,,,,0,,1,34.44438552856445,1.57542003E9,201.0,NaN,NaN
Raw,109837664465231,2409487000000,,,-1265618491513467290,0.0,6.3163418286518755,,,14,22,0.0,32768,44482919215750,1000000000,15.519664764404297,-550.3436037757328,2.99792458E8,16,-338736.5081293478,3.4028234663852886E38,1.60031245E9,,,,1,,3,49.28915786743164,1.60031245E9,201.0,NaN,NaN
Raw,109837664465231,2409487000000,,,-1265618491513467290,0.0,6.3163418286518755,,,14,13,0.0,32995,44482929956486,83,29.9039249420166,580.9951762330019,0.009586545638740063,25,1040043.3290374393,0.004793272819370031,1.60087501E9,,,,0,,3,49.28915786743164,1.60087501E9,201.0,NaN,NaN
Raw,109837664465231,2409487000000,,,-1265618491513467290,0.0,6.3163418286518755,,,14,15,0.0,32995,44482927087982,102,27.276966094970703,-796.8470836892634,0.9481559007268552,16,-2043169.9374824844,3.4028234663852886E38,1.602E9,,,,0,,3,49.28915786743164,1.602E9,201.0,NaN,NaN
Raw,109837664465231,2409487000000,,,-1265618491513467290,0.0,6.3163418286518755,,,14,5,0.0,32995,44482931058053,37,39.66591262817383,-587.1357618777547,0.0033012726344168186,25,-1551672.734875768,0.0016506363172084093,1.60256256E9,,,,0,,3,49.28915786743164,1.60256256E9,201.0,NaN,NaN
Raw,109837664465231,2409487000000,,,-1265618491513467290,0.0,6.3163418286518755,,,14,21,0.0,32995,44482923754799,97,27.958782196044922,45.876937700338715,0.9168959642021379,16,-372112.7432779883,3.4028234663852886E38,1.60424998E9,,,,0,,3,49.28915786743164,1.60424998E9,201.0,NaN,NaN
Raw,109837664465231,2409487000000,,,-1265618491513467290,0.0,6.3163418286518755,,,14,3,0.0,32995,44482926819518,58,34.33452606201172,644.6296872070525,0.005742027889937162,25,1348106.9087962508,0.002871013944968581,1.60481254E9,,,,0,,3,49.28915786743164,1.60481254E9,201.0,NaN,NaN
Raw,109837664465231,2409487000000,,,-1265618491513467290,0.0,6.3163418286518755,,,14,4,0.0,32995,44482936267001,41,38.601802825927734,83.96579683452728,0.003511956660076976,25,-143486.38260105238,0.001755978330038488,1.60537498E9,,,,0,,3,49.28915786743164,1.60537498E9,201.0,NaN,NaN
Raw,109837664465231,2409487000000,,,-1265618491513467290,0.0,6.3163418286518755,,,14,5,0.0,16904,379286864406119,1000000000,12.0,-16.48596753050323,2.99792458E8,16,-39497.42229317168,3.4028234663852886E38,1.56109798E9,,,,1,,5,50.411476135253906,1.56109798E9,201.0,NaN,NaN
Raw,109837664465231,2409487000000,,,-1265618491513467290,0.0,6.3163418286518755,,,14,7,0.0,81967,379286866467521,29,25.655311584472656,125.87147945677697,1.020968342809689,16,226000.9452288585,3.4028234663852886E38,1.56109798E9,,,,1,,5,50.411476135253906,1.56109798E9,201.0,NaN,NaN
Raw,109837664465231,2409487000000,,,-1265618491513467290,0.0,6.3163418286518755,,,14,10,0.0,81967,379286870510740,8,41.46403503417969,14.267959196375159,0.0027552442625164986,25,-57938.933838699224,0.0013776221312582493,1.56109798E9,,,,0,,5,50.411476135253906,1.56109798E9,201.0,NaN,NaN
Raw,109837664465231,2409487000000,,,-1265618491513467290,0.0,6.3163418286518755,,,14,12,0.0,16384,379286912015519,1000000000,12.0,-31.099689867299517,2.99792458E8,16,-374185.0220794774,3.4028234663852886E38,1.56109798E9,,,,1,,5,50.411476135253906,1.56109798E9,201.0,NaN,NaN
Raw,109837664465231,2409487000000,,,-1265618491513467290,0.0,6.3163418286518755,,,14,19,0.0,81967,379286924292938,6,45.2397575378418,-412.8556594238616,0.001783914165571332,25,-1150102.05218971,8.91957082785666E-4,1.56109798E9,,,,0,,5,50.411476135253906,1.56109798E9,201.0,NaN,NaN
Raw,109837664465231,2409487000000,,,-1265618491513467290,0.0,6.3163418286518755,,,14,20,0.0,81967,379286927125171,7,42.946311950683594,168.7188449892274,0.002322984393686056,25,147350.95552686934,0.001161492196843028,1.56109798E9,,,,0,,5,50.411476135253906,1.56109798E9,201.0,NaN,NaN
Raw,109837664465231,2409487000000,,,-1265618491513467290,0.0,6.3163418286518755,,,14,23,0.0,81967,379286918333093,10,38.38105773925781,501.056760160136,0.003929244354367256,17,1019182.0424504861,0.09798436533232187,1.56109798E9,,,,0,,5,50.411476135253906,1.56109798E9,201.0,NaN,NaN
Raw,109837664465231,2409487000000,,,-1265618491513467290,0.0,6.3163418286518755,,,14,32,0.0,81967,379286916205756,20,30.383771896362305,591.3024007140193,0.009302441962063313,17,1305013.937224535,0.1006709641361699,1.56109798E9,,,,1,,5,50.411476135253906,1.56109798E9,201.0,NaN,NaN
Raw,109837664465231,2409487000000,,,-1265618491513467290,0.0,6.3163418286518755,,,14,34,0.0,16384,379286909824979,1000000000,12.53056526184082,-232.31940102366082,2.99792458E8,16,-150974.98103718934,3.4028234663852886E38,1.56109798E9,,,,0,,5,50.411476135253906,1.56109798E9,201.0,NaN,NaN
Raw,109837664465231,2409487000000,,,-1265618491513467290,0.0,6.3163418286518755,,,14,37,0.0,81967,379286926698667,7,42.157005310058594,-29.224728934583254,0.0025439676828682423,25,423798.1618814266,0.0012719838414341211,1.56109798E9,,,,0,,5,50.411476135253906,1.56109798E9,201.0,NaN,NaN
Raw,109837664465231,2409487000000,,,-1265618491513467290,0.0,6.3163418286518755,,,14,1,0.0,21546,379300914711624,12,44.57540512084961,292.02167552139144,0.0019082068465650082,25,453975.8226903576,9.541034232825041E-4,1.57542003E9,,,,0,,6,34.44438552856445,1.57542003E9,201.0,NaN,NaN
Raw,109837664465231,2409487000000,,,-1265618491513467290,0.0,6.3163418286518755,,,14,4,0.0,21546,379300913023459,65,24.31999969482422,443.2638190267585,1.0807560276842754,16,969529.6569465642,3.4028234663852886E38,1.57542003E9,,,,1,,6,34.44438552856445,1.57542003E9,201.0,NaN,NaN
Raw,109837664465231,2409487000000,,,-1265618491513467290,0.0,6.3163418286518755,,,14,5,0.0,21546,379300916715249,20,38.80358123779297,-404.40549011877624,0.42939029149264885,16,-1041909.5826697923,3.4028234663852886E38,1.57542003E9,,,,0,,6,34.44438552856445,1.57542003E9,201.0,NaN,NaN
Raw,109837664465231,2409487000000,,,-1265618491513467290,0.0,6.3163418286518755,,,14,9,0.0,85026,379300928990566,21,38.08567428588867,46.418417454980954,0.004028208553791046,25,-50072.62656467556,0.002014104276895523,1.57542003E9,,,,0,,6,34.44438552856445,1.57542003E9,201.0,NaN,NaN
Raw,109837664465231,2409487000000,,,-1265618491513467290,0.0,6.3163418286518755,,,14,15,0.0,85026,379300909112983,61,25.053619384765625,-111.71548451108202,1.047782116373329,16,-526418.2783325373,3.4028234663852886E38,1.57542003E9,,,,1,,6,34.44438552856445,1.57542003E9,201.0,NaN,NaN
Raw,109837664465231,2409487000000,,,-1265618491513467290,0.0,6.3163418286518755,,,14,31,0.0,21546,379300919400298,18,40.102989196777344,-265.1305064117769,0.0031933479476720095,25,-870281.0062533807,0.0015966739738360047,1.57542003E9,,,,0,,6,34.44438552856445,1.57542003E9,201.0,NaN,NaN
Raw,109837664465231,2409487000000,,,-1265618491513467290,0.0,6.3163418286518755,,,14,36,0.0,83968,379300905760268,1000000000,12.0,554.9142316077243,2.99792458E8,16,1290788.6808400736,3.4028234663852886E38,1.57542003E9,,,,0,,6,34.44438552856445,1.57542003E9,201.0,NaN,NaN
Fix,gps,51.524375,-0.134485,97.999424,0.258675,3.000000,1581585684000,109838632530269
Raw,109838656692000,2410487000000,,,-1265618491513467341,0.0,6.452791387032898,,,14,2,0.0,16396,379301915022158,1000000000,12.0,581.4625225389718,2.99792458E8,16,1395511.0542152317,3.4028234663852886E38,1.57542003E9,,,,1,,1,33.008399963378906,1.57542003E9,201.0,NaN,NaN
Raw,109838656692000,2410487000000,,,-1265618491513467341,0.0,6.452791387032898,,,14,5,0.0,16431,379301931468618,14,43.24605178833008,239.11024887213716,0.0022237866651266813,25,224176.66626034278,0.0011118933325633407,1.57542003E9,,,,0,,1,33.008399963378906,1.57542003E9,201.0,NaN,NaN
Raw,109838656692000,2410487000000,,,-1265618491513467341,0.0,6.452791387032898,,,14,7,0.0,16431,379301925278594,11,48.16749572753906,468.93726503499784,0.0013301471481099723,25,938639.1976271422,6.650735740549862E-4,1.57542003E9,,,,0,,1,33.008399963378906,1.57542003E9,201.0,NaN,NaN
Raw,109838656692000,2410487000000,,,-1265618491513467341,0.0,6.452791387032898,,,14,8,0.0,16384,379301916322734,1000000000,14.945262908935547,-295.74407489240434,2.99792458E8,16,-487969.8450569272,3.4028234663852886E38,1.57542003E9,,,,1,,1,33.008399963378906,1.57542003E9,201.0,NaN,NaN
Raw,109838656692000,2410487000000,,,-1265618491513467341,0.0,6.452791387032898,,,14,13,0.0,16431,379301930848996,12,44.38158416748047,-360.52038329583587,0.0019512658473104239,17,-1058414.6773678067,0.09612246932283765,1.57542003E9,,,,0,,1,33.008399963378906,1.57542003E9,201.0,NaN,NaN
Raw,109838656692000,2410487000000,,,-1265618491513467341,0.0,6.452791387032898,,,14,15,0.0,16431,379301924061301,40,30.213430404663086,-618.8268469652767,0.8155620310954372,16,-1582368.3303642748,3.4028234663852886E38,1.57542003E9,,,,0,,1,33.008399963378906,1.57542003E9,201.0,NaN,NaN
Raw,109838656692000,2410487000000,,,-1265618491513467341,0.0,6.452791387032898,,,14,21,0.0,16431,379301917178628,16,41.45741271972656,-191.27543694339693,0.002732279477640986,17,-710798.1926996817,0.09651297613800293,1.57542003E9,,,,0,,1,33.008399963378906,1.57542003E9,201.0,NaN,NaN
Raw,109838656692000,2410487000000,,,-1265618491513467341,0.0,6.452791387032898,,,14,27,0.0,16419,379301916521412,73,22.811779022216797,-13.466348153800304,1.150647297033534,16,-377315.98753618286,3.4028234663852886E38,1.57542003E9,,,,1,,1,33.008399963378906,1.57542003E9,201.0,NaN,NaN
Raw,109838656692000,2410487000000,,,-1265618491513467341,0.0,6.452791387032898,,,14,28,0.0,16431,379301924905325,27,34.94218444824219,-524.5778615702875,0.005453937686979771,17,-1427832.1909316205,0.09787380524267232,1.57542003E9,,,,1,,1,33.008399963378906,1.57542003E9,201.0,NaN,NaN
Raw,109838656692000,2410487000000,,,-1265618491513467341,0.0,6.452791387032898,,,14,30,0.0,16431,379301931660587,10,49.16353988647461,156.28674986649276,0.0011860346421599388,25,65691.90448625218,5.930173210799694E-4,1.57542003E9,,,,0,,1,33.008399963378906,1.57542003E9,201.0,NaN,NaN
Raw,109838656692000,2410487000000,,,-1265618491513467341,0.0,6.452791387032898,,,14,22,0.0,32769,44483919217326,239,16.79949188232422,-550.7110467395053,1.4214979163283923,16,-339286.73931633966,3.4028234663852886E38,1.60031245E9,,,,1,,3,49.36371612548828,1.60031245E9,201.0,NaN,NaN
Raw,109838656692000,2410487000000,,,-1265618491513467341,0.0,6.452791387032898,,,14,13,0.0,32995,44483929954529,88,29.16361427307129,581.2929964002274,0.8864870905810225,16,1040624.4103409542,3.4028234663852886E38,1.60087501E9,,,,0,,3,49.36371612548828,1.60087501E9,201.0,NaN,NaN
Raw,109838656692000,2410487000000,,,-1265618491513467341,0.0,6.452791387032898,,,14,15,0.0,32995,44483927090608,89,28.985885620117188,-796.5183924785574,0.8713082156128569,16,-2043966.6474437313,3.4028234663852886E38,1.602E9,,,,0,,3,49.36371612548828,1.602E9,201.0,NaN,NaN
Raw,109838656692000,2410487000000,,,-1265618491513467341,0.0,6.452791387032898,,,14,5,0.0,32995,44483931060029,43,37.8649787902832,-587.1731844248716,0.003829586552456021,25,-1552259.9080601928,0.0019147932762280107,1.60256256E9,,,,0,,3,49.36371612548828,1.60256256E9,201.0,NaN,NaN
Raw,109838656692000,2410487000000,,,-1265618491513467341,0.0,6.452791387032898,,,14,21,0.0,32995,44483923754357,82,30.06045913696289,45.91220026191863,0.82238577823547,16,-372066.74626519537,3.4028234663852886E38,1.60424998E9,,,,0,,3,49.36371612548828,1.60424998E9,201.0,NaN,NaN
Raw,109838656692000,2410487000000,,,-1265618491513467341,0.0,6.452791387032898,,,14,3,0.0,32995,44483926817405,58,34.18387222290039,644.6349851461127,0.005842489190399647,25,1348751.543781397,0.0029212445951998234,1.60481254E9,,,,0,,3,49.36371612548828,1.60481254E9,201.0,NaN,NaN
Raw,109838656692000,2410487000000,,,-1265618491513467341,0.0,6.452791387032898,,,14,4,0.0,32995,44483936266693,33,41.134220123291016,84.01671727982466,0.002782945055514574,25,-143402.36588377255,0.001391472527757287,1.60537498E9,,,,0,,3,49.36371612548828,1.60537498E9,201.0,NaN,NaN
Raw,109838656692000,2410487000000,,,-1265618491513467341,0.0,6.452791387032898,,,14,5,0.0,16904,379287864406177,1000000000,12.0,-15.736546500328181,2.99792458E8,16,-39513.45640573834,3.4028234663852886E38,1.56109798E9,,,,1,,5,48.340667724609375,1.56109798E9,201.0,NaN,NaN
Raw,109838656692000,2410487000000,,,-1265618491513467341,0.0,6.452791387032898,,,14,7,0.0,81967,379287866467109,30,25.26580810546875,125.72444773933756,1.038483863068604,16,226126.79054098748,3.4028234663852886E38,1.56109798E9,,,,1,,5,48.340667724609375,1.56109798E9,201.0,NaN,NaN
Raw,109838656692000,2410487000000,,,-1265618491513467341,0.0,6.452791387032898,,,14,10,0.0,81967,379287870510691,8,40.491703033447266,14.326437350406195,0.003081603441387415,25,-57924.60740134882,0.0015408017206937075,1.56109798E9,,,,0,,5,48.340667724609375,1.56109798E9,201.0,NaN,NaN
Raw,109838656692000,2410487000000,,,-1265618491513467341,0.0,6.452791387032898,,,14,12,0.0,16384,379287912015625,1000000000,12.0,-30.72497881967361,2.99792458E8,16,-374216.03786878986,3.4028234663852886E38,1.56109798E9,,,,0,,5,48.340667724609375,1.56109798E9,201.0,NaN,NaN
Raw,109838656692000,2410487000000,,,-1265618491513467341,0.0,6.452791387032898,,,14,19,0.0,81967,379287924294342,6,44.09886169433594,-412.92884615808725,0.002034317934885621,25,-1150514.9810358682,0.0010171589674428105,1.56109798E9,,,,0,,5,48.340667724609375,1.56109798E9,201.0,NaN,NaN
Raw,109838656692000,2410487000000,,,-1265618491513467341,0.0,6.452791387032898,,,14,20,0.0,81967,379287927124610,7,42.168277740478516,168.80534682096913,0.0025406682398170233,25,147519.7608736903,0.0012703341199085116,1.56109798E9,,,,0,,5,48.340667724609375,1.56109798E9,201.0,NaN,NaN
Raw,109838656692000,2410487000000,,,-1265618491513467341,0.0,6.452791387032898,,,14,23,0.0,81967,379287918331455,10,37.92201232910156,501.06643574882764,0.0041424878872931,17,1019683.1088862349,0.09809098709878479,1.56109798E9,,,,0,,5,48.340667724609375,1.56109798E9,201.0,NaN,NaN
Raw,109838656692000,2410487000000,,,-1265618491513467341,0.0,6.452791387032898,,,14,32,0.0,81967,379287916203820,25,27.447996139526367,591.9826862289547,0.9421046670789068,16,1305606.0226609865,3.4028234663852886E38,1.56109798E9,,,,0,,5,48.340667724609375,1.56109798E9,201.0,NaN,NaN
Raw,109838656692000,2410487000000,,,-1265618491513467341,0.0,6.452791387032898,,,14,34,0.0,16384,379287909825757,1000000000,12.0,-231.94469849664904,2.99792458E8,16,-151207.21879562162,3.4028234663852886E38,1.56109798E9,,,,1,,5,48.340667724609375,1.56109798E9,201.0,NaN,NaN
Raw,109838656692000,2410487000000,,,-1265618491513467341,0.0,6.452791387032898,,,14,37,0.0,81967,379287926698769,7,42.88531494140625,-29.111085062264465,0.0023393549490720034,25,423769.0507963643,0.0011696774745360017,1.56109798E9,,,,0,,5,48.340667724609375,1.56109798E9,201.0,NaN,NaN
Raw,109838656692000,2410487000000,,,-1265618491513467341,0.0,6.452791387032898,,,14,1,0.0,21546,379301914710625,12,44.94281005859375,292.110807495832,0.0018291746964678168,25,454267.93349785346,9.145873482339084E-4,1.57542003E9,,,,0,,6,33.008399963378906,1.57542003E9,201.0,NaN,NaN
Raw,109838656692000,2410487000000,,,-1265618491513467341,0.0,6.452791387032898,,,14,4,0.0,21546,379301913021944,44,29.02336311340332,444.2549368624418,1.0415399677150146,16,969974.0206827747,3.4028234663852886E38,1.57542003E9,,,,0,,6,33.008399963378906,1.57542003E9,201.0,NaN,NaN
Raw,109838656692000,2410487000000,,,-1265618491513467341,0.0,6.452791387032898,,,14,5,0.0,21546,379301916716587,19,39.25647735595703,-404.94999871077016,0.0035202365834265947,25,-1042314.5326685031,0.0017601182917132974,1.57542003E9,,,,0,,6,33.008399963378906,1.57542003E9,201.0,NaN,NaN
Raw,109838656692000,2410487000000,,,-1265618491513467341,0.0,6.452791387032898,,,14,9,0.0,85026,379301928990410,23,37.17811584472656,46.42950769774325,0.004216127097606659,25,-50026.19705697781,0.0021080635488033295,1.57542003E9,,,,0,,6,33.008399963378906,1.57542003E9,201.0,NaN,NaN
Raw,109838656692000,2410487000000,,,-1265618491513467341,0.0,6.452791387032898,,,14,15,0.0,85026,379301909113366,64,25.49169158935547,-111.6504551840365,299.7933774694229,16,-526529.9015907625,3.4028234663852886E38,1.57542003E9,,,,1,,6,33.008399963378906,1.57542003E9,201.0,NaN,NaN
Raw,109838656692000,2410487000000,,,-1265618491513467341,0.0,6.452791387032898,,,14,31,0.0,21546,379301919401175,19,39.087860107421875,-265.0181955572916,0.0035892415326088667,25,-870546.024448938,0.0017946207663044333,1.57542003E9,,,,0,,6,33.008399963378906,1.57542003E9,201.0,NaN,NaN
Raw,109838656692000,2410487000000,,,-1265618491513467341,0.0,6.452791387032898,,,14,36,0.0,83968,379301905758417,1000000000,12.0,554.9142316077243,2.99792458E8,16,1291343.2994926695,3.4028234663852886E38,1.57542003E9,,,,0,,6,33.008399963378906,1.57542003E9,201.0,NaN,NaN
Fix,gps,51.524375,-0.134485,97.990668,0.016613,3.000000,1581585685000,109839648102153
Raw,109839658625922,2411487000000,,,-1265618491513467392,0.0,6.366094866528111,,,14,2,0.0,16396,379302915020217,1000000000,12.0,581.0911600926993,2.99792458E8,16,1396092.431361752,3.4028234663852886E38,1.57542003E9,,,,1,,1,36.56269836425781,1.57542003E9,201.0,NaN,NaN
Raw,109839658625922,2411487000000,,,-1265618491513467392,0.0,6.366094866528111,,,14,5,0.0,16431,379302931467807,14,43.333892822265625,239.23208137843176,0.00220141070894897,25,224415.89834172121,0.001100705354474485,1.57542003E9,,,,0,,1,36.56269836425781,1.57542003E9,201.0,NaN,NaN
Raw,109839658625922,2411487000000,,,-1265618491513467392,0.0,6.366094866528111,,,14,7,0.0,16431,379302925277017,10,49.07781982421875,468.9562936706934,0.0011977975955232978,25,939108.1539208129,5.988987977616489E-4,1.57542003E9,,,,0,,1,36.56269836425781,1.57542003E9,201.0,NaN,NaN
Raw,109839658625922,2411487000000,,,-1265618491513467392,0.0,6.366094866528111,,,14,8,0.0,16384,379302916323722,1000000000,15.634897232055664,-295.9297220330841,2.99792458E8,16,-488265.55101795116,3.4028234663852886E38,1.57542003E9,,,,1,,1,36.56269836425781,1.57542003E9,201.0,NaN,NaN
Raw,109839658625922,2411487000000,,,-1265618491513467392,0.0,6.366094866528111,,,14,13,0.0,16431,379302930850205,13,43.504974365234375,-360.41944207809865,0.0021584746427834034,25,-1058775.0968098848,0.0010792373213917017,1.57542003E9,,,,0,,1,36.56269836425781,1.57542003E9,201.0,NaN,NaN
Raw,109839658625922,2411487000000,,,-1265618491513467392,0.0,6.366094866528111,,,14,15,0.0,16431,379302924063351,29,34.11172866821289,-618.9700125842355,0.006001129746437073,25,-1582987.300376859,0.0030005648732185364,1.57542003E9,,,,0,,1,36.56269836425781,1.57542003E9,201.0,NaN,NaN
Raw,109839658625922,2411487000000,,,-1265618491513467392,0.0,6.366094866528111,,,14,21,0.0,16431,379302917179272,14,43.2232666015625,-191.07026977976784,0.0022296279203146696,25,-710989.2629694615,0.0011148139601573348,1.57542003E9,,,,0,,1,36.56269836425781,1.57542003E9,201.0,NaN,NaN
Raw,109839658625922,2411487000000,,,-1265618491513467392,0.0,6.366094866528111,,,14,27,0.0,16418,379302916521456,1000000000,17.479999542236328,-13.331416773503264,2.99792458E8,16,-377329.1533543581,3.4028234663852886E38,1.57542003E9,,,,1,,1,36.56269836425781,1.57542003E9,201.0,NaN,NaN
Raw,109839658625922,2411487000000,,,-1265618491513467392,0.0,6.366094866528111,,,14,28,0.0,16431,379302924907055,35,31.916772842407227,-524.529210380791,0.7391167452972209,16,-1428356.8452618765,3.4028234663852886E38,1.57542003E9,,,,0,,1,36.56269836425781,1.57542003E9,201.0,NaN,NaN
Raw,109839658625922,2411487000000,,,-1265618491513467392,0.0,6.366094866528111,,,14,30,0.0,16431,379302931660063,12,47.35491180419922,156.42198436571925,0.0014605916803702712,25,65848.3264706179,7.302958401851356E-4,1.57542003E9,,,,0,,1,36.56269836425781,1.57542003E9,201.0,NaN,NaN
Raw,109839658625922,2411487000000,,,-1265618491513467392,0.0,6.366094866528111,,,14,22,0.0,32769,44484919219057,181,20.21083641052246,-550.2640212397521,1.2680937114613933,16,-339836.87736672343,3.4028234663852886E38,1.60031245E9,,,,1,,3,51.326629638671875,1.60031245E9,201.0,NaN,NaN
Raw,109839658625922,2411487000000,,,-1265618491513467392,0.0,6.366094866528111,,,14,13,0.0,32995,44484929952615,74,31.30193519592285,580.7916434647768,0.9462326383560407,16,1041205.7502146349,3.4028234663852886E38,1.60087501E9,,,,0,,3,51.326629638671875,1.60087501E9,201.0,NaN,NaN
Raw,109839658625922,2411487000000,,,-1265618491513467392,0.0,6.366094866528111,,,14,15,0.0,32995,44484927093134,115,25.874658584594727,-797.7980523911629,1.011217032475483,16,-2044763.060295364,3.4028234663852886E38,1.602E9,,,,0,,3,51.326629638671875,1.602E9,201.0,NaN,NaN
Raw,109839658625922,2411487000000,,,-1265618491513467392,0.0,6.366094866528111,,,14,5,0.0,32995,44484931062015,36,40.28887939453125,-586.9645264693536,0.0030727915000170465,25,-1552846.8725866622,0.0015363957500085235,1.60256256E9,,,,0,,3,51.326629638671875,1.60256256E9,201.0,NaN,NaN
Raw,109839658625922,2411487000000,,,-1265618491513467392,0.0,6.366094866528111,,,14,21,0.0,32995,44484923754291,73,31.437767028808594,46.2901906708139,0.00801780354231596,25,-372020.45607452455,0.00400890177115798,1.60424998E9,,,,0,,3,51.326629638671875,1.60424998E9,201.0,NaN,NaN
Raw,109839658625922,2411487000000,,,-1265618491513467392,0.0,6.366094866528111,,,14,3,0.0,32995,44484926815140,76,30.90646743774414,644.8986992367918,0.7848923468011648,16,1349396.3510847483,3.4028234663852886E38,1.60481254E9,,,,0,,3,51.326629638671875,1.60481254E9,201.0,NaN,NaN
Raw,109839658625922,2411487000000,,,-1265618491513467392,0.0,6.366094866528111,,,14,4,0.0,32995,44484936266428,33,42.97687530517578,84.20798462550738,0.002250980818644166,25,-143318.15789914705,0.001125490409322083,1.60537498E9,,,,0,,3,51.326629638671875,1.60537498E9,201.0,NaN,NaN
Raw,109839658625922,2411487000000,,,-1265618491513467392,0.0,6.366094866528111,,,14,5,0.0,16904,379288864406227,1000000000,12.0,-16.11125754795409,2.99792458E8,16,-39529.64331410707,3.4028234663852886E38,1.56109798E9,,,,0,,5,52.296875,1.56109798E9,201.0,NaN,NaN
Raw,109839658625922,2411487000000,,,-1265618491513467392,0.0,6.366094866528111,,,14,7,0.0,81967,379288866466689,40,21.779094696044922,125.8203983750634,1.1952772087733878,16,226252.41833010592,3.4028234663852886E38,1.56109798E9,,,,1,,5,52.296875,1.56109798E9,201.0,NaN,NaN
Raw,109839658625922,2411487000000,,,-1265618491513467392,0.0,6.366094866528111,,,14,10,0.0,81967,379288870510655,7,42.15857696533203,14.3433586100291,0.0025435076095163822,25,-57910.26404273879,0.0012717538047581911,1.56109798E9,,,,0,,5,52.296875,1.56109798E9,201.0,NaN,NaN
Raw,109839658625922,2411487000000,,,-1265618491513467392,0.0,6.366094866528111,,,14,12,0.0,16384,379288912015726,1000000000,12.0,-31.099689867299517,2.99792458E8,16,-374246.5514456125,3.4028234663852886E38,1.56109798E9,,,,1,,5,52.296875,1.56109798E9,201.0,NaN,NaN
Raw,109839658625922,2411487000000,,,-1265618491513467392,0.0,6.366094866528111,,,14,19,0.0,81967,379288924295716,6,44.52811050415039,-412.74683764437214,0.001936227548867464,25,-1150927.7278735125,9.68113774433732E-4,1.56109798E9,,,,0,,5,52.296875,1.56109798E9,201.0,NaN,NaN
Raw,109839658625922,2411487000000,,,-1265618491513467392,0.0,6.366094866528111,,,14,20,0.0,81967,379288927124048,7,42.08221435546875,168.87275758184842,0.0025659676175564528,25,147688.63363127215,0.0012829838087782264,1.56109798E9,,,,0,,5,52.296875,1.56109798E9,201.0,NaN,NaN
Raw,109839658625922,2411487000000,,,-1265618491513467392,0.0,6.366094866528111,,,14,23,0.0,81967,379288918329780,8,40.494346618652344,501.2505176686898,0.3558073662203165,16,1020184.3054220905,3.4028234663852886E38,1.56109798E9,,,,0,,5,52.296875,1.56109798E9,201.0,NaN,NaN
Raw,109839658625922,2411487000000,,,-1265618491513467392,0.0,6.366094866528111,,,14,32,0.0,16396,379288916201877,1000000000,26.015975952148438,591.1756818234076,2.99792458E8,16,1306198.7538573353,3.4028234663852886E38,1.56109798E9,,,,1,,5,52.296875,1.56109798E9,201.0,NaN,NaN
Raw,109839658625922,2411487000000,,,-1265618491513467392,0.0,6.366094866528111,,,14,34,0.0,16384,379288909826529,1000000000,12.0,-232.31940102366082,2.99792458E8,16,-151439.24513764275,3.4028234663852886E38,1.56109798E9,,,,0,,5,52.296875,1.56109798E9,201.0,NaN,NaN
Raw,109839658625922,2411487000000,,,-1265618491513467392,0.0,6.366094866528111,,,14,37,0.0,81967,379288926698866,9,40.02279281616211,-28.995815909758676,0.0032525372225791216,25,423740.05498045456,0.0016262686112895608,1.56109798E9,,,,0,,5,52.296875,1.56109798E9,201.0,NaN,NaN
Raw,109839658625922,2411487000000,,,-1265618491513467392,0.0,6.366094866528111,,,14,1,0.0,21546,379302914709672,13,46.017112731933594,292.2091405437095,0.001703800866380334,25,454560.14263839717,8.51900433190167E-4,1.57542003E9,,,,0,,6,36.56269836425781,1.57542003E9,201.0,NaN,NaN
Raw,109839658625922,2411487000000,,,-1265618491513467392,0.0,6.366094866528111,,,14,4,0.0,21546,379302913020493,33,32.4292106628418,444.48959644371644,0.007283814717084169,25,970418.5102792184,0.0036419073585420847,1.57542003E9,,,,0,,6,36.56269836425781,1.57542003E9,201.0,NaN,NaN
Raw,109839658625922,2411487000000,,,-1265618491513467392,0.0,6.366094866528111,,,14,5,0.0,21546,379302916717912,16,41.196983337402344,-404.77228719438426,0.002815441694110632,25,-1042719.3049556975,0.001407720847055316,1.57542003E9,,,,0,,6,36.56269836425781,1.57542003E9,201.0,NaN,NaN
Raw,109839658625922,2411487000000,,,-1265618491513467392,0.0,6.366094866528111,,,14,9,0.0,85026,379302928990279,18,39.91377258300781,46.55453468154883,0.0032636758405715227,25,-49979.642522296264,0.0016318379202857614,1.57542003E9,,,,0,,6,36.56269836425781,1.57542003E9,201.0,NaN,NaN
Raw,109839658625922,2411487000000,,,-1265618491513467392,0.0,6.366094866528111,,,14,15,0.0,85026,379302909113757,52,27.12091636657715,-111.53748888189165,0.954818155602192,16,-526641.0993969981,3.4028234663852886E38,1.57542003E9,,,,0,,6,36.56269836425781,1.57542003E9,201.0,NaN,NaN
Raw,109839658625922,2411487000000,,,-1265618491513467392,0.0,6.366094866528111,,,14,31,0.0,21546,379302919402068,21,38.05957794189453,-264.9420677361777,0.004040329717099667,25,-870810.9665166741,0.0020201648585498333,1.57542003E9,,,,0,,6,36.56269836425781,1.57542003E9,201.0,NaN,NaN
Raw,109839658625922,2411487000000,,,-1265618491513467392,0.0,6.366094866528111,,,14,36,0.0,83968,379302905756564,1000000000,12.0,554.9142316077243,2.99792458E8,16,1291898.1380300329,3.4028234663852886E38,1.57542003E9,,,,0,,6,36.56269836425781,1.57542003E9,201.0,NaN,NaN
Fix,gps,51.524375,-0.134485,98.027144,0.206880,3.000000,1581585686000,109840644623460
Raw,109840675358652,2412487000000,,,-1265618491513467446,0.0,6.823666860821457,,,14,2,0.0,16396,379303915018278,1000000000,12.0,581.4625225389718,2.99792458E8,16,1396673.9736773586,3.4028234663852886E38,1.57542003E9,,,,1,,1,35.23455810546875,1.57542003E9,201.0,NaN,NaN
Raw,109840675358652,2412487000000,,,-1265618491513467446,0.0,6.823666860821457,,,14,5,0.0,16431,379303931467005,14,42.8369140625,239.21352237690007,0.002331041730940342,25,224655.11186409811,0.001165520865470171,1.57542003E9,,,,0,,1,35.23455810546875,1.57542003E9,201.0,NaN,NaN
Raw,109840675358652,2412487000000,,,-1265618491513467446,0.0,6.823666860821457,,,14,7,0.0,16431,379303925275463,12,47.44540786743164,469.06210514949635,0.0014454536139965057,25,939577.2160259624,7.227268069982529E-4,1.57542003E9,,,,0,,1,35.23455810546875,1.57542003E9,201.0,NaN,NaN
Raw,109840675358652,2412487000000,,,-1265618491513467446,0.0,6.823666860821457,,,14,8,0.0,16384,379303916324707,1000000000,14.774675369262695,-295.55839366926807,2.99792458E8,16,-488560.9909684482,3.4028234663852886E38,1.57542003E9,,,,0,,1,35.23455810546875,1.57542003E9,201.0,NaN,NaN
Raw,109840675358652,2412487000000,,,-1265618491513467446,0.0,6.823666860821457,,,14,13,0.0,16431,379303930851431,17,40.86772155761719,-360.4087515720166,0.0029242171440273523,25,-1059135.5055614568,0.0014621085720136762,1.57542003E9,,,,0,,1,35.23455810546875,1.57542003E9,201.0,NaN,NaN
Raw,109840675358652,2412487000000,,,-1265618491513467446,0.0,6.823666860821457,,,14,15,0.0,16431,379303924065415,35,31.78127670288086,-618.8032619053629,0.7450584757401302,16,-1583606.1618628083,3.4028234663852886E38,1.57542003E9,,,,0,,1,35.23455810546875,1.57542003E9,201.0,NaN,NaN
Raw,109840675358652,2412487000000,,,-1265618491513467446,0.0,6.823666860821457,,,14,21,0.0,16431,379303917179899,15,41.95353698730469,-190.90225532930344,0.0025805889163166285,25,-711180.1652247908,0.0012902944581583142,1.57542003E9,,,,0,,1,35.23455810546875,1.57542003E9,201.0,NaN,NaN
Raw,109840675358652,2412487000000,,,-1265618491513467446,0.0,6.823666860821457,,,14,27,0.0,16418,379303916521500,1000000000,16.619787216186523,-13.417860534012775,2.99792458E8,16,-377341.4616156665,3.4028234663852886E38,1.57542003E9,,,,0,,1,35.23455810546875,1.57542003E9,201.0,NaN,NaN
Raw,109840675358652,2412487000000,,,-1265618491513467446,0.0,6.823666860821457,,,14,28,0.0,16431,379303924908749,37,31.29924201965332,-524.6217090806458,0.008295781910419464,17,-1428881.4669709571,0.09929472735439217,1.57542003E9,,,,1,,1,35.23455810546875,1.57542003E9,201.0,NaN,NaN
Raw,109840675358652,2412487000000,,,-1265618491513467446,0.0,6.823666860821457,,,14,30,0.0,16431,379303931659523,11,45.48871612548828,156.42612774886948,0.0017177500994876027,25,66004.75259836677,8.588750497438014E-4,1.57542003E9,,,,0,,1,35.23455810546875,1.57542003E9,201.0,NaN,NaN
Raw,109840675358652,2412487000000,,,-1265618491513467446,0.0,6.823666860821457,,,14,22,0.0,32769,44485919220890,141,23.282493591308594,-550.1937091319455,1.1299653701155945,16,-340387.5622061669,3.4028234663852886E38,1.60031245E9,,,,1,,3,50.23420715332031,1.60031245E9,201.0,NaN,NaN
Raw,109840675358652,2412487000000,,,-1265618491513467446,0.0,6.823666860821457,,,14,13,0.0,32995,44485929950738,59,33.97889709472656,581.3348298363853,0.005996715277433395,25,1041787.0850444713,0.0029983576387166977,1.60087501E9,,,,0,,3,50.23420715332031,1.60087501E9,201.0,NaN,NaN
Raw,109840675358652,2412487000000,,,-1265618491513467446,0.0,6.823666860821457,,,14,15,0.0,32995,44485927095822,109,26.46579933166504,-797.5416159882852,0.9846346468393299,16,-2045560.1499582727,3.4028234663852886E38,1.602E9,,,,0,,3,50.23420715332031,1.602E9,201.0,NaN,NaN
Raw,109840675358652,2412487000000,,,-1265618491513467446,0.0,6.823666860821457,,,14,5,0.0,32995,44485931063906,33,47.620872497558594,-586.9412448729854,0.0013925543753430247,25,-1553433.8138315352,6.962771876715124E-4,1.60256256E9,,,,0,,3,50.23420715332031,1.60256256E9,201.0,NaN,NaN
Raw,109840675358652,2412487000000,,,-1265618491513467446,0.0,6.823666860821457,,,14,21,0.0,32995,44485923754179,81,30.184667587280273,46.09273929442702,0.8168002494036029,16,-371974.24593574664,3.4028234663852886E38,1.60424998E9,,,,0,,3,50.23420715332031,1.60424998E9,201.0,NaN,NaN
Raw,109840675358652,2412487000000,,,-1265618491513467446,0.0,6.823666860821457,,,14,3,0.0,32995,44485926813054,65,32.864891052246094,644.8342138656881,0.0068005966022610664,25,1350041.185298614,0.0034002983011305332,1.60481254E9,,,,0,,3,50.23420715332031,1.60481254E9,201.0,NaN,NaN
Raw,109840675358652,2412487000000,,,-1265618491513467446,0.0,6.823666860821457,,,14,4,0.0,32995,44485936266102,33,45.52280044555664,84.21459062566282,0.00167909637093544,25,-143233.94330852138,8.3954818546772E-4,1.60537498E9,,,,0,,3,50.23420715332031,1.60537498E9,201.0,NaN,NaN
Raw,109840675358652,2412487000000,,,-1265618491513467446,0.0,6.823666860821457,,,14,5,0.0,16904,379289864406279,1000000000,12.0,-16.11125754795409,2.99792458E8,16,-39545.45553156051,3.4028234663852886E38,1.56109798E9,,,,0,,5,51.1672477722168,1.56109798E9,201.0,NaN,NaN
Raw,109840675358652,2412487000000,,,-1265618491513467446,0.0,6.823666860821457,,,14,7,0.0,81967,379289866466279,47,19.747970581054688,125.7380551601043,1.2866145976204333,16,226379.31613899476,3.4028234663852886E38,1.56109798E9,,,,1,,5,51.1672477722168,1.56109798E9,201.0,NaN,NaN
Raw,109840675358652,2412487000000,,,-1265618491513467446,0.0,6.823666860821457,,,14,10,0.0,81967,379289870510601,8,41.245269775390625,14.394556459134037,0.0028255200013518333,25,-57895.869486279655,0.0014127600006759167,1.56109798E9,,,,0,,5,51.1672477722168,1.56109798E9,201.0,NaN,NaN
Raw,109840675358652,2412487000000,,,-1265618491513467446,0.0,6.823666860821457,,,14,12,0.0,16384,379289912015828,1000000000,12.0,-30.3502677720477,2.99792458E8,16,-374277.1131243707,3.4028234663852886E38,1.56109798E9,,,,1,,5,51.1672477722168,1.56109798E9,201.0,NaN,NaN
Raw,109840675358652,2412487000000,,,-1265618491513467446,0.0,6.823666860821457,,,14,19,0.0,81967,379289924297088,6,45.230010986328125,-412.7172029563226,0.0017859172075986862,25,-1151340.4450764689,8.929586037993431E-4,1.56109798E9,,,,0,,5,51.1672477722168,1.56109798E9,201.0,NaN,NaN
Raw,109840675358652,2412487000000,,,-1265618491513467446,0.0,6.823666860821457,,,14,20,0.0,81967,379289927123470,7,43.0520133972168,168.8824567522097,0.002294886624440551,25,147857.51608802436,0.0011474433122202754,1.56109798E9,,,,0,,5,51.1672477722168,1.56109798E9,201.0,NaN,NaN
Raw,109840675358652,2412487000000,,,-1265618491513467446,0.0,6.823666860821457,,,14,23,0.0,81967,379289918328101,8,40.951026916503906,501.2152270738734,0.0029228765051811934,17,1020685.5206491643,0.09748118140772884,1.56109798E9,,,,0,,5,51.1672477722168,1.56109798E9,201.0,NaN,NaN
Raw,109840675358652,2412487000000,,,-1265618491513467446,0.0,6.823666860821457,,,14,32,0.0,81967,379289916199724,24,28.06651496887207,591.137509472102,0.9142898544895051,16,1306790.766062841,3.4028234663852886E38,1.56109798E9,,,,1,,5,51.1672477722168,1.56109798E9,201.0,NaN,NaN
Raw,109840675358652,2412487000000,,,-1265618491513467446,0.0,6.823666860821457,,,14,34,0.0,16384,379289909827303,1000000000,12.0,-231.94469849664904,2.99792458E8,16,-151671.11154921248,3.4028234663852886E38,1.56109798E9,,,,0,,5,51.1672477722168,1.56109798E9,201.0,NaN,NaN
Raw,109840675358652,2412487000000,,,-1265618491513467446,0.0,6.823666860821457,,,14,37,0.0,81967,379289926698970,9,39.3411750793457,-29.0332481940859,0.003518059151247144,25,423711.0217322605,0.0017590295756235719,1.56109798E9,,,,0,,5,51.1672477722168,1.56109798E9,201.0,NaN,NaN
Raw,109840675358652,2412487000000,,,-1265618491513467446,0.0,6.823666860821457,,,14,1,0.0,21546,379303914708692,15,44.987205505371094,292.313588480989,0.0019182894611731174,25,454852.45622687816,9.591447305865586E-4,1.57542003E9,,,,0,,6,35.23455810546875,1.57542003E9,201.0,NaN,NaN
Raw,109840675358652,2412487000000,,,-1265618491513467446,0.0,6.823666860821457,,,14,4,0.0,21546,379303913018982,25,35.86052703857422,444.54513210686855,0.004906742367893457,25,970863.0554113253,0.0024533711839467287,1.57542003E9,,,,0,,6,35.23455810546875,1.57542003E9,201.0,NaN,NaN
Raw,109840675358652,2412487000000,,,-1265618491513467446,0.0,6.823666860821457,,,14,5,0.0,21546,379303916719297,18,39.97319030761719,-404.85436451504944,0.003241427009925246,25,-1043124.1593202126,0.0016207135049626231,1.57542003E9,,,,0,,6,35.23455810546875,1.57542003E9,201.0,NaN,NaN
Raw,109840675358652,2412487000000,,,-1265618491513467446,0.0,6.823666860821457,,,14,9,0.0,85026,379303928990104,14,43.232276916503906,46.49106288731855,0.002227316377684474,25,-49933.151459408946,0.001113658188842237,1.57542003E9,,,,0,,6,35.23455810546875,1.57542003E9,201.0,NaN,NaN
Raw,109840675358652,2412487000000,,,-1265618491513467446,0.0,6.823666860821457,,,14,15,0.0,85026,379303909114135,54,26.596452713012695,-111.04076263991408,0.9784027495448915,16,-526752.1535309209,3.4028234663852886E38,1.57542003E9,,,,0,,6,35.23455810546875,1.57542003E9,201.0,NaN,NaN
Raw,109840675358652,2412487000000,,,-1265618491513467446,0.0,6.823666860821457,,,14,31,0.0,21546,379303919402980,29,34.18623733520508,-265.0395385508891,0.005949872080236673,25,-871076.006055225,0.0029749360401183367,1.57542003E9,,,,0,,6,35.23455810546875,1.57542003E9,201.0,NaN,NaN
Raw,109840675358652,2412487000000,,,-1265618491513467446,0.0,6.823666860821457,,,14,36,0.0,83968,379303905754716,1000000000,12.0,554.9142316077243,2.99792458E8,16,1292453.0522771934,3.4028234663852886E38,1.57542003E9,,,,0,,6,35.23455810546875,1.57542003E9,201.0,NaN,NaN
Fix,gps,51.524375,-0.134485,98.022256,0.174929,3.000000,1581585687000,109841646403344
Raw,109841668631190,2413487000000,,,-1265618491513467497,0.0,6.529990290753342,,,14,2,0.0,16396,379304915016339,1000000000,12.0,581.4625225389718,2.99792458E8,16,1397255.1446838798,3.4028234663852886E38,1.57542003E9,,,,1,,1,35.95880126953125,1.57542003E9,201.0,NaN,NaN
Raw,109841668631190,2413487000000,,,-1265618491513467497,0.0,6.529990290753342,,,14,5,0.0,16431,379304931466226,14,42.89082717895508,239.3859120317793,0.002316617639735341,25,224894.4977761299,0.0011583088198676705,1.57542003E9,,,,0,,1,35.95880126953125,1.57542003E9,201.0,NaN,NaN
Raw,109841668631190,2413487000000,,,-1265618491513467497,0.0,6.529990290753342,,,14,7,0.0,16431,379304925273880,11,47.98869323730469,469.1239887604025,0.0013578127836808562,25,940046.3400147228,6.789063918404281E-4,1.57542003E9,,,,0,,1,35.95880126953125,1.57542003E9,201.0,NaN,NaN
Raw,109841668631190,2413487000000,,,-1265618491513467497,0.0,6.529990290753342,,,14,8,0.0,16384,379304916325696,1000000000,14.418134689331055,-295.3727465285883,2.99792458E8,16,-488856.9869527916,3.4028234663852886E38,1.57542003E9,,,,0,,1,35.95880126953125,1.57542003E9,201.0,NaN,NaN
Raw,109841668631190,2413487000000,,,-1265618491513467497,0.0,6.529990290753342,,,14,13,0.0,16431,379304930852609,13,45.942047119140625,-360.2849469289649,0.0017185891047120094,25,-1059495.7905083857,8.592945523560047E-4,1.57542003E9,,,,0,,1,35.95880126953125,1.57542003E9,201.0,NaN,NaN
Raw,109841668631190,2413487000000,,,-1265618491513467497,0.0,6.529990290753342,,,14,15,0.0,16431,379304924067484,50,27.47290802001953,-619.2184543907238,0.9388013314881101,16,-1584225.1631501114,3.4028234663852886E38,1.57542003E9,,,,0,,1,35.95880126953125,1.57542003E9,201.0,NaN,NaN
Raw,109841668631190,2413487000000,,,-1265618491513467497,0.0,6.529990290753342,,,14,21,0.0,16431,379304917180539,14,43.08115005493164,-190.82003570580855,0.0022664086427539583,25,-711370.9852604966,0.0011332043213769794,1.57542003E9,,,,0,,1,35.95880126953125,1.57542003E9,201.0,NaN,NaN
Raw,109841668631190,2413487000000,,,-1265618491513467497,0.0,6.529990290753342,,,14,27,0.0,16419,379304916521636,118,16.947628021240234,-13.214036793238705,1.414351517495457,16,-377354.1037679941,3.4028234663852886E38,1.57542003E9,,,,1,,1,35.95880126953125,1.57542003E9,201.0,NaN,NaN
Raw,109841668631190,2413487000000,,,-1265618491513467497,0.0,6.529990290753342,,,14,28,0.0,16431,379304924910482,30,33.66837692260742,-524.4670291317161,0.0063153961673378944,17,-1429405.9340000888,0.09830453448285138,1.57542003E9,,,,0,,1,35.95880126953125,1.57542003E9,201.0,NaN,NaN
Raw,109841668631190,2413487000000,,,-1265618491513467497,0.0,6.529990290753342,,,14,30,0.0,16431,379304931659030,12,47.618202209472656,156.58723248186288,0.0014169819187372923,25,66161.33983084864,7.084909593686461E-4,1.57542003E9,,,,0,,1,35.95880126953125,1.57542003E9,201.0,NaN,NaN
Raw,109841668631190,2413487000000,,,-1265618491513467497,0.0,6.529990290753342,,,14,22,0.0,32769,44486919222847,170,20.995222091674805,-549.728994837257,1.2328216973251793,16,-340937.18636200717,3.4028234663852886E38,1.60031245E9,,,,1,,3,51.326629638671875,1.60031245E9,201.0,NaN,NaN
Raw,109841668631190,2413487000000,,,-1265618491513467497,0.0,6.529990290753342,,,14,13,0.0,32995,44486929948805,73,31.447378158569336,581.4793719849549,0.0080258222296834,25,1042368.5644164563,0.0040129111148417,1.60087501E9,,,,0,,3,51.326629638671875,1.60087501E9,201.0,NaN,NaN
Raw,109841668631190,2413487000000,,,-1265618491513467497,0.0,6.529990290753342,,,14,15,0.0,32995,44486927098504,76,30.93705940246582,-797.0144967157034,0.7835675910057343,16,-2046358.141361213,3.4028234663852886E38,1.602E9,,,,0,,3,51.326629638671875,1.602E9,201.0,NaN,NaN
Raw,109841668631190,2413487000000,,,-1265618491513467497,0.0,6.529990290753342,,,14,5,0.0,32995,44486931065868,33,45.084415435791016,-586.8901106617413,0.0018648122204467652,25,-1554020.703942197,9.324061102233827E-4,1.60256256E9,,,,0,,3,51.326629638671875,1.60256256E9,201.0,NaN,NaN
Raw,109841668631190,2413487000000,,,-1265618491513467497,0.0,6.529990290753342,,,14,21,0.0,32995,44486923754223,81,30.10293960571289,46.79044126190547,0.8204754964877452,16,-371927.7695921677,3.4028234663852886E38,1.60424998E9,,,,0,,3,51.326629638671875,1.60424998E9,201.0,NaN,NaN
Raw,109841668631190,2413487000000,,,-1265618491513467497,0.0,6.529990290753342,,,14,3,0.0,32995,44486926810849,58,34.298858642578125,644.8467861090321,0.005765655543655157,25,1350686.032084723,0.0028828277718275785,1.60481254E9,,,,0,,3,51.326629638671875,1.60481254E9,201.0,NaN,NaN
Raw,109841668631190,2413487000000,,,-1265618491513467497,0.0,6.529990290753342,,,14,4,0.0,32995,44486936265838,33,43.083229064941406,84.40710825752467,0.0022235871292650704,25,-143149.53620026386,0.001111793564632535,1.60537498E9,,,,0,,3,51.326629638671875,1.60537498E9,201.0,NaN,NaN
Raw,109841668631190,2413487000000,,,-1265618491513467497,0.0,6.529990290753342,,,14,5,0.0,16904,379290864406335,1000000000,12.0,-15.736546500328181,2.99792458E8,16,-39561.49038314836,3.4028234663852886E38,1.56109798E9,,,,0,,5,51.86248779296875,1.56109798E9,201.0,NaN,NaN
Raw,109841668631190,2413487000000,,,-1265618491513467497,0.0,6.529990290753342,,,14,7,0.0,81967,379290866465862,42,21.047740936279297,125.88374914112518,1.2281653148373461,16,226505.038780325,3.4028234663852886E38,1.56109798E9,,,,1,,5,51.86248779296875,1.56109798E9,201.0,NaN,NaN
Raw,109841668631190,2413487000000,,,-1265618491513467497,0.0,6.529990290753342,,,14,10,0.0,81967,379290870510556,9,39.91312789916992,14.479990803563851,0.0032938627991825342,25,-57881.38949547609,0.0016469313995912671,1.56109798E9,,,,0,,5,51.86248779296875,1.56109798E9,201.0,NaN,NaN
Raw,109841668631190,2413487000000,,,-1265618491513467497,0.0,6.529990290753342,,,14,12,0.0,16384,379290912015935,1000000000,12.0,-30.72497881967361,2.99792458E8,16,-374307.84257856617,3.4028234663852886E38,1.56109798E9,,,,0,,5,51.86248779296875,1.56109798E9,201.0,NaN,NaN
Raw,109841668631190,2413487000000,,,-1265618491513467497,0.0,6.529990290753342,,,14,19,0.0,81967,379290924298471,6,44.903221130371094,-412.6539533678442,0.001854388858191669,25,-1151753.0990298367,9.271944290958345E-4,1.56109798E9,,,,0,,5,51.86248779296875,1.56109798E9,201.0,NaN,NaN
Raw,109841668631190,2413487000000,,,-1265618491513467497,0.0,6.529990290753342,,,14,20,0.0,81967,379290927122920,7,42.62779998779297,168.99064119745162,0.0024097496643662453,25,148026.50672922182,0.0012048748321831226,1.56109798E9,,,,0,,5,51.86248779296875,1.56109798E9,201.0,NaN,NaN
Raw,109841668631190,2413487000000,,,-1265618491513467497,0.0,6.529990290753342,,,14,23,0.0,81967,379290918326421,9,39.70500564575195,501.2449918901548,0.003373740240931511,25,1021186.7656410545,0.0016868701204657555,1.56109798E9,,,,0,,5,51.86248779296875,1.56109798E9,201.0,NaN,NaN
Raw,109841668631190,2413487000000,,,-1265618491513467497,0.0,6.529990290753342,,,14,32,0.0,16396,379290916197833,1000000000,26.069242477416992,591.3638169834135,2.99792458E8,16,1307381.9797868014,3.4028234663852886E38,1.56109798E9,,,,1,,5,51.86248779296875,1.56109798E9,201.0,NaN,NaN
Raw,109841668631190,2413487000000,,,-1265618491513467497,0.0,6.529990290753342,,,14,34,0.0,16384,379290909828080,1000000000,12.0,-231.94469849664904,2.99792458E8,16,-151903.05624691042,3.4028234663852886E38,1.56109798E9,,,,0,,5,51.86248779296875,1.56109798E9,201.0,NaN,NaN
Raw,109841668631190,2413487000000,,,-1265618491513467497,0.0,6.529990290753342,,,14,37,0.0,81967,379290926699026,6,43.45281219482422,-28.853677497128952,0.002191398059949279,25,423682.16805476334,0.0010956990299746394,1.56109798E9,,,,0,,5,51.86248779296875,1.56109798E9,201.0,NaN,NaN
Raw,109841668631190,2413487000000,,,-1265618491513467497,0.0,6.529990290753342,,,14,1,0.0,21546,379304914707715,13,44.081199645996094,292.4153634058894,0.0020199273712933064,25,455144.87159028405,0.0010099636856466532,1.57542003E9,,,,0,,6,35.95880126953125,1.57542003E9,201.0,NaN,NaN
Raw,109841668631190,2413487000000,,,-1265618491513467497,0.0,6.529990290753342,,,14,4,0.0,21546,379304913017536,26,35.312950134277344,444.56505568325514,0.005226030480116605,25,971307.6204670086,0.002613015240058303,1.57542003E9,,,,0,,6,35.95880126953125,1.57542003E9,201.0,NaN,NaN
Raw,109841668631190,2413487000000,,,-1265618491513467497,0.0,6.529990290753342,,,14,5,0.0,21546,379304916720632,18,39.63813018798828,-404.8229471858358,0.003368908539414406,25,-1043528.9822673984,0.001684454269707203,1.57542003E9,,,,0,,6,35.95880126953125,1.57542003E9,201.0,NaN,NaN
Raw,109841668631190,2413487000000,,,-1265618491513467497,0.0,6.529990290753342,,,14,9,0.0,85026,379304928989961,15,42.07157897949219,46.59836158637336,0.002545756055042148,25,-49886.55309782257,0.0012728780275210738,1.57542003E9,,,,0,,6,35.95880126953125,1.57542003E9,201.0,NaN,NaN
Raw,109841668631190,2413487000000,,,-1265618491513467497,0.0,6.529990290753342,,,14,15,0.0,85026,379304909114498,50,27.546710968017578,-111.02310792743526,0.9356708711699495,16,-526863.1817423516,3.4028234663852886E38,1.57542003E9,,,,0,,6,35.95880126953125,1.57542003E9,201.0,NaN,NaN
Raw,109841668631190,2413487000000,,,-1265618491513467497,0.0,6.529990290753342,,,14,31,0.0,21546,379304919403814,22,37.48869705200195,-264.84255922352895,0.004314802121371031,25,-871340.8486144486,0.0021574010606855154,1.57542003E9,,,,0,,6,35.95880126953125,1.57542003E9,201.0,NaN,NaN
Raw,109841668631190,2413487000000,,,-1265618491513467497,0.0,6.529990290753342,,,14,36,0.0,83968,379304905752865,1000000000,12.0,554.5429373263648,2.99792458E8,16,1293007.5952226217,3.4028234663852886E38,1.57542003E9,,,,0,,6,35.95880126953125,1.57542003E9,201.0,NaN,NaN
Fix,gps,51.524375,-0.134485,97.995663,0.152555,3.000000,1581585688000,109842662264151
Raw,109842675790612,2414487000000,,,-1265618491513467549,0.0,6.478595399843716,,,14,2,0.0,16396,379305915014399,1000000000,12.0,581.0911600926993,2.99792458E8,16,1397836.156089421,3.4028234663852886E38,1.57542003E9,,,,1,,1,35.95880126953125,1.57542003E9,201.0,NaN,NaN
Raw,109842675790612,2414487000000,,,-1265618491513467549,0.0,6.478595399843716,,,14,5,0.0,16431,379305931465433,14,42.972312927246094,239.54799427613037,0.0022949865087866783,25,225134.04577040602,0.0011474932543933392,1.57542003E9,,,,0,,1,35.95880126953125,1.57542003E9,201.0,NaN,NaN
Raw,109842675790612,2414487000000,,,-1265618491513467549,0.0,6.478595399843716,,,14,7,0.0,16431,379305925272334,11,48.65121841430664,469.20008508337196,0.0012580952607095242,25,940515.5400998062,6.290476303547621E-4,1.57542003E9,,,,0,,1,35.95880126953125,1.57542003E9,201.0,NaN,NaN
Raw,109842675790612,2414487000000,,,-1265618491513467549,0.0,6.478595399843716,,,14,8,0.0,16384,379305916326678,1000000000,14.093936920166016,-295.55839366926807,2.99792458E8,16,-489151.99202434055,3.4028234663852886E38,1.57542003E9,,,,0,,1,35.95880126953125,1.57542003E9,201.0,NaN,NaN
Raw,109842675790612,2414487000000,,,-1265618491513467549,0.0,6.478595399843716,,,14,13,0.0,16431,379305930853809,12,47.28904724121094,-360.19244255754165,0.0014717095764353871,25,-1059855.9829509433,7.358547882176936E-4,1.57542003E9,,,,0,,1,35.95880126953125,1.57542003E9,201.0,NaN,NaN
Raw,109842675790612,2414487000000,,,-1265618491513467549,0.0,6.478595399843716,,,14,15,0.0,16431,379305924069562,35,31.978837966918945,-618.9724472195421,0.996398486290829,16,-1584844.0466418106,3.4028234663852886E38,1.57542003E9,,,,1,,1,35.95880126953125,1.57542003E9,201.0,NaN,NaN
Raw,109842675790612,2414487000000,,,-1265618491513467549,0.0,6.478595399843716,,,14,21,0.0,16431,379305917181184,12,44.750022888183594,-190.71412140550092,0.001870228094048798,25,-711561.6993819021,9.35114047024399E-4,1.57542003E9,,,,0,,1,35.95880126953125,1.57542003E9,201.0,NaN,NaN
Raw,109842675790612,2414487000000,,,-1265618491513467549,0.0,6.478595399843716,,,14,27,0.0,16418,379305916521837,1000000000,16.33538818359375,-14.118741755638744,2.99792458E8,16,-377370.73833980854,3.4028234663852886E38,1.57542003E9,,,,1,,1,35.95880126953125,1.57542003E9,201.0,NaN,NaN
Raw,109842675790612,2414487000000,,,-1265618491513467549,0.0,6.478595399843716,,,14,28,0.0,16431,379305924912258,27,34.84709167480469,-524.3996288810913,0.6645053885560426,16,-1429930.3314173324,3.4028234663852886E38,1.57542003E9,,,,0,,1,35.95880126953125,1.57542003E9,201.0,NaN,NaN
Raw,109842675790612,2414487000000,,,-1265618491513467549,0.0,6.478595399843716,,,14,30,0.0,16431,379305931658506,14,45.06733703613281,156.71319750283146,0.0019006734946742654,25,66318.05302835147,9.503367473371327E-4,1.57542003E9,,,,0,,1,35.95880126953125,1.57542003E9,201.0,NaN,NaN
Raw,109842675790612,2414487000000,,,-1265618491513467549,0.0,6.478595399843716,,,14,22,0.0,32769,44487919224679,151,22.444171905517578,-549.9923499788088,1.167664294798505,16,-341488.5599767243,3.4028234663852886E38,1.60031245E9,,,,1,,3,51.712730407714844,1.60031245E9,201.0,NaN,NaN
Raw,109842675790612,2414487000000,,,-1265618491513467549,0.0,6.478595399843716,,,14,13,0.0,32995,44487929946861,82,30.056800842285156,581.618143035455,0.8236642031915649,16,1042950.1292753747,3.4028234663852886E38,1.60087501E9,,,,0,,3,51.712730407714844,1.60087501E9,201.0,NaN,NaN
Raw,109842675790612,2414487000000,,,-1265618491513467549,0.0,6.478595399843716,,,14,15,0.0,32995,44487927101168,63,33.19120788574219,-797.4564589622896,0.00656134681776166,25,-2047155.5978201753,0.00328067340888083,1.602E9,,,,0,,3,51.712730407714844,1.602E9,201.0,NaN,NaN
Raw,109842675790612,2414487000000,,,-1265618491513467549,0.0,6.478595399843716,,,14,5,0.0,32995,44487931067835,33,44.623111724853516,-586.7951909939293,0.0018656124593690038,25,-1554607.4991331908,9.328062296845019E-4,1.60256256E9,,,,0,,3,51.712730407714844,1.60256256E9,201.0,NaN,NaN
Raw,109842675790612,2414487000000,,,-1265618491513467549,0.0,6.478595399843716,,,14,21,0.0,32995,44487923753923,57,34.52202606201172,46.65037589601707,0.0056213741190731525,25,-371881.1192162717,0.0028106870595365763,1.60424998E9,,,,0,,3,51.712730407714844,1.60424998E9,201.0,NaN,NaN
Raw,109842675790612,2414487000000,,,-1265618491513467549,0.0,6.478595399843716,,,14,3,0.0,32995,44487926808746,65,32.93212127685547,644.8275350675722,0.6944717893480425,16,1351331.0107724653,3.4028234663852886E38,1.60481254E9,,,,0,,3,51.712730407714844,1.60481254E9,201.0,NaN,NaN
Raw,109842675790612,2414487000000,,,-1265618491513467549,0.0,6.478595399843716,,,14,4,0.0,32995,44487936265592,33,43.89623260498047,84.54448315899936,0.0020249017979949713,25,-143064.99171710486,0.0010124508989974856,1.60537498E9,,,,0,,3,51.712730407714844,1.60537498E9,201.0,NaN,NaN
Raw,109842675790612,2414487000000,,,-1265618491513467549,0.0,6.478595399843716,,,14,5,0.0,16904,379291864406387,1000000000,12.0,-16.11125754795409,2.99792458E8,16,-39577.6023727923,3.4028234663852886E38,1.56109798E9,,,,0,,5,50.92256164550781,1.56109798E9,201.0,NaN,NaN
Raw,109842675790612,2414487000000,,,-1265618491513467549,0.0,6.478595399843716,,,14,7,0.0,81967,379291866465435,27,26.232852935791016,125.80879329861739,0.994996512429839,16,226630.7387322042,3.4028234663852886E38,1.56109798E9,,,,0,,5,50.92256164550781,1.56109798E9,201.0,NaN,NaN
Raw,109842675790612,2414487000000,,,-1265618491513467549,0.0,6.478595399843716,,,14,10,0.0,81967,379291870510505,7,42.01298904418945,14.509554304197081,0.002586499555036426,25,-57866.879941171894,0.0012932497775182128,1.56109798E9,,,,0,,5,50.92256164550781,1.56109798E9,201.0,NaN,NaN
Raw,109842675790612,2414487000000,,,-1265618491513467549,0.0,6.478595399843716,,,14,12,0.0,16384,379291912016036,1000000000,12.0,-30.72497881967361,2.99792458E8,16,-374338.5675576284,3.4028234663852886E38,1.56109798E9,,,,0,,5,50.92256164550781,1.56109798E9,201.0,NaN,NaN
Raw,109842675790612,2414487000000,,,-1265618491513467549,0.0,6.478595399843716,,,14,19,0.0,81967,379291924299831,6,45.9518928527832,-412.59238488273695,0.0017323917709290981,25,-1152165.6914147194,8.661958854645491E-4,1.56109798E9,,,,0,,5,50.92256164550781,1.56109798E9,201.0,NaN,NaN
Raw,109842675790612,2414487000000,,,-1265618491513467549,0.0,6.478595399843716,,,14,20,0.0,81967,379291927122349,6,43.8140869140625,169.113720802241,0.002102120080962777,25,148195.62045002406,0.0010510600404813886,1.56109798E9,,,,0,,5,50.92256164550781,1.56109798E9,201.0,NaN,NaN
Raw,109842675790612,2414487000000,,,-1265618491513467549,0.0,6.478595399843716,,,14,23,0.0,81967,379291918324755,12,36.67327880859375,501.4208182748407,0.004509430378675461,25,1021688.1864593293,0.0022547151893377304,1.56109798E9,,,,0,,5,50.92256164550781,1.56109798E9,201.0,NaN,NaN
Raw,109842675790612,2414487000000,,,-1265618491513467549,0.0,6.478595399843716,,,14,32,0.0,16396,379291916195869,1000000000,23.429935455322266,590.3537493019035,2.99792458E8,16,1307973.1172973395,3.4028234663852886E38,1.56109798E9,,,,1,,5,50.92256164550781,1.56109798E9,201.0,NaN,NaN
Raw,109842675790612,2414487000000,,,-1265618491513467549,0.0,6.478595399843716,,,14,34,0.0,16384,379291909828853,1000000000,12.0,-231.94469849664904,2.99792458E8,16,-152135.0009446085,3.4028234663852886E38,1.56109798E9,,,,0,,5,50.92256164550781,1.56109798E9,201.0,NaN,NaN
Raw,109842675790612,2414487000000,,,-1265618491513467549,0.0,6.478595399843716,,,14,37,0.0,81967,379291926699156,8,41.033687591552734,-28.72313198109623,0.0028951929416507483,25,423653.44492278225,0.0014475964708253741,1.56109798E9,,,,0,,5,50.92256164550781,1.56109798E9,201.0,NaN,NaN
Raw,109842675790612,2414487000000,,,-1265618491513467549,0.0,6.478595399843716,,,14,1,0.0,21546,379305914706723,12,45.09760665893555,292.51938166783657,0.0017968644388020039,25,455437.3909719519,8.984322194010019E-4,1.57542003E9,,,,0,,6,35.95880126953125,1.57542003E9,201.0,NaN,NaN
Raw,109842675790612,2414487000000,,,-1265618491513467549,0.0,6.478595399843716,,,14,4,0.0,21546,379305913016028,20,38.57823944091797,444.62495504738763,0.003806131659075618,25,971752.245422056,0.001903065829537809,1.57542003E9,,,,0,,6,35.95880126953125,1.57542003E9,201.0,NaN,NaN
Raw,109842675790612,2414487000000,,,-1265618491513467549,0.0,6.478595399843716,,,14,5,0.0,21546,379305916721981,19,39.386260986328125,-404.7603229782544,0.0034680289682000875,25,-1043933.7425903766,0.0017340144841000438,1.57542003E9,,,,0,,6,35.95880126953125,1.57542003E9,201.0,NaN,NaN
Raw,109842675790612,2414487000000,,,-1265618491513467549,0.0,6.478595399843716,,,14,9,0.0,85026,379305928989785,14,42.83653259277344,46.69117419076065,0.002331143943592906,25,-49839.86192363181,0.001165571971796453,1.57542003E9,,,,0,,6,35.95880126953125,1.57542003E9,201.0,NaN,NaN
Raw,109842675790612,2414487000000,,,-1265618491513467549,0.0,6.478595399843716,,,14,15,0.0,85026,379305909114866,44,28.93344497680664,-110.91344826761633,0.010892993770539762,25,-526974.0951906192,0.00544649688526988,1.57542003E9,,,,0,,6,35.95880126953125,1.57542003E9,201.0,NaN,NaN
Raw,109842675790612,2414487000000,,,-1265618491513467549,0.0,6.478595399843716,,,14,31,0.0,21546,379305919404690,24,36.63970947265625,-264.7427313566441,0.004485737532377242,25,-871605.5913458052,0.0022428687661886215,1.57542003E9,,,,0,,6,35.95880126953125,1.57542003E9,201.0,NaN,NaN
Raw,109842675790612,2414487000000,,,-1265618491513467549,0.0,6.478595399843716,,,14,36,0.0,83968,379305905751013,1000000000,12.0,554.5429373263648,2.99792458E8,16,1293562.1381654092,3.4028234663852886E38,1.57542003E9,,,,0,,6,35.95880126953125,1.57542003E9,201.0,NaN,NaN
Fix,gps,51.524375,-0.134485,98.050640,0.050630,3.000000,1581585689000,109843662092496
Raw,109843683399034,2415487000000,,,-1265618491513467601,0.0,6.704229508380757,,,14,2,0.0,16396,379306915012460,1000000000,12.0,581.0911600926993,2.99792458E8,16,1398417.2472949126,3.4028234663852886E38,1.57542003E9,,,,1,,1,35.384315490722656,1.57542003E9,201.0,NaN,NaN
Raw,109843683399034,2415487000000,,,-1265618491513467601,0.0,6.704229508380757,,,14,5,0.0,16431,379306931464645,14,43.063228607177734,239.6530977372604,0.0022710899356752634,25,225373.69886814328,0.0011355449678376317,1.57542003E9,,,,0,,1,35.384315490722656,1.57542003E9,201.0,NaN,NaN
Raw,109843683399034,2415487000000,,,-1265618491513467601,0.0,6.704229508380757,,,14,7,0.0,16431,379306925270740,10,49.75353240966797,469.1518737759907,0.0011081481352448463,25,940984.6919735821,5.540740676224232E-4,1.57542003E9,,,,0,,1,35.384315490722656,1.57542003E9,201.0,NaN,NaN
Raw,109843683399034,2415487000000,,,-1265618491513467601,0.0,6.704229508380757,,,14,8,0.0,16384,379306916327666,1000000000,14.476310729980469,-295.55839366926807,2.99792458E8,16,-489446.38782218366,3.4028234663852886E38,1.57542003E9,,,,1,,1,35.384315490722656,1.57542003E9,201.0,NaN,NaN
