# 
# Header Description:
# 
# Version: v2.0.0.1 Platform: 10 Manufacturer: Google Model: Pixel 4
# 
# Raw,ElapsedRealtimeNanos,TimeNanos,LeapSecond,TimeUncertaintyNanos,FullBiasNanos,BiasNanos,BiasUncertaintyNanos,DriftNanosPerSecond,DriftUncertaintyNanosPerSecond,HardwareClockDiscontinuityCount,Svid,TimeOffsetNanos,State,ReceivedSvTimeNanos,ReceivedSvTimeUncertaintyNanos,Cn0DbHz,PseudorangeRateMetersPerSecond,PseudorangeRateUncertaintyMetersPerSecond,AccumulatedDeltaRangeState,AccumulatedDeltaRangeMeters,AccumulatedDeltaRangeUncertaintyMeters,CarrierFrequencyHz,CarrierCycles,CarrierPhase,CarrierPhaseUncertainty,MultipathIndicator,SnrInDb,ConstellationType,AgcDb,CarrierFrequencyHz,UserLatitude,UserLongitude,UserAltitude
# 
# Fix,Provider,Latitude,Longitude,Altitude,Speed,Accuracy,(UTC)TimeInMs,ElapsedRealtimeNanos
# 
# Nav,Svid,Type,Status,MessageId,Sub-messageId,Data(Bytes)
# 
Fix,gps,51.524697,-0.134373,76.622559,0.000000,3.790092,1582195073000,232330895848327
Raw,232330905662703,649135386000000,,,-1265581155268105050,-0.22853612899780273,1001.033466309309,61.70524761094292,6.9923184497675415,91,5,0.0,16399,383890573659131,13,31.6,740.6041259765625,0.07459999620914459,21,84.38867048381293,0.19029366893311156,1.57542003E9,,,,0,,1,0.0,1.57542003E9,351.0,NaN,NaN
Raw,232330905662703,649135386000000,,,-1265581155268105050,-0.22853612899780273,1001.033466309309,61.70524761094292,6.9923184497675415,91,13,0.0,16399,383890586304572,6,39.9,218.9453582763672,0.030900001525878906,21,23.39826200303068,0.0010085564157135064,1.57542003E9,,,,0,,1,0.0,1.57542003E9,351.0,NaN,NaN
Raw,232330905662703,649135386000000,,,-1265581155268105050,-0.22853612899780273,1001.033466309309,61.70524761094292,6.9923184497675415,91,15,0.0,16399,383890586323594,11,33.9,-118.69432067871094,0.05220000073313713,21,-12.711682362434866,7.42145288706399E-4,1.57542003E9,,,,0,,1,0.0,1.57542003E9,351.0,NaN,NaN
Raw,232330905662703,649135386000000,,,-1265581155268105050,-0.22853612899780273,1001.033466309309,61.70524761094292,6.9923184497675415,91,17,0.0,16399,383890571231610,11,33.3,-527.8303833007812,0.059700001031160355,21,-59.10649379033015,0.19029366893311156,1.57542003E9,,,,0,,1,0.0,1.57542003E9,351.0,NaN,NaN
Raw,232330905662703,649135386000000,,,-1265581155268105050,-0.22853612899780273,1001.033466309309,61.70524761094292,6.9923184497675415,91,20,0.0,16399,383890577209237,31,23.7,-364.7453918457031,0.7369999885559082,16,0.0,0.0,1.57542003E9,,,,0,,1,0.0,1.57542003E9,351.0,NaN,NaN
Raw,232330905662703,649135386000000,,,-1265581155268105050,-0.22853612899780273,1001.033466309309,61.70524761094292,6.9923184497675415,91,24,0.0,16399,383890578094342,19,27.8,-578.4032592773438,0.1907000094652176,19,-68.89604119178479,0.0,1.57542003E9,,,,0,,1,0.0,1.57542003E9,351.0,NaN,NaN
Raw,232330905662703,649135386000000,,,-1265581155268105050,-0.22853612899780273,1001.033466309309,61.70524761094292,6.9923184497675415,91,28,0.0,16399,383890582669854,10,34.9,181.02935791015625,0.07159999758005142,21,22.291162867132083,0.001160791358090767,1.57542003E9,,,,0,,1,0.0,1.57542003E9,351.0,NaN,NaN
Raw,232330905662703,649135386000000,,,-1265581155268105050,-0.22853612899780273,1001.033466309309,61.70524761094292,6.9923184497675415,91,30,0.0,16399,383890576557596,16,29.0,602.46484375,0.09839999675750732,21,70.52619729587647,0.001160791358090767,1.57542003E9,,,,0,,1,0.0,1.57542003E9,351.0,NaN,NaN
Raw,232330905662703,649135386000000,,,-1265581155268105050,-0.22853612899780273,1001.033466309309,61.70524761094292,6.9923184497675415,91,14,0.0,49359,49072590213274,9,35.7,-44.394290924072266,0.24950000643730164,21,-4.877149112305051,-6.9211246400369992E18,1.59806246E9,,,,0,,3,0.0,1.59806246E9,351.0,NaN,NaN
Raw,232330905662703,649135386000000,,,-1265581155268105050,-0.22853612899780273,1001.033466309309,61.70524761094292,6.9923184497675415,91,22,0.0,49359,49072576446920,17,28.2,-183.5472869873047,0.321399986743927,21,-21.378256944400036,-6.9113937779659387E18,1.60031245E9,,,,0,,3,0.0,1.60031245E9,351.0,NaN,NaN
Raw,232330905662703,649135386000000,,,-1265581155268105050,-0.22853612899780273,1001.033466309309,61.70524761094292,6.9923184497675415,91,15,0.0,49359,49072581617912,17,28.2,-657.63671875,0.328900009393692,21,-80.14290191198864,-6.9041132933262418E18,1.602E9,,,,0,,3,0.0,1.602E9,351.0,NaN,NaN
Raw,232330905662703,649135386000000,,,-1265581155268105050,-0.22853612899780273,1001.033466309309,61.70524761094292,6.9923184497675415,91,5,0.0,49359,49072584602627,5,40.9,-563.1514282226562,0.22590000927448273,21,-59.166764236991135,-6.9016896887374172E18,1.60256256E9,,,,0,,3,0.0,1.60256256E9,351.0,NaN,NaN
Raw,232330905662703,649135386000000,,,-1265581155268105050,-0.22853612899780273,1001.033466309309,61.70524761094292,6.9923184497675415,91,3,0.0,49359,49072580459252,35,22.8,775.9180908203125,0.9414999485015869,16,0.0,0.0,1.60481254E9,,,,0,,3,0.0,1.60481254E9,351.0,NaN,NaN
Raw,232330905662703,649135386000000,,,-1265581155268105050,-0.22853612899780273,1001.033466309309,61.70524761094292,6.9923184497675415,91,4,0.0,49359,49072589825239,8,36.6,187.63522338867188,0.24400000274181366,21,20.71871774548211,-6.889598792343851E18,1.60537498E9,,,,0,,3,0.0,1.60537498E9,351.0,NaN,NaN
Raw,232330905662703,649135386000000,,,-1265581155268105050,-0.22853612899780273,1001.033466309309,61.70524761094292,6.9923184497675415,91,1,0.0,23567,383890570001032,9,35.6,394.1369323730469,0.06750000268220901,21,48.407291343862866,0.004528989424958011,1.57542003E9,,,,0,,6,0.0,1.57542003E9,351.0,NaN,NaN
Raw,232330905662703,649135386000000,,,-1265581155268105050,-0.22853612899780273,1001.033466309309,61.70524761094292,6.9923184497675415,91,4,0.0,23567,383890568104623,7,37.3,510.7438049316406,0.057500001043081284,21,61.8155384279969,0.004528989424958011,1.57542003E9,,,,0,,6,0.0,1.57542003E9,351.0,NaN,NaN
Raw,232330905662703,649135386000000,,,-1265581155268105050,-0.22853612899780273,1001.033466309309,61.70524761094292,6.9923184497675415,91,5,0.0,23567,383890568649262,8,36.2,-413.2953796386719,0.060499999672174454,21,-50.013180185104986,0.007212130206821385,1.57542003E9,,,,0,,6,0.0,1.57542003E9,351.0,NaN,NaN
Raw,232330905662703,649135386000000,,,-1265581155268105050,-0.22853612899780273,1001.033466309309,61.70524761094292,6.9923184497675415,91,9,0.0,23567,383890582427208,11,33.8,60.12047576904297,0.07620000094175339,21,7.484305607684614,0.0025499350854412276,1.57542003E9,,,,0,,6,0.0,1.57542003E9,351.0,NaN,NaN
Raw,232330905662703,649135386000000,,,-1265581155268105050,-0.22853612899780273,1001.033466309309,61.70524761094292,6.9923184497675415,91,31,0.0,23567,383890575215407,9,35.9,-144.90667724609375,0.0689999982714653,21,-18.05090838711376,0.0028924638165555576,1.57542003E9,,,,0,,6,0.0,1.57542003E9,351.0,NaN,NaN
Fix,gps,51.524698,-0.134373,76.797913,0.000000,3.790092,1582195074000,232331906385876
Raw,232331919587023,649136377000000,,,-1265581155267412451,-0.4758586883544922,1001.258846372366,65.27152577024233,8.788663133495458,92,5,0.0,16399,383891563964200,14,30.1,739.1531372070312,0.06799999624490738,21,76.85500253768998,0.19029366893311156,1.57542003E9,,,,0,,1,0.0,1.57542003E9,351.0,NaN,NaN
Raw,232331919587023,649136377000000,,,-1265581155267412451,-0.4758586883544922,1001.258846372366,65.27152577024233,8.788663133495458,92,13,0.0,16399,383891576611382,5,40.6,217.6046600341797,0.04390000179409981,21,25.47528218540865,0.0010085564157135064,1.57542003E9,,,,0,,1,0.0,1.57542003E9,351.0,NaN,NaN
Raw,232331919587023,649136377000000,,,-1265581155267412451,-0.4758586883544922,1001.258846372366,65.27152577024233,8.788663133495458,92,15,0.0,16399,383891576631543,11,33.1,-120.10555267333984,0.06720000505447388,21,-14.122605651097688,7.42145288706399E-4,1.57542003E9,,,,0,,1,0.0,1.57542003E9,351.0,NaN,NaN
Raw,232331919587023,649136377000000,,,-1265581155267412451,-0.4758586883544922,1001.258846372366,65.27152577024233,8.788663133495458,92,17,0.0,16399,383891561540851,12,32.1,-529.2653198242188,0.07999999821186066,21,-64.6281330659916,0.19029366893311156,1.57542003E9,,,,0,,1,0.0,1.57542003E9,351.0,NaN,NaN
Raw,232331919587023,649136377000000,,,-1265581155267412451,-0.4758586883544922,1001.258846372366,65.27152577024233,8.788663133495458,92,24,0.0,16399,383891568403735,27,24.8,-580.2815551757812,0.6134999990463257,16,0.0,0.0,1.57542003E9,,,,0,,1,0.0,1.57542003E9,351.0,NaN,NaN
Raw,232331919587023,649136377000000,,,-1265581155267412451,-0.4758586883544922,1001.258846372366,65.27152577024233,8.788663133495458,92,28,0.0,16399,383891572976778,9,35.5,179.70680236816406,0.05250000208616257,21,20.295194108619977,0.001160791358090767,1.57542003E9,,,,0,,1,0.0,1.57542003E9,351.0,NaN,NaN
Raw,232331919587023,649136377000000,,,-1265581155267412451,-0.4758586883544922,1001.258846372366,65.27152577024233,8.788663133495458,92,14,0.0,49359,49073580520947,9,35.6,-45.64017868041992,0.2645000219345093,21,-5.5523602215114725,-6.9211246400369992E18,1.59806246E9,,,,0,,3,0.0,1.59806246E9,351.0,NaN,NaN
Raw,232331919587023,649136377000000,,,-1265581155267412451,-0.4758586883544922,1001.258846372366,65.27152577024233,8.788663133495458,92,22,0.0,49359,49073566754983,17,28.2,-184.95016479492188,0.30640000104904175,21,-19.81382946427926,-6.9113937779659387E18,1.60031245E9,,,,0,,3,0.0,1.60031245E9,351.0,NaN,NaN
Raw,232331919587023,649136377000000,,,-1265581155267412451,-0.4758586883544922,1001.258846372366,65.27152577024233,8.788663133495458,92,15,0.0,49359,49073571927188,24,25.5,-659.1622924804688,1.377000093460083,21,-73.86920279243401,-6.9041132933262418E18,1.602E9,,,,0,,3,0.0,1.602E9,351.0,NaN,NaN
Raw,232331919587023,649136377000000,,,-1265581155267412451,-0.4758586883544922,1001.258846372366,65.27152577024233,8.788663133495458,92,5,0.0,49359,49073574911974,5,41.6,-564.559814453125,0.23890000581741333,21,-64.86955996559584,-6.9016896887374172E18,1.60256256E9,,,,0,,3,0.0,1.60256256E9,351.0,NaN,NaN
Raw,232331919587023,649136377000000,,,-1265581155267412451,-0.4758586883544922,1001.258846372366,65.27152577024233,8.788663133495458,92,3,0.0,49359,49073570764205,14,30.5,775.0325317382812,0.2785000205039978,19,86.04443456525122,-6.8920133614737244E18,1.60481254E9,,,,0,,3,0.0,1.60481254E9,351.0,NaN,NaN
Raw,232331919587023,649136377000000,,,-1265581155267412451,-0.4758586883544922,1001.258846372366,65.27152577024233,8.788663133495458,92,4,0.0,49359,49073580132091,9,35.9,186.28160095214844,0.2645000219345093,21,22.637781618543407,-6.889598792343851E18,1.60537498E9,,,,0,,3,0.0,1.60537498E9,351.0,NaN,NaN
Raw,232331919587023,649136377000000,,,-1265581155267412451,-0.4758586883544922,1001.258846372366,65.27152577024233,8.788663133495458,92,1,0.0,23567,383891560307258,10,34.4,392.70452880859375,0.06859999895095825,21,47.55830373006138,0.004528989424958011,1.57542003E9,,,,0,,6,0.0,1.57542003E9,351.0,NaN,NaN
Raw,232331919587023,649136377000000,,,-1265581155267412451,-0.4758586883544922,1001.258846372366,65.27152577024233,8.788663133495458,92,4,0.0,23567,383891558410467,10,34.8,509.3328857421875,0.07159999758005142,21,62.59532405452016,0.004528989424958011,1.57542003E9,,,,0,,6,0.0,1.57542003E9,351.0,NaN,NaN
Raw,232331919587023,649136377000000,,,-1265581155267412451,-0.4758586883544922,1001.258846372366,65.27152577024233,8.788663133495458,92,5,0.0,23567,383891558958139,9,35.2,-414.7419738769531,0.061500001698732376,21,-49.33058628923276,0.007212130206821385,1.57542003E9,,,,0,,6,0.0,1.57542003E9,351.0,NaN,NaN
Raw,232331919587023,649136377000000,,,-1265581155267412451,-0.4758586883544922,1001.258846372366,65.27152577024233,8.788663133495458,92,9,0.0,23567,383891572734520,9,35.5,58.67499923706055,0.06450000405311584,21,7.020603257515032,0.0025499350854412276,1.57542003E9,,,,0,,6,0.0,1.57542003E9,351.0,NaN,NaN
Raw,232331919587023,649136377000000,,,-1265581155267412451,-0.4758586883544922,1001.258846372366,65.27152577024233,8.788663133495458,92,31,0.0,23567,383891565523392,13,31.7,-146.25672912597656,0.08659999817609787,21,-17.824252297281458,0.0028924638165555576,1.57542003E9,,,,0,,6,0.0,1.57542003E9,351.0,NaN,NaN
Fix,gps,51.524698,-0.134372,76.917236,0.000000,3.790092,1582195075000,232332905017590
Raw,232332926841759,649137373000000,,,-1265581155266539632,0.9610958099365234,1001.6534943133593,60.30397913180163,11.738015711366964,93,5,0.0,16399,383892559088988,13,31.5,740.7449951171875,0.0835999995470047,21,88.81213082078521,0.19029366893311156,1.57542003E9,,,,0,,1,0.0,1.57542003E9,351.0,NaN,NaN
Raw,232332926841759,649137373000000,,,-1265581155266539632,0.9610958099365234,1001.6534943133593,60.30397913180163,11.738015711366964,93,13,0.0,16399,383892571737909,5,40.7,219.3344268798828,0.036400001496076584,21,24.637488508991897,0.0010085564157135064,1.57542003E9,,,,0,,1,0.0,1.57542003E9,351.0,NaN,NaN
Raw,232332926841759,649137373000000,,,-1265581155266539632,0.9610958099365234,1001.6534943133593,60.30397913180163,11.738015711366964,93,15,0.0,16399,383892571759123,9,35.5,-118.33587646484375,0.050999999046325684,21,-13.275132019051531,7.42145288706399E-4,1.57542003E9,,,,0,,1,0.0,1.57542003E9,351.0,NaN,NaN
Raw,232332926841759,649137373000000,,,-1265581155266539632,0.9610958099365234,1001.6534943133593,60.30397913180163,11.738015711366964,93,17,0.0,16399,383892556669860,11,33.9,-527.6622314453125,0.06720000505447388,21,-61.7113263952514,0.19029366893311156,1.57542003E9,,,,0,,1,0.0,1.57542003E9,351.0,NaN,NaN
Raw,232332926841759,649137373000000,,,-1265581155266539632,0.9610958099365234,1001.6534943133593,60.30397913180163,11.738015711366964,93,24,0.0,16399,383892563532833,17,28.8,-578.4188232421875,0.13189999759197235,19,-71.68445785419678,0.0,1.57542003E9,,,,0,,1,0.0,1.57542003E9,351.0,NaN,NaN
Raw,232332926841759,649137373000000,,,-1265581155266539632,0.9610958099365234,1001.6534943133593,60.30397913180163,11.738015711366964,93,28,0.0,16399,383892568103431,10,34.7,181.47596740722656,0.050599999725818634,21,19.68287473609718,0.001160791358090767,1.57542003E9,,,,0,,1,0.0,1.57542003E9,351.0,NaN,NaN
Raw,232332926841759,649137373000000,,,-1265581155266539632,0.9610958099365234,1001.6534943133593,60.30397913180163,11.738015711366964,93,30,0.0,16399,383892561988267,13,31.3,602.7142944335938,0.08659999817609787,19,73.46866861148793,0.0,1.57542003E9,,,,0,,1,0.0,1.57542003E9,351.0,NaN,NaN
Raw,232332926841759,649137373000000,,,-1265581155266539632,0.9610958099365234,1001.6534943133593,60.30397913180163,11.738015711366964,93,14,0.0,49359,49074575648334,8,36.8,-43.967491149902344,0.2529999911785126,21,-5.176775867424648,-6.9211246400369992E18,1.59806246E9,,,,0,,3,0.0,1.59806246E9,351.0,NaN,NaN
Raw,232332926841759,649137373000000,,,-1265581155266539632,0.9610958099365234,1001.6534943133593,60.30397913180163,11.738015711366964,93,22,0.0,49359,49074561882980,21,26.6,-183.18621826171875,0.482200026512146,21,-22.369170584464342,-6.9113937779659387E18,1.60031245E9,,,,0,,3,0.0,1.60031245E9,351.0,NaN,NaN
Raw,232332926841759,649137373000000,,,-1265581155266539632,0.9610958099365234,1001.6534943133593,60.30397913180163,11.738015711366964,93,15,0.0,49359,49074567056805,24,25.9,-657.4442138671875,1.371000051498413,21,-70.97358977206937,-6.9041132933262418E18,1.602E9,,,,0,,3,0.0,1.602E9,351.0,NaN,NaN
Raw,232332926841759,649137373000000,,,-1265581155266539632,0.9610958099365234,1001.6534943133593,60.30397913180163,11.738015711366964,93,5,0.0,49359,49074570041135,5,41.8,-562.7620849609375,0.232900008559227,21,-62.400213369195,-6.9016896887374172E18,1.60256256E9,,,,0,,3,0.0,1.60256256E9,351.0,NaN,NaN
Raw,232332926841759,649137373000000,,,-1265581155266539632,0.9610958099365234,1001.6534943133593,60.30397913180163,11.738015711366964,93,3,0.0,49359,49074565888876,14,30.8,776.7527465820312,0.2709999978542328,21,82.41033305560724,-6.8920133614737244E18,1.60481254E9,,,,0,,3,0.0,1.60481254E9,351.0,NaN,NaN
Raw,232332926841759,649137373000000,,,-1265581155266539632,0.9610958099365234,1001.6534943133593,60.30397913180163,11.738015711366964,93,4,0.0,49359,49074575258753,6,38.1,188.05015563964844,0.24740000069141388,21,21.741944892920714,-6.889598792343851E18,1.60537498E9,,,,0,,3,0.0,1.60537498E9,351.0,NaN,NaN
Raw,232332926841759,649137373000000,,,-1265581155266539632,0.9610958099365234,1001.6534943133593,60.30397913180163,11.738015711366964,93,1,0.0,23567,383892555433215,10,34.1,394.341064453125,0.0731000006198883,21,48.80672773189815,0.004528989424958011,1.57542003E9,,,,0,,6,0.0,1.57542003E9,351.0,NaN,NaN
Raw,232332926841759,649137373000000,,,-1265581155266539632,0.9610958099365234,1001.6534943133593,60.30397913180163,11.738015711366964,93,4,0.0,23567,383892553536024,10,34.4,510.9779968261719,0.07010000199079514,21,62.238361546729884,0.004528989424958011,1.57542003E9,,,,0,,6,0.0,1.57542003E9,351.0,NaN,NaN
Raw,232332926841759,649137373000000,,,-1265581155266539632,0.9610958099365234,1001.6534943133593,60.30397913180163,11.738015711366964,93,5,0.0,23567,383892554086780,9,35.9,-413.13958740234375,0.06750000268220901,21,-50.81784284117818,0.007212130206821385,1.57542003E9,,,,0,,6,0.0,1.57542003E9,351.0,NaN,NaN
Raw,232332926841759,649137373000000,,,-1265581155266539632,0.9610958099365234,1001.6534943133593,60.30397913180163,11.738015711366964,93,9,0.0,23567,383892567861588,10,34.8,60.34059143066406,0.0731000006198883,21,7.394909453932811,0.0025499350854412276,1.57542003E9,,,,0,,6,0.0,1.57542003E9,351.0,NaN,NaN
Raw,232332926841759,649137373000000,,,-1265581155266539632,0.9610958099365234,1001.6534943133593,60.30397913180163,11.738015711366964,93,31,0.0,23567,383892560651147,10,34.1,-144.59226989746094,0.06859999895095825,21,-17.582155317587567,0.0028924638165555576,1.57542003E9,,,,0,,6,0.0,1.57542003E9,351.0,NaN,NaN
Fix,gps,51.524699,-0.134371,77.227234,0.000000,3.790092,1582195076000,232333898214460
Raw,232333909260971,649138385000000,,,-1265581155266103456,-0.541895866394043,1001.0231053456664,65.4382925484889,6.891659219789635,94,5,0.0,16399,383893570650357,14,30.9,741.2337036132812,0.07850000262260437,21,82.20872621936583,0.19029366893311156,1.57542003E9,,,,0,,1,0.0,1.57542003E9,351.0,NaN,NaN
Raw,232333909260971,649138385000000,,,-1265581155266103456,-0.541895866394043,1001.0231053456664,65.4382925484889,6.891659219789635,94,13,0.0,16399,383893583301060,6,38.7,219.83303833007812,0.05939999967813492,21,27.308228183271112,0.0010085564157135064,1.57542003E9,,,,0,,1,0.0,1.57542003E9,351.0,NaN,NaN
Raw,232333909260971,649138385000000,,,-1265581155266103456,-0.541895866394043,1001.0231053456664,65.4382925484889,6.891659219789635,94,15,0.0,16399,383893583323444,9,35.4,-117.78874206542969,0.0689999982714653,21,-14.63902541764406,7.42145288706399E-4,1.57542003E9,,,,0,,1,0.0,1.57542003E9,351.0,NaN,NaN
Raw,232333909260971,649138385000000,,,-1265581155266103456,-0.541895866394043,1001.0231053456664,65.4382925484889,6.891659219789635,94,17,0.0,16399,383893568235511,11,33.3,-527.1119995117188,0.0552000030875206,21,-57.41162510629179,0.19029366893311156,1.57542003E9,,,,0,,1,0.0,1.57542003E9,351.0,NaN,NaN
Raw,232333909260971,649138385000000,,,-1265581155266103456,-0.541895866394043,1001.0231053456664,65.4382925484889,6.891659219789635,94,20,0.0,16399,383893574211644,31,23.8,-362.5855712890625,0.67249995470047,16,0.0,0.0,1.57542003E9,,,,0,,1,0.0,1.57542003E9,351.0,NaN,NaN
Raw,232333909260971,649138385000000,,,-1265581155266103456,-0.541895866394043,1001.0231053456664,65.4382925484889,6.891659219789635,94,24,0.0,16399,383893575098713,24,25.5,-577.8038940429688,1.183000087738037,21,-66.9856660746218,0.0,1.57542003E9,,,,0,,1,0.0,1.57542003E9,351.0,NaN,NaN
Raw,232333909260971,649138385000000,,,-1265581155266103456,-0.541895866394043,1001.0231053456664,65.4382925484889,6.891659219789635,94,28,0.0,16399,383893579666680,7,37.8,181.95098876953125,0.0560000017285347,21,21.760975439586467,0.001160791358090767,1.57542003E9,,,,0,,1,0.0,1.57542003E9,351.0,NaN,NaN
Raw,232333909260971,649138385000000,,,-1265581155266103456,-0.541895866394043,1001.0231053456664,65.4382925484889,6.891659219789635,94,30,0.0,16399,383893573550097,14,30.1,603.1216430664062,0.08299999684095383,21,68.67608382470378,0.0,1.57542003E9,,,,0,,1,0.0,1.57542003E9,351.0,NaN,NaN
Raw,232333909260971,649138385000000,,,-1265581155266103456,-0.541895866394043,1001.0231053456664,65.4382925484889,6.891659219789635,94,14,0.0,49359,49075587212362,7,37.1,-43.38888931274414,0.23800000548362732,21,-4.715785260657603,-6.9211246400369992E18,1.59806246E9,,,,0,,3,0.0,1.59806246E9,351.0,NaN,NaN
Raw,232333909260971,649138385000000,,,-1265581155266103456,-0.541895866394043,1001.0231053456664,65.4382925484889,6.891659219789635,94,22,0.0,49359,49075573447471,31,23.8,-182.8189697265625,0.8709999918937683,16,0.0,0.0,1.60031245E9,,,,0,,3,0.0,1.60031245E9,351.0,NaN,NaN
Raw,232333909260971,649138385000000,,,-1265581155266103456,-0.541895866394043,1001.0231053456664,65.4382925484889,6.891659219789635,94,15,0.0,49359,49075578622946,16,29.1,-656.84326171875,0.30140000581741333,21,-78.23162728932891,-6.9041132933262418E18,1.602E9,,,,0,,3,0.0,1.602E9,351.0,NaN,NaN
Raw,232333909260971,649138385000000,,,-1265581155266103456,-0.541895866394043,1001.0231053456664,65.4382925484889,6.891659219789635,94,5,0.0,49359,49075581606921,5,41.5,-562.28466796875,0.24940000474452972,21,-68.56941589923684,-6.9016896887374172E18,1.60256256E9,,,,0,,3,0.0,1.60256256E9,351.0,NaN,NaN
Raw,232333909260971,649138385000000,,,-1265581155266103456,-0.541895866394043,1001.0231053456664,65.4382925484889,6.891659219789635,94,3,0.0,49359,49075577450135,13,31.0,777.2430419921875,0.28060001134872437,21,91.68464513773631,-6.8920133614737244E18,1.60481254E9,,,,0,,3,0.0,1.60481254E9,351.0,NaN,NaN
Raw,232333909260971,649138385000000,,,-1265581155266103456,-0.541895866394043,1001.0231053456664,65.4382925484889,6.891659219789635,94,4,0.0,49359,49075586821998,6,38.0,188.66197204589844,0.2339000105857849,21,20.185367603466002,-6.889598792343851E18,1.60537498E9,,,,0,,3,0.0,1.60537498E9,351.0,NaN,NaN
Raw,232333909260971,649138385000000,,,-1265581155266103456,-0.541895866394043,1001.0231053456664,65.4382925484889,6.891659219789635,94,1,0.0,23567,383893566995780,12,32.8,394.90948486328125,0.08150000125169754,21,48.598974409777554,0.004528989424958011,1.57542003E9,,,,0,,6,0.0,1.57542003E9,351.0,NaN,NaN
Raw,232333909260971,649138385000000,,,-1265581155266103456,-0.541895866394043,1001.0231053456664,65.4382925484889,6.891659219789635,94,4,0.0,23567,383893565098178,9,35.1,511.417724609375,0.07200000435113907,21,64.49045064869728,0.004528989424958011,1.57542003E9,,,,0,,6,0.0,1.57542003E9,351.0,NaN,NaN
Raw,232333909260971,649138385000000,,,-1265581155266103456,-0.541895866394043,1001.0231053456664,65.4382925484889,6.891659219789635,94,5,0.0,23567,383893565652034,8,36.2,-412.6648254394531,0.06199999898672104,21,-50.29078300866658,0.007212130206821385,1.57542003E9,,,,0,,6,0.0,1.57542003E9,351.0,NaN,NaN
Raw,232333909260971,649138385000000,,,-1265581155266103456,-0.541895866394043,1001.0231053456664,65.4382925484889,6.891659219789635,94,9,0.0,23567,383893579425254,8,36.7,60.89656448364258,0.06499999761581421,21,7.516454377353829,0.0025499350854412276,1.57542003E9,,,,0,,6,0.0,1.57542003E9,351.0,NaN,NaN
Raw,232333909260971,649138385000000,,,-1265581155266103456,-0.541895866394043,1001.0231053456664,65.4382925484889,6.891659219789635,94,31,0.0,23567,383893572215495,9,35.3,-144.06060791015625,0.07050000131130219,21,-18.023766509819566,0.0028924638165555576,1.57542003E9,,,,0,,6,0.0,1.57542003E9,351.0,NaN,NaN
Fix,gps,51.524700,-0.134371,77.171631,0.000000,3.790092,1582195077000,232334900549664
Raw,232334914196019,649139384000000,,,-1265581155265641187,0.6136531829833984,1001.1383565142751,67.07054179537938,7.81712035993951,95,5,0.0,16399,383894569185726,14,30.9,741.8112182617188,0.07699999958276749,21,81.5141830739044,0.19029366893311156,1.57542003E9,,,,0,,1,0.0,1.57542003E9,351.0,NaN,NaN
Raw,232334914196019,649139384000000,,,-1265581155265641187,0.6136531829833984,1001.1383565142751,67.07054179537938,7.81712035993951,95,13,0.0,16399,383894581838095,6,38.9,220.53802490234375,0.05640000104904175,21,26.969991683440703,0.0010085564157135064,1.57542003E9,,,,0,,1,0.0,1.57542003E9,351.0,NaN,NaN
Raw,232334914196019,649139384000000,,,-1265581155265641187,0.6136531829833984,1001.1383565142751,67.07054179537938,7.81712035993951,95,15,0.0,16399,383894581861594,8,36.5,-117.0881118774414,0.06199999898672104,21,-14.366253906313847,7.42145288706399E-4,1.57542003E9,,,,0,,1,0.0,1.57542003E9,351.0,NaN,NaN
Raw,232334914196019,649139384000000,,,-1265581155265641187,0.6136531829833984,1001.1383565142751,67.07054179537938,7.81712035993951,95,17,0.0,16399,383894566775058,12,32.6,-526.47802734375,0.08749999850988388,21,-66.85278992556938,0.19029366893311156,1.57542003E9,,,,0,,1,0.0,1.57542003E9,351.0,NaN,NaN
Raw,232334914196019,649139384000000,,,-1265581155265641187,0.6136531829833984,1001.1383565142751,67.07054179537938,7.81712035993951,95,20,0.0,16399,383894572750660,24,25.9,-361.5588684082031,1.1785000562667847,19,-40.894457456292535,0.19029366893311156,1.57542003E9,,,,0,,1,0.0,1.57542003E9,351.0,NaN,NaN
Raw,232334914196019,649139384000000,,,-1265581155265641187,0.6136531829833984,1001.1383565142751,67.07054179537938,7.81712035993951,95,24,0.0,16399,383894573638339,27,24.7,-577.3034057617188,0.6710000038146973,16,0.0,0.0,1.57542003E9,,,,0,,1,0.0,1.57542003E9,351.0,NaN,NaN
Raw,232334914196019,649139384000000,,,-1265581155265641187,0.6136531829833984,1001.1383565142751,67.07054179537938,7.81712035993951,95,28,0.0,16399,383894578203849,8,36.9,182.6672821044922,0.057500001043081284,21,21.662838570549845,0.001160791358090767,1.57542003E9,,,,0,,1,0.0,1.57542003E9,351.0,NaN,NaN
Raw,232334914196019,649139384000000,,,-1265581155265641187,0.6136531829833984,1001.1383565142751,67.07054179537938,7.81712035993951,95,30,0.0,16399,383894572085819,12,32.3,603.8291015625,0.06650000065565109,21,68.21926040512284,0.0,1.57542003E9,,,,0,,1,0.0,1.57542003E9,351.0,NaN,NaN
Raw,232334914196019,649139384000000,,,-1265581155265641187,0.6136531829833984,1001.1383565142751,67.07054179537938,7.81712035993951,95,14,0.0,49359,49076585750289,7,37.8,-42.69145584106445,0.26500001549720764,21,-5.437099733251163,-6.9211246400369992E18,1.59806246E9,,,,0,,3,0.0,1.59806246E9,351.0,NaN,NaN
Raw,232334914196019,649139384000000,,,-1265581155265641187,0.6136531829833984,1001.1383565142751,67.07054179537938,7.81712035993951,95,22,0.0,49359,49076571985960,24,25.0,-181.76217651367188,1.377000093460083,19,-20.320051519244615,-6.9113937779659387E18,1.60031245E9,,,,0,,3,0.0,1.60031245E9,351.0,NaN,NaN
Raw,232334914196019,649139384000000,,,-1265581155265641187,0.6136531829833984,1001.1383565142751,67.07054179537938,7.81712035993951,95,15,0.0,49359,49076577162799,19,27.2,-656.2727661132812,0.38920000195503235,21,-77.40200991280496,-6.9041132933262418E18,1.602E9,,,,0,,3,0.0,1.602E9,351.0,NaN,NaN
Raw,232334914196019,649139384000000,,,-1265581155265641187,0.6136531829833984,1001.1383565142751,67.07054179537938,7.81712035993951,95,5,0.0,49359,49076580146590,5,41.5,-561.563232421875,0.24790000915527344,21,-67.93859543825248,-6.9016896887374172E18,1.60256256E9,,,,0,,3,0.0,1.60256256E9,351.0,NaN,NaN
Raw,232334914196019,649139384000000,,,-1265581155265641187,0.6136531829833984,1001.1383565142751,67.07054179537938,7.81712035993951,95,3,0.0,49359,49076575985329,17,28.7,777.8646240234375,0.3199000060558319,21,90.31627420359433,-6.8920133614737244E18,1.60481254E9,,,,0,,3,0.0,1.60481254E9,351.0,NaN,NaN
Raw,232334914196019,649139384000000,,,-1265581155265641187,0.6136531829833984,1001.1383565142751,67.07054179537938,7.81712035993951,95,4,0.0,49359,49076585359115,7,37.3,189.37493896484375,0.26500001549720764,21,23.91625532007527,-6.889598792343851E18,1.60537498E9,,,,0,,3,0.0,1.60537498E9,351.0,NaN,NaN
Raw,232334914196019,649139384000000,,,-1265581155265641187,0.6136531829833984,1001.1383565142751,67.07054179537938,7.81712035993951,95,1,0.0,23567,383894565532223,9,35.1,395.6017761230469,0.07200000435113907,21,49.87022836724155,0.004528989424958011,1.57542003E9,,,,0,,6,0.0,1.57542003E9,351.0,NaN,NaN
Raw,232334914196019,649139384000000,,,-1265581155265641187,0.6136531829833984,1001.1383565142751,67.07054179537938,7.81712035993951,95,4,0.0,23567,383894563634232,8,36.2,512.1128540039062,0.07100000232458115,21,65.5798525764647,0.004528989424958011,1.57542003E9,,,,0,,6,0.0,1.57542003E9,351.0,NaN,NaN
Raw,232334914196019,649139384000000,,,-1265581155265641187,0.6136531829833984,1001.1383565142751,67.07054179537938,7.81712035993951,95,5,0.0,23567,383894564191180,7,37.4,-411.9974060058594,0.06949999928474426,21,-53.07289729668253,0.007212130206821385,1.57542003E9,,,,0,,6,0.0,1.57542003E9,351.0,NaN,NaN
Raw,232334914196019,649139384000000,,,-1265581155265641187,0.6136531829833984,1001.1383565142751,67.07054179537938,7.81712035993951,95,9,0.0,23567,383894577962830,7,37.7,61.555564880371094,0.0650000050663948,21,7.680837861431873,0.0025499350854412276,1.57542003E9,,,,0,,6,0.0,1.57542003E9,351.0,NaN,NaN
Raw,232334914196019,649139384000000,,,-1265581155265641187,0.6136531829833984,1001.1383565142751,67.07054179537938,7.81712035993951,95,31,0.0,23567,383894570753767,8,36.0,-143.41140747070312,0.06949999928474426,21,-18.204842901755004,0.0028924638165555576,1.57542003E9,,,,0,,6,0.0,1.57542003E9,351.0,NaN,NaN
Fix,gps,51.524701,-0.134370,77.369202,0.000000,3.790092,1582195078000,232335900333878
Raw,232335908288254,649140377000000,,,-1265581155265431388,-0.5569572448730469,1001.223805360496,69.15244166231322,8.815442555725241,96,5,0.0,16399,383895561973445,14,30.8,741.6713256835938,0.0949999988079071,21,90.42241143409552,0.19029366893311156,1.57542003E9,,,,0,,1,0.0,1.57542003E9,351.0,NaN,NaN
Raw,232335908288254,649140377000000,,,-1265581155265431388,-0.5569572448730469,1001.223805360496,69.15244166231322,8.815442555725241,96,13,0.0,16399,383895574627635,6,38.2,220.31903076171875,0.045900002121925354,21,25.250866625243862,0.0010085564157135064,1.57542003E9,,,,0,,1,0.0,1.57542003E9,351.0,NaN,NaN
Raw,232335908288254,649140377000000,,,-1265581155265431388,-0.5569572448730469,1001.223805360496,69.15244166231322,8.815442555725241,96,15,0.0,16399,383895574652203,8,36.9,-117.31411743164062,0.051500000059604645,21,-13.485371501562549,7.42145288706399E-4,1.57542003E9,,,,0,,1,0.0,1.57542003E9,351.0,NaN,NaN
Raw,232335908288254,649140377000000,,,-1265581155265431388,-0.5569572448730469,1001.223805360496,69.15244166231322,8.815442555725241,96,17,0.0,16399,383895559567032,12,32.4,-526.836669921875,0.07699999958276749,21,-63.15172310218552,0.19029366893311156,1.57542003E9,,,,0,,1,0.0,1.57542003E9,351.0,NaN,NaN
Raw,232335908288254,649140377000000,,,-1265581155265431388,-0.5569572448730469,1001.223805360496,69.15244166231322,8.815442555725241,96,20,0.0,16399,383895565542059,19,27.8,-362.4310302734375,0.20120000839233398,21,-45.60728258092906,0.19029366893311156,1.57542003E9,,,,0,,1,0.0,1.57542003E9,351.0,NaN,NaN
Raw,232335908288254,649140377000000,,,-1265581155265431388,-0.5569572448730469,1001.223805360496,69.15244166231322,8.815442555725241,96,24,0.0,16399,383895566430600,19,27.3,-577.4972534179688,0.20270000398159027,19,-73.31413775953197,0.0,1.57542003E9,,,,0,,1,0.0,1.57542003E9,351.0,NaN,NaN
Raw,232335908288254,649140377000000,,,-1265581155265431388,-0.5569572448730469,1001.223805360496,69.15244166231322,8.815442555725241,96,28,0.0,16399,383895570993501,9,35.9,182.4232177734375,0.0494999997317791,21,20.310112522788,0.001160791358090767,1.57542003E9,,,,0,,1,0.0,1.57542003E9,351.0,NaN,NaN
Raw,232335908288254,649140377000000,,,-1265581155265431388,-0.5569572448730469,1001.223805360496,69.15244166231322,8.815442555725241,96,30,0.0,16399,383895564874082,13,31.2,603.4974975585938,0.09109999984502792,21,75.40171761303937,0.0,1.57542003E9,,,,0,,1,0.0,1.57542003E9,351.0,NaN,NaN
Raw,232335908288254,649140377000000,,,-1265581155265431388,-0.5569572448730469,1001.223805360496,69.15244166231322,8.815442555725241,96,14,0.0,49359,49077578540707,7,37.1,-42.89415740966797,0.25450000166893005,21,-5.172688247786185,-6.9211246400369992E18,1.59806246E9,,,,0,,3,0.0,1.59806246E9,351.0,NaN,NaN
Raw,232335908288254,649140377000000,,,-1265581155265431388,-0.5569572448730469,1001.223805360496,69.15244166231322,8.815442555725241,96,22,0.0,49359,49077564776981,27,24.1,-181.36712646484375,0.8375000357627869,16,0.0,0.0,1.60031245E9,,,,0,,3,0.0,1.60031245E9,351.0,NaN,NaN
Raw,232335908288254,649140377000000,,,-1265581155265431388,-0.5569572448730469,1001.223805360496,69.15244166231322,8.815442555725241,96,15,0.0,49359,49077569955332,21,26.7,-656.4918823242188,0.4642000198364258,21,-72.32719239938226,-6.9041132933262418E18,1.602E9,,,,0,,3,0.0,1.602E9,351.0,NaN,NaN
Raw,232335908288254,649140377000000,,,-1265581155265431388,-0.5569572448730469,1001.223805360496,69.15244166231322,8.815442555725241,96,5,0.0,49359,49077572938654,4,42.6,-561.8584594726562,0.23420000076293945,21,-63.44596843656562,-6.9016896887374172E18,1.60256256E9,,,,0,,3,0.0,1.60256256E9,351.0,NaN,NaN
Raw,232335908288254,649140377000000,,,-1265581155265431388,-0.5569572448730469,1001.223805360496,69.15244166231322,8.815442555725241,96,3,0.0,49359,49077568773038,27,24.5,778.22509765625,0.8134999871253967,16,0.0,0.0,1.60481254E9,,,,0,,3,0.0,1.60481254E9,351.0,NaN,NaN
Raw,232335908288254,649140377000000,,,-1265581155265431388,-0.5569572448730469,1001.223805360496,69.15244166231322,8.815442555725241,96,4,0.0,49359,49077578148777,7,37.0,189.2105255126953,0.25450000166893005,21,22.578522945364103,-6.889598792343851E18,1.60537498E9,,,,0,,3,0.0,1.60537498E9,351.0,NaN,NaN
Raw,232335908288254,649140377000000,,,-1265581155265431388,-0.5569572448730469,1001.223805360496,69.15244166231322,8.815442555725241,96,1,0.0,23567,383895558321165,9,35.1,395.2511901855469,0.07349999994039536,21,50.16173677522272,0.004528989424958011,1.57542003E9,,,,0,,6,0.0,1.57542003E9,351.0,NaN,NaN
Raw,232335908288254,649140377000000,,,-1265581155265431388,-0.5569572448730469,1001.223805360496,69.15244166231322,8.815442555725241,96,4,0.0,23567,383895556422810,8,36.8,511.7514343261719,0.07249999791383743,21,66.05470113525645,0.004528989424958011,1.57542003E9,,,,0,,6,0.0,1.57542003E9,351.0,NaN,NaN
Raw,232335908288254,649140377000000,,,-1265581155265431388,-0.5569572448730469,1001.223805360496,69.15244166231322,8.815442555725241,96,5,0.0,23567,383895556982805,7,37.7,-412.31396484375,0.06350000202655792,21,-51.59995138846478,0.007212130206821385,1.57542003E9,,,,0,,6,0.0,1.57542003E9,351.0,NaN,NaN
Raw,232335908288254,649140377000000,,,-1265581155265431388,-0.5569572448730469,1001.223805360496,69.15244166231322,8.815442555725241,96,9,0.0,23567,383895570752874,7,37.4,61.226768493652344,0.06650000065565109,21,7.820204396279629,0.0025499350854412276,1.57542003E9,,,,0,,6,0.0,1.57542003E9,351.0,NaN,NaN
Raw,232335908288254,649140377000000,,,-1265581155265431388,-0.5569572448730469,1001.223805360496,69.15244166231322,8.815442555725241,96,31,0.0,23567,383895563544489,9,35.8,-143.6895294189453,0.07500000298023224,21,-18.34285306865079,0.0028924638165555576,1.57542003E9,,,,0,,6,0.0,1.57542003E9,351.0,NaN,NaN
Fix,gps,51.524701,-0.134369,77.535278,0.000000,3.790092,1582195079000,232336903642207
Raw,232336914716740,649141387000000,,,-1265581155264735677,0.5921859741210938,1001.3399878516793,68.07020085478784,8.859443739852866,97,5,0.0,16399,383896571275288,17,28.5,740.39697265625,0.11389999836683273,21,82.86823899380327,0.19029366893311156,1.57542003E9,,,,0,,1,0.0,1.57542003E9,351.0,NaN,NaN
Raw,232336914716740,649141387000000,,,-1265581155264735677,0.5921859741210938,1001.3399878516793,68.07020085478784,8.859443739852866,97,13,0.0,16399,383896583931246,7,37.9,219.25796508789062,0.06200000271201134,21,27.23643505047265,0.0010085564157135064,1.57542003E9,,,,0,,1,0.0,1.57542003E9,351.0,NaN,NaN
Raw,232336914716740,649141387000000,,,-1265581155264735677,0.5921859741210938,1001.3399878516793,68.07020085478784,8.859443739852866,97,15,0.0,16399,383896583956976,7,37.5,-118.36591339111328,0.06200000271201134,21,-14.582141625104391,7.42145288706399E-4,1.57542003E9,,,,0,,1,0.0,1.57542003E9,351.0,NaN,NaN
Raw,232336914716740,649141387000000,,,-1265581155264735677,0.5921859741210938,1001.3399878516793,68.07020085478784,8.859443739852866,97,17,0.0,16399,383896568873149,13,31.6,-527.8330078125,0.09709999710321426,21,-68.14719541800379,0.19029366893311156,1.57542003E9,,,,0,,1,0.0,1.57542003E9,351.0,NaN,NaN
Raw,232336914716740,649141387000000,,,-1265581155264735677,0.5921859741210938,1001.3399878516793,68.07020085478784,8.859443739852866,97,20,0.0,16399,383896574847536,27,24.8,-362.98516845703125,0.6225000023841858,16,0.0,0.0,1.57542003E9,,,,0,,1,0.0,1.57542003E9,351.0,NaN,NaN
Raw,232336914716740,649141387000000,,,-1265581155264735677,0.5921859741210938,1001.3399878516793,68.07020085478784,8.859443739852866,97,24,0.0,16399,383896575736847,19,27.6,-578.6473388671875,0.18620000779628754,21,-67.09967720342493,0.0,1.57542003E9,,,,0,,1,0.0,1.57542003E9,351.0,NaN,NaN
Raw,232336914716740,649141387000000,,,-1265581155264735677,0.5921859741210938,1001.3399878516793,68.07020085478784,8.859443739852866,97,28,0.0,16399,383896580297267,8,36.1,181.40292358398438,0.060499999672174454,21,22.066965443745232,0.001160791358090767,1.57542003E9,,,,0,,1,0.0,1.57542003E9,351.0,NaN,NaN
Raw,232336914716740,649141387000000,,,-1265581155264735677,0.5921859741210938,1001.3399878516793,68.07020085478784,8.859443739852866,97,30,0.0,16399,383896574176444,13,31.6,602.2728271484375,0.07609999924898148,21,69.37083893668485,0.0,1.57542003E9,,,,0,,1,0.0,1.57542003E9,351.0,NaN,NaN
Raw,232336914716740,649141387000000,,,-1265581155264735677,0.5921859741210938,1001.3399878516793,68.07020085478784,8.859443739852866,97,14,0.0,49359,49078587845213,7,37.9,-43.859554290771484,0.2680000066757202,21,-5.618553977572111,-6.9211246400369992E18,1.59806246E9,,,,0,,3,0.0,1.59806246E9,351.0,NaN,NaN
Raw,232336914716740,649141387000000,,,-1265581155264735677,0.5921859741210938,1001.3399878516793,68.07020085478784,8.859443739852866,97,22,0.0,49359,49078574081989,31,23.1,-182.9219970703125,0.872499942779541,16,0.0,0.0,1.60031245E9,,,,0,,3,0.0,1.60031245E9,351.0,NaN,NaN
Raw,232336914716740,649141387000000,,,-1265581155264735677,0.5921859741210938,1001.3399878516793,68.07020085478784,8.859443739852866,97,13,0.0,49359,49078581229821,35,22.0,646.1397094726562,0.9429999589920044,16,0.0,0.0,1.60087501E9,,,,0,,3,0.0,1.60087501E9,351.0,NaN,NaN
Raw,232336914716740,649141387000000,,,-1265581155264735677,0.5921859741210938,1001.3399878516793,68.07020085478784,8.859443739852866,97,15,0.0,49359,49078579262040,14,30.5,-657.5130615234375,0.2919999957084656,21,-78.83126833253237,-6.9041132933262418E18,1.602E9,,,,0,,3,0.0,1.602E9,351.0,NaN,NaN
Raw,232336914716740,649141387000000,,,-1265581155264735677,0.5921859741210938,1001.3399878516793,68.07020085478784,8.859443739852866,97,5,0.0,49359,49078582244878,4,42.4,-562.908203125,0.2492000013589859,21,-69.30533444941092,-6.9016896887374172E18,1.60256256E9,,,,0,,3,0.0,1.60256256E9,351.0,NaN,NaN
Raw,232336914716740,649141387000000,,,-1265581155264735677,0.5921859741210938,1001.3399878516793,68.07020085478784,8.859443739852866,97,3,0.0,49359,49078578074732,14,30.5,776.552978515625,0.2904999852180481,19,92.360079662162,-6.8920133614737244E18,1.60481254E9,,,,0,,3,0.0,1.60481254E9,351.0,NaN,NaN
Raw,232336914716740,649141387000000,,,-1265581155264735677,0.5921859741210938,1001.3399878516793,68.07020085478784,8.859443739852866,97,4,0.0,49359,49078587452454,7,37.7,188.20310974121094,0.2680000066757202,21,24.01906602458411,-6.889598792343851E18,1.60537498E9,,,,0,,3,0.0,1.60537498E9,351.0,NaN,NaN
Raw,232336914716740,649141387000000,,,-1265581155264735677,0.5921859741210938,1001.3399878516793,68.07020085478784,8.859443739852866,97,1,0.0,23567,383896567624185,9,35.0,394.0974426269531,0.07500000298023224,21,50.53576113601976,0.004528989424958011,1.57542003E9,,,,0,,6,0.0,1.57542003E9,351.0,NaN,NaN
Raw,232336914716740,649141387000000,,,-1265581155264735677,0.5921859741210938,1001.3399878516793,68.07020085478784,8.859443739852866,97,4,0.0,23567,383896565725439,8,36.0,510.6966857910156,0.06800000369548798,21,64.32426599363671,0.004528989424958011,1.57542003E9,,,,0,,6,0.0,1.57542003E9,351.0,NaN,NaN
Raw,232336914716740,649141387000000,,,-1265581155264735677,0.5921859741210938,1001.3399878516793,68.07020085478784,8.859443739852866,97,5,0.0,23567,383896566288551,8,36.6,-413.4077453613281,0.06949999928474426,21,-52.57483985581401,0.007212130206821385,1.57542003E9,,,,0,,6,0.0,1.57542003E9,351.0,NaN,NaN
Raw,232336914716740,649141387000000,,,-1265581155264735677,0.5921859741210938,1001.3399878516793,68.07020085478784,8.859443739852866,97,9,0.0,23567,383896580057010,6,38.8,60.2124137878418,0.06689999997615814,21,7.736330986642675,0.0025499350854412276,1.57542003E9,,,,0,,6,0.0,1.57542003E9,351.0,NaN,NaN
Raw,232336914716740,649141387000000,,,-1265581155264735677,0.5921859741210938,1001.3399878516793,68.07020085478784,8.859443739852866,97,31,0.0,23567,383896572849335,8,36.3,-144.70126342773438,0.07249999791383743,21,-18.602318962439846,0.0028924638165555576,1.57542003E9,,,,0,,6,0.0,1.57542003E9,351.0,NaN,NaN
Fix,gps,51.524702,-0.134368,77.662415,0.000000,3.790092,1582195080000,232337902631525
Raw,232337913393454,649142381000000,,,-1265581155263825493,0.9606771469116211,1001.4129802584648,64.25482229610311,9.91951615149266,98,5,0.0,16399,383897564362717,14,30.9,740.66552734375,0.09950000047683716,21,92.5436039510485,0.19029366893311156,1.57542003E9,,,,0,,1,0.0,1.57542003E9,351.0,NaN,NaN
Raw,232337913393454,649142381000000,,,-1265581155263825493,0.9606771469116211,1001.4129802584648,64.25482229610311,9.91951615149266,98,13,0.0,16399,383897577020390,7,37.6,219.68023681640625,0.05300000309944153,21,25.891490061355267,0.0010085564157135064,1.57542003E9,,,,0,,1,0.0,1.57542003E9,351.0,NaN,NaN
Raw,232337913393454,649142381000000,,,-1265581155263825493,0.9606771469116211,1001.4129802584648,64.25482229610311,9.91951615149266,98,15,0.0,16399,383897577047214,7,37.6,-117.91542053222656,0.05300000309944153,21,-13.933786492414745,7.42145288706399E-4,1.57542003E9,,,,0,,1,0.0,1.57542003E9,351.0,NaN,NaN
Raw,232337913393454,649142381000000,,,-1265581155263825493,0.9606771469116211,1001.4129802584648,64.25482229610311,9.91951615149266,98,17,0.0,16399,383897561964749,11,33.7,-527.540771484375,0.0747000053524971,21,-64.33410791854591,0.19029366893311156,1.57542003E9,,,,0,,1,0.0,1.57542003E9,351.0,NaN,NaN
Raw,232337913393454,649142381000000,,,-1265581155263825493,0.9606771469116211,1001.4129802584648,64.25482229610311,9.91951615149266,98,20,0.0,16399,383897567938675,24,25.9,-362.68023681640625,1.1710000038146973,19,-39.247303379515095,0.19029366893311156,1.57542003E9,,,,0,,1,0.0,1.57542003E9,351.0,NaN,NaN
Raw,232337913393454,649142381000000,,,-1265581155263825493,0.9606771469116211,1001.4129802584648,64.25482229610311,9.91951615149266,98,24,0.0,16399,383897568828668,21,26.3,-578.1326904296875,0.26269999146461487,21,-62.91716254854321,0.0,1.57542003E9,,,,0,,1,0.0,1.57542003E9,351.0,NaN,NaN
Raw,232337913393454,649142381000000,,,-1265581155263825493,0.9606771469116211,1001.4129802584648,64.25482229610311,9.91951615149266,98,28,0.0,16399,383897573386487,8,36.4,181.87045288085938,0.05000000074505806,21,20.79400069143467,0.001160791358090767,1.57542003E9,,,,0,,1,0.0,1.57542003E9,351.0,NaN,NaN
Raw,232337913393454,649142381000000,,,-1265581155263825493,0.9606771469116211,1001.4129802584648,64.25482229610311,9.91951615149266,98,30,0.0,16399,383897567264309,11,33.3,602.7620239257812,0.08370000123977661,21,77.07550833184497,0.0,1.57542003E9,,,,0,,1,0.0,1.57542003E9,351.0,NaN,NaN
Raw,232337913393454,649142381000000,,,-1265581155263825493,0.9606771469116211,1001.4129802584648,64.25482229610311,9.91951615149266,98,14,0.0,49359,49079580935174,7,37.6,-43.458858489990234,0.2574999928474426,21,-5.307917248408862,-6.9211246400369992E18,1.59806246E9,,,,0,,3,0.0,1.59806246E9,351.0,NaN,NaN
Raw,232337913393454,649142381000000,,,-1265581155263825493,0.9606771469116211,1001.4129802584648,64.25482229610311,9.91951615149266,98,22,0.0,49359,49079567172520,27,24.5,-182.42555236816406,0.8420000076293945,16,0.0,0.0,1.60031245E9,,,,0,,3,0.0,1.60031245E9,351.0,NaN,NaN
Raw,232337913393454,649142381000000,,,-1265581155263825493,0.9606771469116211,1001.4129802584648,64.25482229610311,9.91951615149266,98,13,0.0,49359,49079574317675,27,24.1,647.1228637695312,0.8224999904632568,16,0.0,0.0,1.60087501E9,,,,0,,3,0.0,1.60087501E9,351.0,NaN,NaN
Raw,232337913393454,649142381000000,,,-1265581155263825493,0.9606771469116211,1001.4129802584648,64.25482229610311,9.91951615149266,98,15,0.0,49359,49079572354057,13,31.0,-657.0708618164062,0.27310001850128174,21,-74.23225136829078,-6.9041132933262418E18,1.602E9,,,,0,,3,0.0,1.602E9,351.0,NaN,NaN
Raw,232337913393454,649142381000000,,,-1265581155263825493,0.9606771469116211,1001.4129802584648,64.25482229610311,9.91951615149266,98,5,0.0,49359,49079575336634,4,42.6,-562.4423828125,0.2387000024318695,21,-65.25809712898622,-6.9016896887374172E18,1.60256256E9,,,,0,,3,0.0,1.60256256E9,351.0,NaN,NaN
Raw,232337913393454,649142381000000,,,-1265581155263825493,0.9606771469116211,1001.4129802584648,64.25482229610311,9.91951615149266,98,4,0.0,49359,49079580541720,7,37.7,188.71322631835938,0.2574999928474426,21,22.780427931471824,-6.889598792343851E18,1.60537498E9,,,,0,,3,0.0,1.60537498E9,351.0,NaN,NaN
Raw,232337913393454,649142381000000,,,-1265581155263825493,0.9606771469116211,1001.4129802584648,64.25482229610311,9.91951615149266,98,1,0.0,23567,383897560712751,10,34.3,394.5290832519531,0.07460000365972519,21,49.39157094431066,0.004528989424958011,1.57542003E9,,,,0,,6,0.0,1.57542003E9,351.0,NaN,NaN
Raw,232337913393454,649142381000000,,,-1265581155263825493,0.9606771469116211,1001.4129802584648,64.25482229610311,9.91951615149266,98,4,0.0,23567,383897558813610,8,36.9,511.0393981933594,0.06949999928474426,21,64.84532760918971,0.004528989424958011,1.57542003E9,,,,0,,6,0.0,1.57542003E9,351.0,NaN,NaN
Raw,232337913393454,649142381000000,,,-1265581155263825493,0.9606771469116211,1001.4129802584648,64.25482229610311,9.91951615149266,98,5,0.0,23567,383897559379785,6,38.0,-413.044921875,0.06540000438690186,21,-52.80506017719257,0.007212130206821385,1.57542003E9,,,,0,,6,0.0,1.57542003E9,351.0,NaN,NaN
Raw,232337913393454,649142381000000,,,-1265581155263825493,0.9606771469116211,1001.4129802584648,64.25482229610311,9.91951615149266,98,9,0.0,23567,383897573146686,7,37.2,60.63710403442383,0.0650000050663948,21,7.604802494589357,0.0025499350854412276,1.57542003E9,,,,0,,6,0.0,1.57542003E9,351.0,NaN,NaN
Raw,232337913393454,649142381000000,,,-1265581155263825493,0.9606771469116211,1001.4129802584648,64.25482229610311,9.91951615149266,98,31,0.0,23567,383897565939681,8,36.0,-144.3096466064453,0.06800000369548798,21,-18.246965803190918,0.0028924638165555576,1.57542003E9,,,,0,,6,0.0,1.57542003E9,351.0,NaN,NaN
Fix,gps,51.524702,-0.134368,77.685364,0.000000,3.790092,1582195081000,232338910273084
Raw,232338921982981,649143395000000,,,-1265581155263092468,-0.35857629776000977,1001.515774987638,65.2152963796524,9.842782088216884,99,5,0.0,16399,383898577627313,16,29.9,740.8058471679688,0.09989999979734421,21,87.41206001830272,0.19029366893311156,1.57542003E9,,,,0,,1,0.0,1.57542003E9,351.0,NaN,NaN
Raw,232338921982981,649143395000000,,,-1265581155263092468,-0.35857629776000977,1001.515774987638,65.2152963796524,9.842782088216884,99,13,0.0,16399,383898590286713,6,38.5,219.7261199951172,0.039900001138448715,21,24.33470867244116,0.0010085564157135064,1.57542003E9,,,,0,,1,0.0,1.57542003E9,351.0,NaN,NaN
Raw,232338921982981,649143395000000,,,-1265581155263092468,-0.35857629776000977,1001.515774987638,65.2152963796524,9.842782088216884,99,15,0.0,16399,383898590314689,7,37.7,-117.85819244384766,0.042500000447034836,21,-13.048729363504075,7.42145288706399E-4,1.57542003E9,,,,0,,1,0.0,1.57542003E9,351.0,NaN,NaN
Raw,232338921982981,649143395000000,,,-1265581155263092468,-0.35857629776000977,1001.515774987638,65.2152963796524,9.842782088216884,99,17,0.0,16399,383898575233586,12,32.0,-527.5665283203125,0.07100000232458115,21,-61.18079669984956,0.19029366893311156,1.57542003E9,,,,0,,1,0.0,1.57542003E9,351.0,NaN,NaN
Raw,232338921982981,649143395000000,,,-1265581155263092468,-0.35857629776000977,1001.515774987638,65.2152963796524,9.842782088216884,99,20,0.0,16399,383898581206840,19,27.8,-362.8941650390625,0.19520001113414764,21,-44.241038586150026,0.19029366893311156,1.57542003E9,,,,0,,1,0.0,1.57542003E9,351.0,NaN,NaN
Raw,232338921982981,649143395000000,,,-1265581155263092468,-0.35857629776000977,1001.515774987638,65.2152963796524,9.842782088216884,99,24,0.0,16399,383898582097720,17,28.1,-578.169189453125,0.13040000200271606,21,-71.12629629040224,0.0,1.57542003E9,,,,0,,1,0.0,1.57542003E9,351.0,NaN,NaN
Raw,232338921982981,649143395000000,,,-1265581155263092468,-0.35857629776000977,1001.515774987638,65.2152963796524,9.842782088216884,99,28,0.0,16399,383898586652937,9,35.9,181.92015075683594,0.07349999994039536,21,23.082572534337665,0.001160791358090767,1.57542003E9,,,,0,,1,0.0,1.57542003E9,351.0,NaN,NaN
Raw,232338921982981,649143395000000,,,-1265581155263092468,-0.35857629776000977,1001.515774987638,65.2152963796524,9.842782088216884,99,30,0.0,16399,383898580529348,12,32.6,602.7550048828125,0.07850000262260437,21,72.98231288396477,0.0,1.57542003E9,,,,0,,1,0.0,1.57542003E9,351.0,NaN,NaN
Raw,232338921982981,649143395000000,,,-1265581155263092468,-0.35857629776000977,1001.515774987638,65.2152963796524,9.842782088216884,99,14,0.0,49359,49080594202438,7,37.0,-43.3092041015625,0.2485000044107437,21,-4.949657789190877,-6.9211246400369992E18,1.59806246E9,,,,0,,3,0.0,1.59806246E9,351.0,NaN,NaN
Raw,232338921982981,649143395000000,,,-1265581155263092468,-0.35857629776000977,1001.515774987638,65.2152963796524,9.842782088216884,99,5,0.0,49359,49080588605589,5,41.6,-562.4287109375,0.22990000247955322,21,-61.24920714157624,-6.9016896887374172E18,1.60256256E9,,,,0,,3,0.0,1.60256256E9,351.0,NaN,NaN
Raw,232338921982981,649143395000000,,,-1265581155263092468,-0.35857629776000977,1001.515774987638,65.2152963796524,9.842782088216884,99,3,0.0,49359,49080584426442,17,28.7,777.0264892578125,0.33340001106262207,19,97.17940193129499,-6.8920133614737244E18,1.60481254E9,,,,0,,3,0.0,1.60481254E9,351.0,NaN,NaN
Raw,232338921982981,649143395000000,,,-1265581155263092468,-0.35857629776000977,1001.515774987638,65.2152963796524,9.842782088216884,99,4,0.0,49359,49080593808113,6,39.7,188.8190460205078,0.24140000343322754,21,21.46794311889772,-6.889598792343851E18,1.60537498E9,,,,0,,3,0.0,1.60537498E9,351.0,NaN,NaN
Raw,232338921982981,649143395000000,,,-1265581155263092468,-0.35857629776000977,1001.515774987638,65.2152963796524,9.842782088216884,99,1,0.0,23567,383898573978480,10,34.5,394.59344482421875,0.07609999924898148,21,49.63078169495609,0.004528989424958011,1.57542003E9,,,,0,,6,0.0,1.57542003E9,351.0,NaN,NaN
Raw,232338921982981,649143395000000,,,-1265581155263092468,-0.35857629776000977,1001.515774987638,65.2152963796524,9.842782088216884,99,4,0.0,23567,383898572078949,9,35.7,511.0376892089844,0.07649999856948853,21,65.97935865212288,0.004528989424958011,1.57542003E9,,,,0,,6,0.0,1.57542003E9,351.0,NaN,NaN
Raw,232338921982981,649143395000000,,,-1265581155263092468,-0.35857629776000977,1001.515774987638,65.2152963796524,9.842782088216884,99,5,0.0,23567,383898572648239,7,37.7,-413.03375244140625,0.06350000202655792,21,-51.66261943518336,0.007212130206821385,1.57542003E9,,,,0,,6,0.0,1.57542003E9,351.0,NaN,NaN
Raw,232338921982981,649143395000000,,,-1265581155263092468,-0.35857629776000977,1001.515774987638,65.2152963796524,9.842782088216884,99,9,0.0,23567,383898586413546,7,37.7,60.61556625366211,0.06650000065565109,21,7.697776672229448,0.0025499350854412276,1.57542003E9,,,,0,,6,0.0,1.57542003E9,351.0,NaN,NaN
Raw,232338921982981,649143395000000,,,-1265581155263092468,-0.35857629776000977,1001.515774987638,65.2152963796524,9.842782088216884,99,31,0.0,23567,383898579207231,9,35.6,-144.30615234375,0.07500000298023224,21,-18.45648454509165,0.0028924638165555576,1.57542003E9,,,,0,,6,0.0,1.57542003E9,351.0,NaN,NaN
Fix,gps,51.524702,-0.134368,77.699402,0.000000,3.790092,1582195082000,232339903347975
Raw,232339916242716,649144387000000,,,-1265581155262756520,0.7121753692626953,1001.4412691816688,65.22651935374164,9.872620947898573,100,5,0.0,16399,383899569288914,16,29.8,740.9494018554688,0.08789999783039093,21,81.53386402007185,0.19029366893311156,1.57542003E9,,,,0,,1,0.0,1.57542003E9,351.0,NaN,NaN
Raw,232339916242716,649144387000000,,,-1265581155262756520,0.7121753692626953,1001.4412691816688,65.22651935374164,9.872620947898573,100,13,0.0,16399,383899581950085,8,36.8,219.97799682617188,0.06199999898672104,21,26.85158587891843,0.0010085564157135064,1.57542003E9,,,,0,,1,0.0,1.57542003E9,351.0,NaN,NaN
Raw,232339916242716,649144387000000,,,-1265581155262756520,0.7121753692626953,1001.4412691816688,65.22651935374164,9.872620947898573,100,15,0.0,16399,383899581979156,6,38.1,-117.54460144042969,0.05640000104904175,21,-14.351534210758004,7.42145288706399E-4,1.57542003E9,,,,0,,1,0.0,1.57542003E9,351.0,NaN,NaN
Raw,232339916242716,649144387000000,,,-1265581155262756520,0.7121753692626953,1001.4412691816688,65.22651935374164,9.872620947898573,100,17,0.0,16399,383899566899410,12,32.6,-527.3594360351562,0.08749999850988388,21,-66.95908677969999,0.19029366893311156,1.57542003E9,,,,0,,1,0.0,1.57542003E9,351.0,NaN,NaN
Raw,232339916242716,649144387000000,,,-1265581155262756520,0.7121753692626953,1001.4412691816688,65.22651935374164,9.872620947898573,100,20,0.0,16399,383899572872127,19,27.2,-362.5516662597656,0.18170000612735748,21,-41.012089800791884,0.19029366893311156,1.57542003E9,,,,0,,1,0.0,1.57542003E9,351.0,NaN,NaN
Raw,232339916242716,649144387000000,,,-1265581155262756520,0.7121753692626953,1001.4412691816688,65.22651935374164,9.872620947898573,100,24,0.0,16399,383899573763687,19,27.9,-577.9896850585938,0.18320000171661377,21,-65.83804594522309,0.0,1.57542003E9,,,,0,,1,0.0,1.57542003E9,351.0,NaN,NaN
Raw,232339916242716,649144387000000,,,-1265581155262756520,0.7121753692626953,1001.4412691816688,65.22651935374164,9.872620947898573,100,28,0.0,16399,383899578316455,10,34.4,182.22019958496094,0.06560000032186508,21,21.622180198063948,0.001160791358090767,1.57542003E9,,,,0,,1,0.0,1.57542003E9,351.0,NaN,NaN
Raw,232339916242716,649144387000000,,,-1265581155262756520,0.7121753692626953,1001.4412691816688,65.22651935374164,9.872620947898573,100,30,0.0,16399,383899572191450,12,32.5,603.0570068359375,0.06650000065565109,21,68.18257567896774,0.0,1.57542003E9,,,,0,,1,0.0,1.57542003E9,351.0,NaN,NaN
Raw,232339916242716,649144387000000,,,-1265581155262756520,0.7121753692626953,1001.4412691816688,65.22651935374164,9.872620947898573,100,14,0.0,49359,49081585866638,7,37.3,-42.99906921386719,0.26500001549720764,21,-5.5066274189969,-6.9211246400369992E18,1.59806246E9,,,,0,,3,0.0,1.59806246E9,351.0,NaN,NaN
Raw,232339916242716,649144387000000,,,-1265581155262756520,0.7121753692626953,1001.4412691816688,65.22651935374164,9.872620947898573,100,22,0.0,49359,49081572104513,24,25.5,-181.9584197998047,1.3785001039505005,19,-20.636026716481606,-6.9113937779659387E18,1.60031245E9,,,,0,,3,0.0,1.60031245E9,351.0,NaN,NaN
Raw,232339916242716,649144387000000,,,-1265581155262756520,0.7121753692626953,1001.4412691816688,65.22651935374164,9.872620947898573,100,13,0.0,49359,49081579244536,24,25.0,646.3778686523438,1.3890000581741333,19,77.6592692149557,-6.908965060130815E18,1.60087501E9,,,,0,,3,0.0,1.60087501E9,351.0,NaN,NaN
Raw,232339916242716,649144387000000,,,-1265581155262756520,0.7121753692626953,1001.4412691816688,65.22651935374164,9.872620947898573,100,15,0.0,49359,49081577289519,19,27.5,-656.6181640625,0.38920000195503235,19,-77.49808948537594,-6.9041132933262418E18,1.602E9,,,,0,,3,0.0,1.602E9,351.0,NaN,NaN
Raw,232339916242716,649144387000000,,,-1265581155262756520,0.7121753692626953,1001.4412691816688,65.22651935374164,9.872620947898573,100,5,0.0,49359,49081580271563,5,41.5,-562.0881958007812,0.24790000915527344,21,-68.0699989137176,-6.9016896887374172E18,1.60256256E9,,,,0,,3,0.0,1.60256256E9,351.0,NaN,NaN
Raw,232339916242716,649144387000000,,,-1265581155262756520,0.7121753692626953,1001.4412691816688,65.22651935374164,9.872620947898573,100,3,0.0,49359,49081576088064,14,30.5,777.3662719726562,0.2874999940395355,21,90.90954250742656,-6.8920133614737244E18,1.60481254E9,,,,0,,3,0.0,1.60481254E9,351.0,NaN,NaN
Raw,232339916242716,649144387000000,,,-1265581155262756520,0.7121753692626953,1001.4412691816688,65.22651935374164,9.872620947898573,100,4,0.0,49359,49081585471625,6,39.1,189.17950439453125,0.25940001010894775,21,23.87859350205434,-6.889598792343851E18,1.60537498E9,,,,0,,3,0.0,1.60537498E9,351.0,NaN,NaN
Raw,232339916242716,649144387000000,,,-1265581155262756520,0.7121753692626953,1001.4412691816688,65.22651935374164,9.872620947898573,100,1,0.0,23567,383899565641265,11,33.8,394.8197021484375,0.08070000261068344,21,49.763263673391485,0.004528989424958011,1.57542003E9,,,,0,,6,0.0,1.57542003E9,351.0,NaN,NaN
Raw,232339916242716,649144387000000,,,-1265581155262756520,0.7121753692626953,1001.4412691816688,65.22651935374164,9.872620947898573,100,4,0.0,23567,383899563741334,8,36.0,511.2577209472656,0.06499999761581421,21,63.3452289349867,0.004528989424958011,1.57542003E9,,,,0,,6,0.0,1.57542003E9,351.0,NaN,NaN
Raw,232339916242716,649144387000000,,,-1265581155262756520,0.7121753692626953,1001.4412691816688,65.22651935374164,9.872620947898573,100,5,0.0,23567,383899564313702,6,38.0,-412.7709045410156,0.0609000027179718,21,-51.53424321919717,0.007212130206821385,1.57542003E9,,,,0,,6,0.0,1.57542003E9,351.0,NaN,NaN
Raw,232339916242716,649144387000000,,,-1265581155262756520,0.7121753692626953,1001.4412691816688,65.22651935374164,9.872620947898573,100,9,0.0,23567,383899578077432,6,38.0,60.90485763549805,0.06390000134706497,21,7.70791059553772,0.0025499350854412276,1.57542003E9,,,,0,,6,0.0,1.57542003E9,351.0,NaN,NaN
Raw,232339916242716,649144387000000,,,-1265581155262756520,0.7121753692626953,1001.4412691816688,65.22651935374164,9.872620947898573,100,31,0.0,23567,383899570871800,9,35.2,-144.04344177246094,0.07349999994039536,21,-18.350934292212642,0.0028924638165555576,1.57542003E9,,,,0,,6,0.0,1.57542003E9,351.0,NaN,NaN
Fix,gps,51.524702,-0.134368,77.700500,0.000000,3.790092,1582195083000,232340902850574
Raw,232340918574847,649145381000000,,,-1265581155261899387,0.4301424026489258,1001.387950964272,66.03739831837929,9.871304761524021,101,5,0.0,16399,383900562429438,17,28.9,740.343994140625,0.13040000200271606,21,91.11479426324702,0.19029366893311156,1.57542003E9,,,,0,,1,0.0,1.57542003E9,351.0,NaN,NaN
Raw,232340918574847,649145381000000,,,-1265581155261899387,0.4301424026489258,1001.387950964272,66.03739831837929,9.871304761524021,101,13,0.0,16399,383900575092279,7,37.6,219.4010772705078,0.05000000074505806,21,25.44445158253354,0.0010085564157135064,1.57542003E9,,,,0,,1,0.0,1.57542003E9,351.0,NaN,NaN
Raw,232340918574847,649145381000000,,,-1265581155261899387,0.4301424026489258,1001.387950964272,66.03739831837929,9.871304761524021,101,15,0.0,16399,383900575122454,6,38.5,-118.19552612304688,0.04740000143647194,21,-13.720602435618913,7.42145288706399E-4,1.57542003E9,,,,0,,1,0.0,1.57542003E9,351.0,NaN,NaN
Raw,232340918574847,649145381000000,,,-1265581155261899387,0.4301424026489258,1001.387950964272,66.03739831837929,9.871304761524021,101,17,0.0,16399,383900560044122,13,31.9,-528.1109008789062,0.08510000258684158,21,-63.81523057442319,0.19029366893311156,1.57542003E9,,,,0,,1,0.0,1.57542003E9,351.0,NaN,NaN
Raw,232340918574847,649145381000000,,,-1265581155261899387,0.4301424026489258,1001.387950964272,66.03739831837929,9.871304761524021,101,20,0.0,16399,383900566016355,17,28.5,-363.2684326171875,0.1363999992609024,21,-46.218441581939295,0.19029366893311156,1.57542003E9,,,,0,,1,0.0,1.57542003E9,351.0,NaN,NaN
Raw,232340918574847,649145381000000,,,-1265581155261899387,0.4301424026489258,1001.387950964272,66.03739831837929,9.871304761524021,101,24,0.0,16399,383900566908595,19,27.0,-578.6550903320312,0.20270000398159027,21,-73.47117736591234,0.0,1.57542003E9,,,,0,,1,0.0,1.57542003E9,351.0,NaN,NaN
