# 
# Header Description:
# 
# Version: v2.0.0.1 Platform: 10 Manufacturer: Google Model: Pixel 4
# 
# Raw,ElapsedRealtimeNanos,TimeNanos,LeapSecond,TimeUncertaintyNanos,FullBiasNanos,BiasNanos,BiasUncertaintyNanos,DriftNanosPerSecond,DriftUncertaintyNanosPerSecond,HardwareClockDiscontinuityCount,Svid,TimeOffsetNanos,State,ReceivedSvTimeNanos,ReceivedSvTimeUncertaintyNanos,Cn0DbHz,PseudorangeRateMetersPerSecond,PseudorangeRateUncertaintyMetersPerSecond,AccumulatedDeltaRangeState,AccumulatedDeltaRangeMeters,AccumulatedDeltaRangeUncertaintyMeters,CarrierFrequencyHz,CarrierCycles,CarrierPhase,CarrierPhaseUncertainty,MultipathIndicator,SnrInDb,ConstellationType,AgcDb,CarrierFrequencyHz,UserLatitude,UserLongitude,UserAltitude
# 
# Fix,Provider,Latitude,Longitude,Altitude,Speed,Accuracy,(UTC)TimeInMs,ElapsedRealtimeNanos
# 
# Nav,Svid,Type,Status,MessageId,Sub-messageId,Data(Bytes)
# 
Fix,gps,51.524677,-0.134153,76.399292,0.000000,3.790092,1582195847000,233104901776579
Raw,233104910324757,649909404000000,,,-1265581155233029889,-0.5947635173797607,1001.324038952589,8.61596914253013,9.674670493559816,163,5,0.0,16399,384664554708717,16,29.8,731.4127807617188,0.42250001430511475,16,0.0,0.0,1.57542003E9,,,,0,,1,0.0,1.57542003E9,367.0,NaN,NaN
Raw,233104910324757,649909404000000,,,-1265581155233029889,-0.5947635173797607,1001.324038952589,8.61596914253013,9.674670493559816,163,13,0.0,16399,384664568621241,6,38.3,273.1100769042969,0.03689999878406525,21,29.898694430662,0.001160791358090767,1.57542003E9,,,,0,,1,0.0,1.57542003E9,367.0,NaN,NaN
Raw,233104910324757,649909404000000,,,-1265581155233029889,-0.5947635173797607,1001.324038952589,8.61596914253013,9.674670493559816,163,15,0.0,16399,384664569497384,6,38.5,-52.420536041259766,0.03840000182390213,21,-5.657909611201133,0.001160791358090767,1.57542003E9,,,,0,,1,0.0,1.57542003E9,367.0,NaN,NaN
Raw,233104910324757,649909404000000,,,-1265581155233029889,-0.5947635173797607,1001.324038952589,8.61596914253013,9.674670493559816,163,17,0.0,16399,384664555534936,9,35.9,-516.6642456054688,0.05700000002980232,21,-59.914352640191154,9.324389888310735E-4,1.57542003E9,,,,0,,1,0.0,1.57542003E9,367.0,NaN,NaN
Raw,233104910324757,649909404000000,,,-1265581155233029889,-0.5947635173797607,1001.324038952589,8.61596914253013,9.674670493559816,163,20,0.0,16399,384664561013567,7,37.5,-295.02392578125,0.05900000035762787,21,-35.93935169603927,7.42145288706399E-4,1.57542003E9,,,,0,,1,0.0,1.57542003E9,367.0,NaN,NaN
Raw,233104910324757,649909404000000,,,-1265581155233029889,-0.5947635173797607,1001.324038952589,8.61596914253013,9.674670493559816,163,24,0.0,16399,384664562515934,13,31.2,-558.6646118164062,0.08810000121593475,21,-68.7307523130436,0.0030066398239606148,1.57542003E9,,,,0,,1,0.0,1.57542003E9,367.0,NaN,NaN
Raw,233104910324757,649909404000000,,,-1265581155233029889,-0.5947635173797607,1001.324038952589,8.61596914253013,9.674670493559816,163,28,0.0,16399,384664565068550,7,37.7,246.91111755371094,0.0650000050663948,21,31.223366673251856,9.324389888310735E-4,1.57542003E9,,,,0,,1,0.0,1.57542003E9,367.0,NaN,NaN
Raw,233104910324757,649909404000000,,,-1265581155233029889,-0.5947635173797607,1001.324038952589,8.61596914253013,9.674670493559816,163,14,0.0,49359,49846573167916,10,34.5,41.83912658691406,0.2581000030040741,21,4.777865142495326,-6.9211246400369992E18,1.59806246E9,,,,0,,3,0.0,1.59806246E9,367.0,NaN,NaN
Raw,233104910324757,649909404000000,,,-1265581155233029889,-0.5947635173797607,1001.324038952589,8.61596914253013,9.674670493559816,163,22,0.0,49359,49846559735799,24,25.5,-76.81997680664062,1.3890000581741333,19,-9.18920253804151,-6.9113937779659387E18,1.60031245E9,,,,0,,3,0.0,1.60031245E9,367.0,NaN,NaN
Raw,233104910324757,649909404000000,,,-1265581155233029889,-0.5947635173797607,1001.324038952589,8.61596914253013,9.674670493559816,163,15,0.0,49359,49846566216660,19,27.2,-616.5095825195312,0.4027000069618225,19,-78.30076688931884,-6.9041132933262418E18,1.602E9,,,,0,,3,0.0,1.602E9,367.0,NaN,NaN
Raw,233104910324757,649909404000000,,,-1265581155233029889,-0.5947635173797607,1001.324038952589,8.61596914253013,9.674670493559816,163,5,0.0,49359,49846568930653,12,32.4,-500.1875915527344,0.2605000138282776,21,-54.523112119639805,-6.9016896887374172E18,1.60256256E9,,,,0,,3,0.0,1.60256256E9,367.0,NaN,NaN
Raw,233104910324757,649909404000000,,,-1265581155233029889,-0.5947635173797607,1001.324038952589,8.61596914253013,9.674670493559816,163,3,0.0,49359,49846561370852,13,31.1,802.528564453125,0.2865999937057495,21,97.91709784488349,-6.8920133614737244E18,1.60481254E9,,,,0,,3,0.0,1.60481254E9,367.0,NaN,NaN
Raw,233104910324757,649909404000000,,,-1265581155233029889,-0.5947635173797607,1001.324038952589,8.61596914253013,9.674670493559816,163,4,0.0,49359,49846572163390,7,37.7,287.65704345703125,0.24549999833106995,21,32.614365405064454,-6.889598792343851E18,1.60537498E9,,,,0,,3,0.0,1.60537498E9,367.0,NaN,NaN
Raw,233104910324757,649909404000000,,,-1265581155233029889,-0.5947635173797607,1001.324038952589,8.61596914253013,9.674670493559816,163,1,0.0,23567,384664551905466,5,40.4,416.6692810058594,0.06040000170469284,21,53.44104103838461,0.003311109885939926,1.57542003E9,,,,0,,6,0.0,1.57542003E9,367.0,NaN,NaN
Raw,233104910324757,649909404000000,,,-1265581155233029889,-0.5947635173797607,1001.324038952589,8.61596914253013,9.674670493559816,163,4,0.0,23567,384664549722531,9,35.2,522.5263671875,0.07200000435113907,21,65.81002208395155,0.0021883771969841777,1.57542003E9,,,,0,,6,0.0,1.57542003E9,367.0,NaN,NaN
Raw,233104910324757,649909404000000,,,-1265581155233029889,-0.5947635173797607,1001.324038952589,8.61596914253013,9.674670493559816,163,5,0.0,23567,384664552651278,9,35.3,-398.9307861328125,0.07050000131130219,21,-49.90127202550543,0.0025499350854412276,1.57542003E9,,,,0,,6,0.0,1.57542003E9,367.0,NaN,NaN
Raw,233104910324757,649909404000000,,,-1265581155233029889,-0.5947635173797607,1001.324038952589,8.61596914253013,9.674670493559816,163,9,0.0,23567,384664565172764,9,35.9,100.34805297851562,0.07200000435113907,21,12.630204918530572,0.003596550258902148,1.57542003E9,,,,0,,6,0.0,1.57542003E9,367.0,NaN,NaN
Raw,233104910324757,649909404000000,,,-1265581155233029889,-0.5947635173797607,1001.324038952589,8.61596914253013,9.674670493559816,163,24,0.0,23567,384664556204144,16,29.1,-532.7398681640625,0.11639999598264694,21,-68.70860326356512,190.10337526417845,1.57542003E9,,,,0,,6,0.0,1.57542003E9,367.0,NaN,NaN
Raw,233104910324757,649909404000000,,,-1265581155233029889,-0.5947635173797607,1001.324038952589,8.61596914253013,9.674670493559816,163,31,0.0,23567,384664558484290,8,36.5,-100.32913208007812,0.06949999928474426,21,-12.631416829847572,0.0025499350854412276,1.57542003E9,,,,0,,6,0.0,1.57542003E9,367.0,NaN,NaN
Fix,gps,51.524677,-0.134155,76.312256,0.000000,3.790092,1582195848000,233105913467356
Raw,233105923976003,649910421000000,,,-1265581155232222200,-0.2595663070678711,1000.9993566200137,6.095201840478942,6.815073873645002,164,5,0.0,16399,384665570898715,24,25.3,733.4908447265625,1.2055000066757202,19,96.12203870594628,0.19029366893311156,1.57542003E9,,,,0,,1,0.0,1.57542003E9,367.0,NaN,NaN
Raw,233105923976003,649910421000000,,,-1265581155232222200,-0.2595663070678711,1000.9993566200137,6.095201840478942,6.815073873645002,164,13,0.0,16399,384665584812672,9,35.9,274.9739685058594,0.07050000131130219,21,34.29014764168818,0.001160791358090767,1.57542003E9,,,,0,,1,0.0,1.57542003E9,367.0,NaN,NaN
Raw,233105923976003,649910421000000,,,-1265581155232222200,-0.2595663070678711,1000.9993566200137,6.095201840478942,6.815073873645002,164,15,0.0,16399,384665585689895,5,40.9,-50.575016021728516,0.05740000307559967,21,-6.388502672127791,0.001160791358090767,1.57542003E9,,,,0,,1,0.0,1.57542003E9,367.0,NaN,NaN
Raw,233105923976003,649910421000000,,,-1265581155232222200,-0.2595663070678711,1000.9993566200137,6.095201840478942,6.815073873645002,164,17,0.0,16399,384665571728936,10,34.4,-514.9468383789062,0.05509999766945839,21,-57.74288340696656,9.324389888310735E-4,1.57542003E9,,,,0,,1,0.0,1.57542003E9,367.0,NaN,NaN
Raw,233105923976003,649910421000000,,,-1265581155232222200,-0.2595663070678711,1000.9993566200137,6.095201840478942,6.815073873645002,164,20,0.0,16399,384665577206941,10,34.1,-293.196533203125,0.0640999972820282,21,-34.64646009462109,7.42145288706399E-4,1.57542003E9,,,,0,,1,0.0,1.57542003E9,367.0,NaN,NaN
Raw,233105923976003,649910421000000,,,-1265581155232222200,-0.2595663070678711,1000.9993566200137,6.095201840478942,6.815073873645002,164,24,0.0,16399,384665578710180,11,33.7,-557.0149536132812,0.07020000368356705,21,-66.21790156304885,0.0030066398239606148,1.57542003E9,,,,0,,1,0.0,1.57542003E9,367.0,NaN,NaN
Raw,233105923976003,649910421000000,,,-1265581155232222200,-0.2595663070678711,1000.9993566200137,6.095201840478942,6.815073873645002,164,28,0.0,16399,384665581260023,5,41.0,248.62374877929688,0.049400001764297485,21,30.260359945607128,9.324389888310735E-4,1.57542003E9,,,,0,,1,0.0,1.57542003E9,367.0,NaN,NaN
Raw,233105923976003,649910421000000,,,-1265581155232222200,-0.2595663070678711,1000.9993566200137,6.095201840478942,6.815073873645002,164,30,0.0,16399,384665574140047,31,23.6,607.322265625,0.7324999570846558,16,0.0,0.0,1.57542003E9,,,,0,,1,0.0,1.57542003E9,367.0,NaN,NaN
Raw,233105923976003,649910421000000,,,-1265581155232222200,-0.2595663070678711,1000.9993566200137,6.095201840478942,6.815073873645002,164,14,0.0,49359,49847589360129,10,34.9,43.671722412109375,0.28210002183914185,21,5.68421020791561,-6.9211246400369992E18,1.59806246E9,,,,0,,3,0.0,1.59806246E9,367.0,NaN,NaN
Raw,233105923976003,649910421000000,,,-1265581155232222200,-0.2595663070678711,1000.9993566200137,6.095201840478942,6.815073873645002,164,15,0.0,49359,49847582411221,10,34.4,-614.8770141601562,0.27160000801086426,21,-75.73113267703873,-6.9041132933262418E18,1.602E9,,,,0,,3,0.0,1.602E9,367.0,NaN,NaN
Raw,233105923976003,649910421000000,,,-1265581155232222200,-0.2595663070678711,1000.9993566200137,6.095201840478942,6.815073873645002,164,5,0.0,49359,49847585124690,9,35.7,-498.29107666015625,0.2720000147819519,21,-62.78569624759654,-6.9016896887374172E18,1.60256256E9,,,,0,,3,0.0,1.60256256E9,367.0,NaN,NaN
Raw,233105923976003,649910421000000,,,-1265581155232222200,-0.2595663070678711,1000.9993566200137,6.095201840478942,6.815073873645002,164,3,0.0,49359,49847577560583,21,26.4,804.3111572265625,0.4761999845504761,21,94.8260411406773,-6.8920133614737244E18,1.60481254E9,,,,0,,3,0.0,1.60481254E9,367.0,NaN,NaN
Raw,233105923976003,649910421000000,,,-1265581155232222200,-0.2595663070678711,1000.9993566200137,6.095201840478942,6.815073873645002,164,4,0.0,49359,49847588354720,6,39.0,289.5377197265625,0.2639000117778778,21,37.37731327387982,-6.889598792343851E18,1.60537498E9,,,,0,,3,0.0,1.60537498E9,367.0,NaN,NaN
Raw,233105923976003,649910421000000,,,-1265581155232222200,-0.2595663070678711,1000.9993566200137,6.095201840478942,6.815073873645002,164,1,0.0,23567,384665568096454,9,35.6,418.15216064453125,0.07649999856948853,21,53.98046534257184,0.003311109885939926,1.57542003E9,,,,0,,6,0.0,1.57542003E9,367.0,NaN,NaN
Raw,233105923976003,649910421000000,,,-1265581155232222200,-0.2595663070678711,1000.9993566200137,6.095201840478942,6.815073873645002,164,4,0.0,23567,384665565913103,9,35.8,524.1170654296875,0.07800000160932541,21,68.08360110663084,0.0021883771969841777,1.57542003E9,,,,0,,6,0.0,1.57542003E9,367.0,NaN,NaN
Raw,233105923976003,649910421000000,,,-1265581155232222200,-0.2595663070678711,1000.9993566200137,6.095201840478942,6.815073873645002,164,5,0.0,23567,384665568844979,10,34.6,-397.238037109375,0.08060000091791153,21,-51.26491144537856,0.0025499350854412276,1.57542003E9,,,,0,,6,0.0,1.57542003E9,367.0,NaN,NaN
Raw,233105923976003,649910421000000,,,-1265581155232222200,-0.2595663070678711,1000.9993566200137,6.095201840478942,6.815073873645002,164,9,0.0,23567,384665581364741,8,36.8,101.97943878173828,0.07400000095367432,21,13.283628918395292,0.003596550258902148,1.57542003E9,,,,0,,6,0.0,1.57542003E9,367.0,NaN,NaN
Raw,233105923976003,649910421000000,,,-1265581155232222200,-0.2595663070678711,1000.9993566200137,6.095201840478942,6.815073873645002,164,24,0.0,23567,384665572398031,24,25.4,-530.7119140625,1.2024999856948853,21,-68.39965044656398,190.10337526417845,1.57542003E9,,,,0,,6,0.0,1.57542003E9,367.0,NaN,NaN
Raw,233105923976003,649910421000000,,,-1265581155232222200,-0.2595663070678711,1000.9993566200137,6.095201840478942,6.815073873645002,164,31,0.0,23567,384665574676969,9,35.7,-98.7168960571289,0.07950000464916229,21,-12.849104812229706,0.0025499350854412276,1.57542003E9,,,,0,,6,0.0,1.57542003E9,367.0,NaN,NaN
Fix,gps,51.524675,-0.134154,76.491943,0.000000,3.790092,1582195849000,233106916254488
Raw,233106929832614,649911411000000,,,-1265581155231395647,-0.525787353515625,1001.2452257797122,11.519514458173342,8.749832056691677,165,5,0.0,16399,384666560069742,14,30.0,731.5289916992188,0.09350000321865082,21,88.53283008732815,0.19029366893311156,1.57542003E9,,,,0,,1,0.0,1.57542003E9,367.0,NaN,NaN
Raw,233106929832614,649911411000000,,,-1265581155231395647,-0.525787353515625,1001.2452257797122,11.519514458173342,8.749832056691677,165,13,0.0,16399,384666573985276,8,36.2,273.57196044921875,0.05000000074505806,21,31.16521271489792,0.001160791358090767,1.57542003E9,,,,0,,1,0.0,1.57542003E9,367.0,NaN,NaN
Raw,233106929832614,649911411000000,,,-1265581155231395647,-0.525787353515625,1001.2452257797122,11.519514458173342,8.749832056691677,165,15,0.0,16399,384666574863551,5,40.6,-51.86782455444336,0.04090000316500664,21,-5.998627915945532,0.001160791358090767,1.57542003E9,,,,0,,1,0.0,1.57542003E9,367.0,NaN,NaN
Raw,233106929832614,649911411000000,,,-1265581155231395647,-0.525787353515625,1001.2452257797122,11.519514458173342,8.749832056691677,165,17,0.0,16399,384666560904132,7,37.7,-516.3758544921875,0.057500001043081284,21,-62.51179835708497,9.324389888310735E-4,1.57542003E9,,,,0,,1,0.0,1.57542003E9,367.0,NaN,NaN
Raw,233106929832614,649911411000000,,,-1265581155231395647,-0.525787353515625,1001.2452257797122,11.519514458173342,8.749832056691677,165,20,0.0,16399,384666566381354,12,32.8,-294.5785827636719,0.08749999850988388,21,-37.39961300506368,7.42145288706399E-4,1.57542003E9,,,,0,,1,0.0,1.57542003E9,367.0,NaN,NaN
Raw,233106929832614,649911411000000,,,-1265581155231395647,-0.525787353515625,1001.2452257797122,11.519514458173342,8.749832056691677,165,24,0.0,16399,384666567885435,11,33.2,-558.3636474609375,0.08370000123977661,21,-71.50566554669318,0.0030066398239606148,1.57542003E9,,,,0,,1,0.0,1.57542003E9,367.0,NaN,NaN
Raw,233106929832614,649911411000000,,,-1265581155231395647,-0.525787353515625,1001.2452257797122,11.519514458173342,8.749832056691677,165,28,0.0,16399,384666570432661,4,44.4,247.29421997070312,0.058000002056360245,21,32.33229275003519,9.324389888310735E-4,1.57542003E9,,,,0,,1,0.0,1.57542003E9,367.0,NaN,NaN
Raw,233106929832614,649911411000000,,,-1265581155231395647,-0.525787353515625,1001.2452257797122,11.519514458173342,8.749832056691677,165,30,0.0,16399,384666563311404,21,26.0,605.4782104492188,0.28519999980926514,19,75.03792644411759,0.002074201012354331,1.57542003E9,,,,0,,1,0.0,1.57542003E9,367.0,NaN,NaN
Raw,233106929832614,649911411000000,,,-1265581155231395647,-0.525787353515625,1001.2452257797122,11.519514458173342,8.749832056691677,165,14,0.0,49359,49848578533444,5,41.1,42.322120666503906,0.24490000307559967,21,4.987017615600811,-6.9211246400369992E18,1.59806246E9,,,,0,,3,0.0,1.59806246E9,367.0,NaN,NaN
Raw,233106929832614,649911411000000,,,-1265581155231395647,-0.525787353515625,1001.2452257797122,11.519514458173342,8.749832056691677,165,22,0.0,49359,49848565102001,19,27.6,-75.81433868408203,0.40119999647140503,19,-9.515699284325434,-6.9113937779659387E18,1.60031245E9,,,,0,,3,0.0,1.60031245E9,367.0,NaN,NaN
Raw,233106929832614,649911411000000,,,-1265581155231395647,-0.525787353515625,1001.2452257797122,11.519514458173342,8.749832056691677,165,13,0.0,49359,49848570222543,14,30.1,671.75341796875,0.3084999918937683,19,87.93429788893684,-6.908965060130815E18,1.60087501E9,,,,0,,3,0.0,1.60087501E9,367.0,NaN,NaN
Raw,233106929832614,649911411000000,,,-1265581155231395647,-0.525787353515625,1001.2452257797122,11.519514458173342,8.749832056691677,165,15,0.0,49359,49848571586773,14,30.5,-616.2084350585938,0.2800000011920929,21,-69.06707808059468,-6.9041132933262418E18,1.602E9,,,,0,,3,0.0,1.602E9,367.0,NaN,NaN
Raw,233106929832614,649911411000000,,,-1265581155231395647,-0.525787353515625,1001.2452257797122,11.519514458173342,8.749832056691677,165,5,0.0,49359,49848574299794,10,34.7,-499.6626281738281,0.2596000134944916,21,-57.53842250525728,-6.9016896887374172E18,1.60256256E9,,,,0,,3,0.0,1.60256256E9,367.0,NaN,NaN
Raw,233106929832614,649911411000000,,,-1265581155231395647,-0.525787353515625,1001.2452257797122,11.519514458173342,8.749832056691677,165,3,0.0,49359,49848566731220,17,28.5,802.7739868164062,0.33640000224113464,21,101.91150409667162,-6.8920133614737244E18,1.60481254E9,,,,0,,3,0.0,1.60481254E9,367.0,NaN,NaN
Raw,233106929832614,649911411000000,,,-1265581155231395647,-0.525787353515625,1001.2452257797122,11.519514458173342,8.749832056691677,165,4,0.0,49359,49848577527236,5,41.9,288.1987609863281,0.24340000748634338,21,34.088688610061496,-6.889598792343851E18,1.60537498E9,,,,0,,3,0.0,1.60537498E9,367.0,NaN,NaN
Raw,233106929832614,649911411000000,,,-1265581155231395647,-0.525787353515625,1001.2452257797122,11.519514458173342,8.749832056691677,165,1,0.0,23567,384666557268532,6,38.2,416.8686218261719,0.06840000301599503,21,54.23483532893631,0.003311109885939926,1.57542003E9,,,,0,,6,0.0,1.57542003E9,367.0,NaN,NaN
Raw,233106929832614,649911411000000,,,-1265581155231395647,-0.525787353515625,1001.2452257797122,11.519514458173342,8.749832056691677,165,4,0.0,23567,384666555084847,10,34.3,522.6620483398438,0.08510000258684158,21,69.02846945267754,0.0021883771969841777,1.57542003E9,,,,0,,6,0.0,1.57542003E9,367.0,NaN,NaN
Raw,233106929832614,649911411000000,,,-1265581155231395647,-0.525787353515625,1001.2452257797122,11.519514458173342,8.749832056691677,165,5,0.0,23567,384666558019746,10,34.1,-398.6513977050781,0.0835999995470047,21,-52.18997108461585,0.0025499350854412276,1.57542003E9,,,,0,,6,0.0,1.57542003E9,367.0,NaN,NaN
Raw,233106929832614,649911411000000,,,-1265581155231395647,-0.525787353515625,1001.2452257797122,11.519514458173342,8.749832056691677,165,9,0.0,23567,384666570537888,7,37.2,100.6393814086914,0.07250000536441803,21,13.267474093355345,0.003596550258902148,1.57542003E9,,,,0,,6,0.0,1.57542003E9,367.0,NaN,NaN
Raw,233106929832614,649911411000000,,,-1265581155231395647,-0.525787353515625,1001.2452257797122,11.519514458173342,8.749832056691677,165,24,0.0,23567,384666561573586,14,30.1,-531.9125366210938,0.10700000077486038,21,-69.18064689553513,190.10337526417845,1.57542003E9,,,,0,,6,0.0,1.57542003E9,367.0,NaN,NaN
Raw,233106929832614,649911411000000,,,-1265581155231395647,-0.525787353515625,1001.2452257797122,11.519514458173342,8.749832056691677,165,31,0.0,23567,384666563850759,11,33.7,-99.97972869873047,0.08370000123977661,21,-12.858341325914951,0.0025499350854412276,1.57542003E9,,,,0,,6,0.0,1.57542003E9,367.0,NaN,NaN
Raw,233107911972295,649912423000000,,,-1265581155231368998,-0.43811988830566406,1001.3021528720856,6.535600982519183,8.768320697679947,166,5,0.0,16399,384667572040605,19,27.6,732.4968872070312,0.18170000612735748,21,82.73414185952461,0.19029366893311156,1.57542003E9,,,,0,,1,0.0,1.57542003E9,367.0,NaN,NaN
Raw,233107911972295,649912423000000,,,-1265581155231368998,-0.43811988830566406,1001.3021528720856,6.535600982519183,8.768320697679947,166,13,0.0,16399,384667585957662,6,38.4,274.5592346191406,0.06240000203251839,21,34.62051343265091,0.001160791358090767,1.57542003E9,,,,0,,1,0.0,1.57542003E9,367.0,NaN,NaN
Raw,233107911972295,649912423000000,,,-1265581155231368998,-0.43811988830566406,1001.3021528720856,6.535600982519183,8.768320697679947,166,15,0.0,16399,384667586837067,5,40.2,-50.88143539428711,0.058900002390146255,21,-6.501968731203358,0.001160791358090767,1.57542003E9,,,,0,,1,0.0,1.57542003E9,367.0,NaN,NaN
Raw,233107911972295,649912423000000,,,-1265581155231368998,-0.43811988830566406,1001.3021528720856,6.535600982519183,8.768320697679947,166,17,0.0,16399,384667572879257,8,36.8,-515.4325561523438,0.048500001430511475,21,-58.16071660153478,9.324389888310735E-4,1.57542003E9,,,,0,,1,0.0,1.57542003E9,367.0,NaN,NaN
Raw,233107911972295,649912423000000,,,-1265581155231368998,-0.43811988830566406,1001.3021528720856,6.535600982519183,8.768320697679947,166,20,0.0,16399,384667578355681,8,36.1,-293.5632629394531,0.057500001043081284,21,-34.99020554622432,7.42145288706399E-4,1.57542003E9,,,,0,,1,0.0,1.57542003E9,367.0,NaN,NaN
Raw,233107911972295,649912423000000,,,-1265581155231368998,-0.43811988830566406,1001.3021528720856,6.535600982519183,8.768320697679947,166,24,0.0,16399,384667579860624,11,33.3,-557.4887084960938,0.07170000672340393,21,-66.95234740583534,0.0030066398239606148,1.57542003E9,,,,0,,1,0.0,1.57542003E9,367.0,NaN,NaN
Raw,233107911972295,649912423000000,,,-1265581155231368998,-0.43811988830566406,1001.3021528720856,6.535600982519183,8.768320697679947,166,28,0.0,16399,384667582405174,4,43.9,248.301025390625,0.04740000143647194,21,30.50261227062707,9.324389888310735E-4,1.57542003E9,,,,0,,1,0.0,1.57542003E9,367.0,NaN,NaN
Raw,233107911972295,649912423000000,,,-1265581155231368998,-0.43811988830566406,1001.3021528720856,6.535600982519183,8.768320697679947,166,14,0.0,49359,49849590506626,4,42.1,43.37818908691406,0.23120000958442688,21,4.845444934872191,-6.9211246400369992E18,1.59806246E9,,,,0,,3,0.0,1.59806246E9,367.0,NaN,NaN
Raw,233107911972295,649912423000000,,,-1265581155231368998,-0.43811988830566406,1001.3021528720856,6.535600982519183,8.768320697679947,166,22,0.0,49359,49849577075782,19,27.2,-74.65624237060547,0.38920000195503235,21,-8.803513346588753,-6.9113937779659387E18,1.60031245E9,,,,0,,3,0.0,1.60031245E9,367.0,NaN,NaN
Raw,233107911972295,649912423000000,,,-1265581155231368998,-0.43811988830566406,1001.3021528720856,6.535600982519183,8.768320697679947,166,13,0.0,49359,49849582193520,12,32.2,672.6564331054688,0.2815000116825104,21,82.80326646190892,-6.908965060130815E18,1.60087501E9,,,,0,,3,0.0,1.60087501E9,367.0,NaN,NaN
Raw,233107911972295,649912423000000,,,-1265581155231368998,-0.43811988830566406,1001.3021528720856,6.535600982519183,8.768320697679947,166,15,0.0,49359,49849583562162,24,25.8,-615.2534790039062,1.3950001001358032,21,-76.2438059662632,-6.9041132933262418E18,1.602E9,,,,0,,3,0.0,1.602E9,367.0,NaN,NaN
Raw,233107911972295,649912423000000,,,-1265581155231368998,-0.43811988830566406,1001.3021528720856,6.535600982519183,8.768320697679947,166,5,0.0,49359,49849586274826,8,36.4,-498.65472412109375,0.2695000171661377,21,-63.264476828137425,-6.9016896887374172E18,1.60256256E9,,,,0,,3,0.0,1.60256256E9,367.0,NaN,NaN
Raw,233107911972295,649912423000000,,,-1265581155231368998,-0.43811988830566406,1001.3021528720856,6.535600982519183,8.768320697679947,166,3,0.0,49359,49849578701612,17,28.5,803.8952026367188,0.32440000772476196,21,95.66639102738795,-6.8920133614737244E18,1.60481254E9,,,,0,,3,0.0,1.60481254E9,367.0,NaN,NaN
Raw,233107911972295,649912423000000,,,-1265581155231368998,-0.43811988830566406,1001.3021528720856,6.535600982519183,8.768320697679947,166,4,0.0,49359,49849589499604,5,41.7,289.2913513183594,0.2314000129699707,21,31.79421776017459,-6.889598792343851E18,1.60537498E9,,,,0,,3,0.0,1.60537498E9,367.0,NaN,NaN
Raw,233107911972295,649912423000000,,,-1265581155231368998,-0.43811988830566406,1001.3021528720856,6.535600982519183,8.768320697679947,166,1,0.0,23567,384667569240456,6,38.5,417.83355712890625,0.06240000203251839,21,52.70994818653747,0.003311109885939926,1.57542003E9,,,,0,,6,0.0,1.57542003E9,367.0,NaN,NaN
Raw,233107911972295,649912423000000,,,-1265581155231368998,-0.43811988830566406,1001.3021528720856,6.535600982519183,8.768320697679947,166,4,0.0,23567,384667567056426,10,34.6,523.5932006835938,0.07909999787807465,21,67.0793748759533,0.0021883771969841777,1.57542003E9,,,,0,,6,0.0,1.57542003E9,367.0,NaN,NaN
Raw,233107911972295,649912423000000,,,-1265581155231368998,-0.43811988830566406,1001.3021528720856,6.535600982519183,8.768320697679947,166,5,0.0,23567,384667569994430,9,35.4,-397.7856750488281,0.07200000435113907,21,-50.053824039336114,0.0025499350854412276,1.57542003E9,,,,0,,6,0.0,1.57542003E9,367.0,NaN,NaN
Raw,233107911972295,649912423000000,,,-1265581155231368998,-0.43811988830566406,1001.3021528720856,6.535600982519183,8.768320697679947,166,9,0.0,23567,384667582510896,6,38.7,101.60444641113281,0.06390000134706497,21,12.98695636719212,0.003596550258902148,1.57542003E9,,,,0,,6,0.0,1.57542003E9,367.0,NaN,NaN
Raw,233107911972295,649912423000000,,,-1265581155231368998,-0.43811988830566406,1001.3021528720856,6.535600982519183,8.768320697679947,166,24,0.0,23567,384667573548659,12,32.5,-530.985595703125,0.0860000029206276,21,-66.91133623975851,190.10337526417845,1.57542003E9,,,,0,,6,0.0,1.57542003E9,367.0,NaN,NaN
Raw,233107911972295,649912423000000,,,-1265581155231368998,-0.43811988830566406,1001.3021528720856,6.535600982519183,8.768320697679947,166,31,0.0,23567,384667575824446,10,34.7,-99.0968017578125,0.0731000006198883,21,-12.245265915274956,0.0025499350854412276,1.57542003E9,,,,0,,6,0.0,1.57542003E9,367.0,NaN,NaN
Fix,gps,51.524673,-0.134153,76.546326,0.000000,3.790092,1582195850000,233107900469794
Fix,gps,51.524674,-0.134152,76.859131,0.000000,3.790092,1582195851000,233108901200258
Raw,233108914097343,649913416000000,,,-1265581155230548623,0.3322105407714844,1001.2711863964796,9.528398049375,8.71810997686803,167,5,0.0,16399,384668564217852,14,30.5,731.1343994140625,0.09950000047683716,21,91.34062571620834,0.19029366893311156,1.57542003E9,,,,0,,1,0.0,1.57542003E9,367.0,NaN,NaN
Raw,233108914097343,649913416000000,,,-1265581155230548623,0.3322105407714844,1001.2711863964796,9.528398049375,8.71810997686803,167,13,0.0,16399,384668578136432,7,37.3,273.3278503417969,0.05450000241398811,21,32.51035660410567,0.001160791358090767,1.57542003E9,,,,0,,1,0.0,1.57542003E9,367.0,NaN,NaN
Raw,233108914097343,649913416000000,,,-1265581155230548623,0.3322105407714844,1001.2711863964796,9.528398049375,8.71810997686803,167,15,0.0,16399,384668579016890,5,40.3,-52.13263702392578,0.04840000346302986,21,-6.300993347061651,0.001160791358090767,1.57542003E9,,,,0,,1,0.0,1.57542003E9,367.0,NaN,NaN
Raw,233108914097343,649913416000000,,,-1265581155230548623,0.3322105407714844,1001.2711863964796,9.528398049375,8.71810997686803,167,17,0.0,16399,384668565060607,6,38.7,-516.693603515625,0.06240000203251839,21,-65.04954283262263,9.324389888310735E-4,1.57542003E9,,,,0,,1,0.0,1.57542003E9,367.0,NaN,NaN
Raw,233108914097343,649913416000000,,,-1265581155230548623,0.3322105407714844,1001.2711863964796,9.528398049375,8.71810997686803,167,20,0.0,16399,384668570536277,9,35.5,-294.8014221191406,0.0494999997317791,21,-32.77262379515276,7.42145288706399E-4,1.57542003E9,,,,0,,1,0.0,1.57542003E9,367.0,NaN,NaN
Raw,233108914097343,649913416000000,,,-1265581155230548623,0.3322105407714844,1001.2711863964796,9.528398049375,8.71810997686803,167,24,0.0,16399,384668572042172,12,32.1,-558.8338012695312,0.06650000065565109,21,-63.08247683423025,0.0030066398239606148,1.57542003E9,,,,0,,1,0.0,1.57542003E9,367.0,NaN,NaN
Raw,233108914097343,649913416000000,,,-1265581155230548623,0.3322105407714844,1001.2711863964796,9.528398049375,8.71810997686803,167,28,0.0,16399,384668574583998,4,42.6,247.0680389404297,0.03720000013709068,21,28.409229107731377,9.324389888310735E-4,1.57542003E9,,,,0,,1,0.0,1.57542003E9,367.0,NaN,NaN
Raw,233108914097343,649913416000000,,,-1265581155230548623,0.3322105407714844,1001.2711863964796,9.528398049375,8.71810997686803,167,14,0.0,49359,49850582686150,5,41.2,42.17124557495117,0.250900000333786,21,5.266225683924442,-6.9211246400369992E18,1.59806246E9,,,,0,,3,0.0,1.59806246E9,367.0,NaN,NaN
Raw,233108914097343,649913416000000,,,-1265581155230548623,0.3322105407714844,1001.2711863964796,9.528398049375,8.71810997686803,167,22,0.0,49359,49850569255603,16,29.1,-75.80199432373047,0.31790000200271606,21,-9.92429887950496,-6.9113937779659387E18,1.60031245E9,,,,0,,3,0.0,1.60031245E9,367.0,NaN,NaN
Raw,233108914097343,649913416000000,,,-1265581155230548623,0.3322105407714844,1001.2711863964796,9.528398049375,8.71810997686803,167,13,0.0,49359,49850574371002,13,31.1,671.3963012695312,0.2761000096797943,21,77.1337663193088,-6.908965060130815E18,1.60087501E9,,,,0,,3,0.0,1.60087501E9,367.0,NaN,NaN
Raw,233108914097343,649913416000000,,,-1265581155230548623,0.3322105407714844,1001.2711863964796,9.528398049375,8.71810997686803,167,15,0.0,49359,49850575743826,13,31.5,-616.5299682617188,0.2775999903678894,21,-71.4400365012089,-6.9041132933262418E18,1.602E9,,,,0,,3,0.0,1.602E9,367.0,NaN,NaN
Raw,233108914097343,649913416000000,,,-1265581155230548623,0.3322105407714844,1001.2711863964796,9.528398049375,8.71810997686803,167,5,0.0,49359,49850578456176,10,34.9,-499.8675842285156,0.2655999958515167,21,-59.41402394962478,-6.9016896887374172E18,1.60256256E9,,,,0,,3,0.0,1.60256256E9,367.0,NaN,NaN
Raw,233108914097343,649913416000000,,,-1265581155230548623,0.3322105407714844,1001.2711863964796,9.528398049375,8.71810997686803,167,3,0.0,49359,49850570878952,12,32.3,802.51806640625,0.26350000500679016,21,89.0406696750498,-6.8920133614737244E18,1.60481254E9,,,,0,,3,0.0,1.60481254E9,367.0,NaN,NaN
Raw,233108914097343,649913416000000,,,-1265581155230548623,0.3322105407714844,1001.2711863964796,9.528398049375,8.71810997686803,167,4,0.0,49359,49850581678301,5,41.4,288.074951171875,0.24940000474452972,21,35.22179938398848,-6.889598792343851E18,1.60537498E9,,,,0,,3,0.0,1.60537498E9,367.0,NaN,NaN
Raw,233108914097343,649913416000000,,,-1265581155230548623,0.3322105407714844,1001.2711863964796,9.528398049375,8.71810997686803,167,1,0.0,23567,384668561418738,8,36.7,416.5486145019531,0.07400000095367432,21,54.132949120605105,0.003311109885939926,1.57542003E9,,,,0,,6,0.0,1.57542003E9,367.0,NaN,NaN
Raw,233108914097343,649913416000000,,,-1265581155230548623,0.3322105407714844,1001.2711863964796,9.528398049375,8.71810997686803,167,4,0.0,23567,384668559234349,10,34.4,522.33056640625,0.07909999787807465,21,66.91366496782376,0.0021883771969841777,1.57542003E9,,,,0,,6,0.0,1.57542003E9,367.0,NaN,NaN
Raw,233108914097343,649913416000000,,,-1265581155230548623,0.3322105407714844,1001.2711863964796,9.528398049375,8.71810997686803,167,5,0.0,23567,384668562175400,10,34.8,-399.0462951660156,0.0835999995470047,21,-52.34858156616243,0.0025499350854412276,1.57542003E9,,,,0,,6,0.0,1.57542003E9,367.0,NaN,NaN
Raw,233108914097343,649913416000000,,,-1265581155230548623,0.3322105407714844,1001.2711863964796,9.528398049375,8.71810997686803,167,9,0.0,23567,384668574690211,6,38.5,100.3814697265625,0.06390000134706497,21,12.668129503643112,0.003596550258902148,1.57542003E9,,,,0,,6,0.0,1.57542003E9,367.0,NaN,NaN
Raw,233108914097343,649913416000000,,,-1265581155230548623,0.3322105407714844,1001.2711863964796,9.528398049375,8.71810997686803,167,24,0.0,23567,384668565730090,14,30.6,-532.4171752929688,0.10700000077486038,21,-69.20181741464206,190.10337526417845,1.57542003E9,,,,0,,6,0.0,1.57542003E9,367.0,NaN,NaN
Raw,233108914097343,649913416000000,,,-1265581155230548623,0.3322105407714844,1001.2711863964796,9.528398049375,8.71810997686803,167,31,0.0,23567,384668568004406,10,34.4,-100.36259460449219,0.08060000091791153,21,-12.884895939803663,0.0025499350854412276,1.57542003E9,,,,0,,6,0.0,1.57542003E9,367.0,NaN,NaN
Fix,gps,51.524675,-0.134152,77.316040,0.000000,3.790092,1582195852000,233109909907182
Raw,233109919891193,649914427000000,,,-1265581155230407226,-0.41348838806152344,1001.3600112870336,5.054375572861716,8.745990064924026,168,5,0.0,16399,384669575073931,12,32.2,733.0521240234375,0.07100000232458115,21,85.03398730873539,0.19029366893311156,1.57542003E9,,,,0,,1,0.0,1.57542003E9,367.0,NaN,NaN
Raw,233109919891193,649914427000000,,,-1265581155230407226,-0.41348838806152344,1001.3600112870336,5.054375572861716,8.745990064924026,168,13,0.0,16399,384669588994096,8,36.4,275.3901062011719,0.07249999791383743,21,35.47205553337933,0.001160791358090767,1.57542003E9,,,,0,,1,0.0,1.57542003E9,367.0,NaN,NaN
Raw,233109919891193,649914427000000,,,-1265581155230407226,-0.41348838806152344,1001.3600112870336,5.054375572861716,8.745990064924026,168,15,0.0,16399,384669589875653,5,41.0,-50.01079559326172,0.06140000373125076,21,-6.537632642569884,0.001160791358090767,1.57542003E9,,,,0,,1,0.0,1.57542003E9,367.0,NaN,NaN
Raw,233109919891193,649914427000000,,,-1265581155230407226,-0.41348838806152344,1001.3600112870336,5.054375572861716,8.745990064924026,168,17,0.0,16399,384669575920929,6,39.7,-514.7433471679688,0.04440000280737877,21,-59.718031717789906,9.324389888310735E-4,1.57542003E9,,,,0,,1,0.0,1.57542003E9,367.0,NaN,NaN
Raw,233109919891193,649914427000000,,,-1265581155230407226,-0.41348838806152344,1001.3600112870336,5.054375572861716,8.745990064924026,168,20,0.0,16399,384669581395879,7,37.9,-292.6930236816406,0.05900000035762787,21,-35.697020246530826,7.42145288706399E-4,1.57542003E9,,,,0,,1,0.0,1.57542003E9,367.0,NaN,NaN
Raw,233109919891193,649914427000000,,,-1265581155230407226,-0.41348838806152344,1001.3600112870336,5.054375572861716,8.745990064924026,168,24,0.0,16399,384669582902629,16,29.7,-556.6011962890625,0.10740000009536743,21,-68.48971008455881,0.0030066398239606148,1.57542003E9,,,,0,,1,0.0,1.57542003E9,367.0,NaN,NaN
Raw,233109919891193,649914427000000,,,-1265581155230407226,-0.41348838806152344,1001.3600112870336,5.054375572861716,8.745990064924026,168,28,0.0,16399,384669585441774,4,42.1,249.13113403320312,0.053700003772974014,21,31.339110555761884,9.324389888310735E-4,1.57542003E9,,,,0,,1,0.0,1.57542003E9,367.0,NaN,NaN
Raw,233109919891193,649914427000000,,,-1265581155230407226,-0.41348838806152344,1001.3600112870336,5.054375572861716,8.745990064924026,168,30,0.0,16399,384669578316859,17,28.2,607.0609130859375,0.12439999729394913,19,72.17326934451445,0.002074201012354331,1.57542003E9,,,,0,,1,0.0,1.57542003E9,367.0,NaN,NaN
Raw,233109919891193,649914427000000,,,-1265581155230407226,-0.41348838806152344,1001.3600112870336,5.054375572861716,8.745990064924026,168,14,0.0,49359,49851593544632,5,40.9,44.28615951538086,0.2393999993801117,21,5.0334614835048885,-6.9211246400369992E18,1.59806246E9,,,,0,,3,0.0,1.59806246E9,367.0,NaN,NaN
Raw,233109919891193,649914427000000,,,-1265581155230407226,-0.41348838806152344,1001.3600112870336,5.054375572861716,8.745990064924026,168,13,0.0,49359,49851585227392,16,29.8,673.4722290039062,0.3119000196456909,21,84.83405104496634,-6.908965060130815E18,1.60087501E9,,,,0,,3,0.0,1.60087501E9,367.0,NaN,NaN
Raw,233109919891193,649914427000000,,,-1265581155230407226,-0.41348838806152344,1001.3600112870336,5.054375572861716,8.745990064924026,168,15,0.0,49359,49851586604462,14,30.6,-614.4006958007812,0.30250000953674316,21,-78.02550201923131,-6.9041132933262418E18,1.602E9,,,,0,,3,0.0,1.602E9,367.0,NaN,NaN
Raw,233109919891193,649914427000000,,,-1265581155230407226,-0.41348838806152344,1001.3600112870336,5.054375572861716,8.745990064924026,168,5,0.0,49359,49851589316464,10,34.5,-497.7645263671875,0.28210002183914185,21,-64.68371600105856,-6.9016896887374172E18,1.60256256E9,,,,0,,3,0.0,1.60256256E9,367.0,NaN,NaN
Raw,233109919891193,649914427000000,,,-1265581155230407226,-0.41348838806152344,1001.3600112870336,5.054375572861716,8.745990064924026,168,3,0.0,49359,49851581734833,12,32.1,804.4204711914062,0.2800000011920929,21,98.21293101475291,-6.8920133614737244E18,1.60481254E9,,,,0,,3,0.0,1.60481254E9,367.0,NaN,NaN
Raw,233109919891193,649914427000000,,,-1265581155230407226,-0.41348838806152344,1001.3600112870336,5.054375572861716,8.745990064924026,168,4,0.0,49359,49851592535932,5,41.1,290.22540283203125,0.23589999973773956,21,32.85144568932206,-6.889598792343851E18,1.60537498E9,,,,0,,3,0.0,1.60537498E9,367.0,NaN,NaN
Raw,233109919891193,649914427000000,,,-1265581155230407226,-0.41348838806152344,1001.3600112870336,5.054375572861716,8.745990064924026,168,1,0.0,23567,384669572275905,8,36.8,418.4593200683594,0.07249999791383743,21,54.028260889103116,0.003311109885939926,1.57542003E9,,,,0,,6,0.0,1.57542003E9,367.0,NaN,NaN
Raw,233109919891193,649914427000000,,,-1265581155230407226,-0.41348838806152344,1001.3600112870336,5.054375572861716,8.745990064924026,168,4,0.0,23567,384669570091188,11,33.3,524.2927856445312,0.08820000290870667,21,68.74884060666267,0.0021883771969841777,1.57542003E9,,,,0,,6,0.0,1.57542003E9,367.0,NaN,NaN
Raw,233109919891193,649914427000000,,,-1265581155230407226,-0.41348838806152344,1001.3600112870336,5.054375572861716,8.745990064924026,168,5,0.0,23567,384669573035346,7,37.5,-396.9815979003906,0.07100000232458115,21,-51.60367822446447,0.0025499350854412276,1.57542003E9,,,,0,,6,0.0,1.57542003E9,367.0,NaN,NaN
Raw,233109919891193,649914427000000,,,-1265581155230407226,-0.41348838806152344,1001.3600112870336,5.054375572861716,8.745990064924026,168,9,0.0,23567,384669585548479,6,39.0,102.41964721679688,0.06540000438690186,21,13.235408349955602,0.003596550258902148,1.57542003E9,,,,0,,6,0.0,1.57542003E9,367.0,NaN,NaN
Raw,233109919891193,649914427000000,,,-1265581155230407226,-0.41348838806152344,1001.3600112870336,5.054375572861716,8.745990064924026,168,24,0.0,23567,384669576590494,19,27.0,-530.3930053710938,0.20570001006126404,21,-68.38935410028046,190.10337526417845,1.57542003E9,,,,0,,6,0.0,1.57542003E9,367.0,NaN,NaN
Raw,233109919891193,649914427000000,,,-1265581155230407226,-0.41348838806152344,1001.3600112870336,5.054375572861716,8.745990064924026,168,31,0.0,23567,384669578863342,8,36.4,-98.26347351074219,0.0755000039935112,21,-12.812179446001775,0.0025499350854412276,1.57542003E9,,,,0,,6,0.0,1.57542003E9,367.0,NaN,NaN
Fix,gps,51.524676,-0.134154,77.464355,0.000000,3.790092,1582195853000,233110913627750
Raw,233110925381710,649915418000000,,,-1265581155229483030,-0.8854579925537109,1001.2721177190542,11.546279565385156,8.773555222584662,169,5,0.0,16399,384670565147276,14,30.8,732.001220703125,0.10100000351667404,21,92.29806106358474,0.19029366893311156,1.57542003E9,,,,0,,1,0.0,1.57542003E9,367.0,NaN,NaN
Raw,233110925381710,649915418000000,,,-1265581155229483030,-0.8854579925537109,1001.2721177190542,11.546279565385156,8.773555222584662,169,13,0.0,16399,384670579068972,8,36.4,274.3609619140625,0.05900000035762787,21,33.01152530697158,0.001160791358090767,1.57542003E9,,,,0,,1,0.0,1.57542003E9,367.0,NaN,NaN
Raw,233110925381710,649915418000000,,,-1265581155229483030,-0.8854579925537109,1001.2721177190542,11.546279565385156,8.773555222584662,169,15,0.0,16399,384670579951658,5,40.5,-51.04930877685547,0.04840000346302986,21,-6.035129712090523,0.001160791358090767,1.57542003E9,,,,0,,1,0.0,1.57542003E9,367.0,NaN,NaN
Raw,233110925381710,649915418000000,,,-1265581155229483030,-0.8854579925537109,1001.2721177190542,11.546279565385156,8.773555222584662,169,17,0.0,16399,384670565998455,6,39.1,-515.7722778320312,0.05940000340342522,21,-64.97217505294853,9.324389888310735E-4,1.57542003E9,,,,0,,1,0.0,1.57542003E9,367.0,NaN,NaN
Raw,233110925381710,649915418000000,,,-1265581155229483030,-0.8854579925537109,1001.2721177190542,11.546279565385156,8.773555222584662,169,20,0.0,16399,384670571472687,6,38.0,-293.7358703613281,0.0414000004529953,21,-32.83704455817856,7.42145288706399E-4,1.57542003E9,,,,0,,1,0.0,1.57542003E9,367.0,NaN,NaN
Raw,233110925381710,649915418000000,,,-1265581155229483030,-0.8854579925537109,1001.2721177190542,11.546279565385156,8.773555222584662,169,24,0.0,16399,384670572980391,16,29.7,-557.8008422851562,0.09239999949932098,21,-63.008030853328776,0.0030066398239606148,1.57542003E9,,,,0,,1,0.0,1.57542003E9,367.0,NaN,NaN
Raw,233110925381710,649915418000000,,,-1265581155229483030,-0.8854579925537109,1001.2721177190542,11.546279565385156,8.773555222584662,169,28,0.0,16399,384670575516794,5,41.8,248.11758422851562,0.040400002151727676,21,28.77085270121585,9.324389888310735E-4,1.57542003E9,,,,0,,1,0.0,1.57542003E9,367.0,NaN,NaN
Raw,233110925381710,649915418000000,,,-1265581155229483030,-0.8854579925537109,1001.2721177190542,11.546279565385156,8.773555222584662,169,30,0.0,16399,384670568390723,16,29.2,605.9363403320312,0.08639999479055405,21,65.97933143039518,0.002074201012354331,1.57542003E9,,,,0,,1,0.0,1.57542003E9,367.0,NaN,NaN
Raw,233110925381710,649915418000000,,,-1265581155229483030,-0.8854579925537109,1001.2721177190542,11.546279565385156,8.773555222584662,169,14,0.0,49359,49852583620306,5,40.6,43.29838180541992,0.25440001487731934,21,5.32970309684535,-6.9211246400369992E18,1.59806246E9,,,,0,,3,0.0,1.59806246E9,367.0,NaN,NaN
Raw,233110925381710,649915418000000,,,-1265581155229483030,-0.8854579925537109,1001.2721177190542,11.546279565385156,8.773555222584662,169,22,0.0,49359,49852570190698,31,23.4,-75.50485229492188,0.8664999604225159,16,0.0,0.0,1.60031245E9,,,,0,,3,0.0,1.60031245E9,367.0,NaN,NaN
Raw,233110925381710,649915418000000,,,-1265581155229483030,-0.8854579925537109,1001.2721177190542,11.546279565385156,8.773555222584662,169,13,0.0,49359,49852575300987,21,26.9,672.2407836914062,0.4732000231742859,21,77.97612670786081,-6.908965060130815E18,1.60087501E9,,,,0,,3,0.0,1.60087501E9,367.0,NaN,NaN
Raw,233110925381710,649915418000000,,,-1265581155229483030,-0.8854579925537109,1001.2721177190542,11.546279565385156,8.773555222584662,169,5,0.0,49359,49852579393971,10,34.5,-498.80908203125,0.2671000063419342,21,-59.77006366345746,-6.9016896887374172E18,1.60256256E9,,,,0,,3,0.0,1.60256256E9,367.0,NaN,NaN
Raw,233110925381710,649915418000000,,,-1265581155229483030,-0.8854579925537109,1001.2721177190542,11.546279565385156,8.773555222584662,169,3,0.0,49359,49852571807949,13,31.9,803.36572265625,0.27160000801086426,21,89.93228241274836,-6.8920133614737244E18,1.60481254E9,,,,0,,3,0.0,1.60481254E9,367.0,NaN,NaN
Raw,233110925381710,649915418000000,,,-1265581155229483030,-0.8854579925537109,1001.2721177190542,11.546279565385156,8.773555222584662,169,4,0.0,49359,49852582610788,5,41.5,289.240966796875,0.250900000333786,21,35.648246980745355,-6.889598792343851E18,1.60537498E9,,,,0,,3,0.0,1.60537498E9,367.0,NaN,NaN
Raw,233110925381710,649915418000000,,,-1265581155229483030,-0.8854579925537109,1001.2721177190542,11.546279565385156,8.773555222584662,169,1,0.0,23567,384670562350325,6,38.9,417.4735107421875,0.06390000134706497,21,53.09067925512592,0.003311109885939926,1.57542003E9,,,,0,,6,0.0,1.57542003E9,367.0,NaN,NaN
Raw,233110925381710,649915418000000,,,-1265581155229483030,-0.8854579925537109,1001.2721177190542,11.546279565385156,8.773555222584662,169,4,0.0,23567,384670560165293,12,32.5,523.3443603515625,0.08449999988079071,21,65.4345567863685,0.0021883771969841777,1.57542003E9,,,,0,,6,0.0,1.57542003E9,367.0,NaN,NaN
Raw,233110925381710,649915418000000,,,-1265581155229483030,-0.8854579925537109,1001.2721177190542,11.546279565385156,8.773555222584662,169,5,0.0,23567,384670563112499,7,37.3,-398.05487060546875,0.06200000271201134,21,-49.42942801953851,0.0025499350854412276,1.57542003E9,,,,0,,6,0.0,1.57542003E9,367.0,NaN,NaN
Raw,233110925381710,649915418000000,,,-1265581155229483030,-0.8854579925537109,1001.2721177190542,11.546279565385156,8.773555222584662,169,9,0.0,23567,384670575623973,6,39.4,101.34103393554688,0.05640000104904175,21,12.592489214808548,0.003596550258902148,1.57542003E9,,,,0,,6,0.0,1.57542003E9,367.0,NaN,NaN
Raw,233110925381710,649915418000000,,,-1265581155229483030,-0.8854579925537109,1001.2721177190542,11.546279565385156,8.773555222584662,169,24,0.0,23567,384670566667900,16,29.6,-531.4767456054688,0.10740000009536743,21,-65.39463884487593,190.10337526417845,1.57542003E9,,,,0,,6,0.0,1.57542003E9,367.0,NaN,NaN
Raw,233110925381710,649915418000000,,,-1265581155229483030,-0.8854579925537109,1001.2721177190542,11.546279565385156,8.773555222584662,169,31,0.0,23567,384670568939523,7,37.0,-99.28740692138672,0.06350000202655792,21,-12.307567920495126,0.0025499350854412276,1.57542003E9,,,,0,,6,0.0,1.57542003E9,367.0,NaN,NaN
Fix,gps,51.524677,-0.134155,77.567688,0.000000,3.790092,1582195854000,233111902408161
Raw,233111917734621,649916411000000,,,-1265581155229110597,-0.8563427925109863,1000.9394027292728,7.946395310841365,6.801657520691108,170,5,0.0,16399,384671557772439,14,30.6,731.5951538085938,0.08900000154972076,21,86.23549194071632,0.19029366893311156,1.57542003E9,,,,0,,1,0.0,1.57542003E9,367.0,NaN,NaN
Raw,233111917734621,649916411000000,,,-1265581155229110597,-0.8563427925109863,1000.9394027292728,7.946395310841365,6.801657520691108,170,13,0.0,16399,384671571695639,8,36.1,274.0052185058594,0.04699999839067459,21,30.61768976524311,0.001160791358090767,1.57542003E9,,,,0,,1,0.0,1.57542003E9,367.0,NaN,NaN
Raw,233111917734621,649916411000000,,,-1265581155229110597,-0.8563427925109863,1000.9394027292728,7.946395310841365,6.801657520691108,170,15,0.0,16399,384671572579380,5,41.0,-51.349395751953125,0.03590000048279762,21,-5.786138693749126,0.001160791358090767,1.57542003E9,,,,0,,1,0.0,1.57542003E9,367.0,NaN,NaN
Raw,233111917734621,649916411000000,,,-1265581155229110597,-0.8563427925109863,1000.9394027292728,7.946395310841365,6.801657520691108,170,17,0.0,16399,384671558627771,8,36.6,-516.1526489257812,0.057500001043081284,21,-61.455156145295334,9.324389888310735E-4,1.57542003E9,,,,0,,1,0.0,1.57542003E9,367.0,NaN,NaN
Raw,233111917734621,649916411000000,,,-1265581155229110597,-0.8563427925109863,1000.9394027292728,7.946395310841365,6.801657520691108,170,20,0.0,16399,384671564101238,8,36.6,-293.9905090332031,0.06650000065565109,21,-36.73429801010704,7.42145288706399E-4,1.57542003E9,,,,0,,1,0.0,1.57542003E9,367.0,NaN,NaN
Raw,233111917734621,649916411000000,,,-1265581155229110597,-0.8563427925109863,1000.9394027292728,7.946395310841365,6.801657520691108,170,24,0.0,16399,384671565609827,17,28.5,-558.1671142578125,0.13490000367164612,21,-70.2813774175003,0.0030066398239606148,1.57542003E9,,,,0,,1,0.0,1.57542003E9,367.0,NaN,NaN
Raw,233111917734621,649916411000000,,,-1265581155229110597,-0.8563427925109863,1000.9394027292728,7.946395310841365,6.801657520691108,170,28,0.0,16399,384671568143553,5,41.7,247.84713745117188,0.05990000069141388,21,31.99429035706296,9.324389888310735E-4,1.57542003E9,,,,0,,1,0.0,1.57542003E9,367.0,NaN,NaN
Raw,233111917734621,649916411000000,,,-1265581155229110597,-0.8563427925109863,1000.9394027292728,7.946395310841365,6.801657520691108,170,30,0.0,16399,384671561016235,17,28.8,605.478515625,0.12890000641345978,21,73.95784813956404,0.002074201012354331,1.57542003E9,,,,0,,1,0.0,1.57542003E9,367.0,NaN,NaN
Raw,233111917734621,649916411000000,,,-1265581155229110597,-0.8563427925109863,1000.9394027292728,7.946395310841365,6.801657520691108,170,14,0.0,49359,49853576247706,5,40.7,43.01284408569336,0.24390000104904175,21,5.058992971081149,-6.9211246400369992E18,1.59806246E9,,,,0,,3,0.0,1.59806246E9,367.0,NaN,NaN
Raw,233111917734621,649916411000000,,,-1265581155229110597,-0.8563427925109863,1000.9394027292728,7.946395310841365,6.801657520691108,170,22,0.0,49359,49853562818513,27,24.9,-75.53295135498047,0.8345000147819519,16,0.0,0.0,1.60031245E9,,,,0,,3,0.0,1.60031245E9,367.0,NaN,NaN
Raw,233111917734621,649916411000000,,,-1265581155229110597,-0.8563427925109863,1000.9394027292728,7.946395310841365,6.801657520691108,170,13,0.0,49359,49853567926373,24,25.9,671.9544677734375,1.4010001420974731,21,86.07128172889966,-6.908965060130815E18,1.60087501E9,,,,0,,3,0.0,1.60087501E9,367.0,NaN,NaN
Raw,233111917734621,649916411000000,,,-1265581155229110597,-0.8563427925109863,1000.9394027292728,7.946395310841365,6.801657520691108,170,15,0.0,49359,49853569312060,24,25.4,-616.2332763671875,1.4040000438690186,19,-80.1253564499584,-6.9041132933262418E18,1.602E9,,,,0,,3,0.0,1.602E9,367.0,NaN,NaN
Raw,233111917734621,649916411000000,,,-1265581155229110597,-0.8563427925109863,1000.9394027292728,7.946395310841365,6.801657520691108,170,5,0.0,49359,49853572023181,8,36.0,-499.1062316894531,0.2485000044107437,21,-56.47388358520527,-6.9016896887374172E18,1.60256256E9,,,,0,,3,0.0,1.60256256E9,367.0,NaN,NaN
Raw,233111917734621,649916411000000,,,-1265581155229110597,-0.8563427925109863,1000.9394027292728,7.946395310841365,6.801657520691108,170,3,0.0,49359,49853564432893,14,30.0,803.1444091796875,0.2994999885559082,21,100.3560340181154,-6.8920133614737244E18,1.60481254E9,,,,0,,3,0.0,1.60481254E9,367.0,NaN,NaN
Raw,233111917734621,649916411000000,,,-1265581155229110597,-0.8563427925109863,1000.9394027292728,7.946395310841365,6.801657520691108,170,4,0.0,49359,49853575237417,5,41.9,288.9463195800781,0.24040000140666962,21,33.56578819157734,-6.889598792343851E18,1.60537498E9,,,,0,,3,0.0,1.60537498E9,367.0,NaN,NaN
Raw,233111917734621,649916411000000,,,-1265581155229110597,-0.8563427925109863,1000.9394027292728,7.946395310841365,6.801657520691108,170,1,0.0,23567,384671554976518,6,38.7,417.1485290527344,0.06390000134706497,21,52.943938898680024,0.003311109885939926,1.57542003E9,,,,0,,6,0.0,1.57542003E9,367.0,NaN,NaN
Raw,233111917734621,649916411000000,,,-1265581155229110597,-0.8563427925109863,1000.9394027292728,7.946395310841365,6.801657520691108,170,4,0.0,23567,384671552791112,11,33.8,522.8517456054688,0.0852000042796135,21,67.45793401362803,0.0021883771969841777,1.57542003E9,,,,0,,6,0.0,1.57542003E9,367.0,NaN,NaN
Raw,233111917734621,649916411000000,,,-1265581155229110597,-0.8563427925109863,1000.9394027292728,7.946395310841365,6.801657520691108,170,5,0.0,23567,384671555741380,7,37.8,-398.4107360839844,0.06800000369548798,21,-50.98561579331067,0.0025499350854412276,1.57542003E9,,,,0,,6,0.0,1.57542003E9,367.0,NaN,NaN
Raw,233111917734621,649916411000000,,,-1265581155229110597,-0.8563427925109863,1000.9394027292728,7.946395310841365,6.801657520691108,170,9,0.0,23567,384671568251208,6,38.9,101.07499694824219,0.06689999997615814,21,12.97622755839461,0.003596550258902148,1.57542003E9,,,,0,,6,0.0,1.57542003E9,367.0,NaN,NaN
Raw,233111917734621,649916411000000,,,-1265581155229110597,-0.8563427925109863,1000.9394027292728,7.946395310841365,6.801657520691108,170,24,0.0,23567,384671559297256,14,30.0,-531.5912475585938,0.10400000214576721,21,-68.06576107516835,190.10337526417845,1.57542003E9,,,,0,,6,0.0,1.57542003E9,367.0,NaN,NaN
Raw,233111917734621,649916411000000,,,-1265581155229110597,-0.8563427925109863,1000.9394027292728,7.946395310841365,6.801657520691108,170,31,0.0,23567,384671561567412,7,37.1,-99.65245056152344,0.0650000050663948,21,-12.51999811691198,0.0025499350854412276,1.57542003E9,,,,0,,6,0.0,1.57542003E9,367.0,NaN,NaN
Fix,gps,51.524678,-0.134157,77.098328,0.000000,3.790092,1582195855000,233112908792324
Raw,233112920954513,649917427000000,,,-1265581155228548731,0.3285942077636719,1001.3217106461525,6.6923790593371315,8.794348581466256,171,5,0.0,16399,384672573208100,14,30.3,731.2360229492188,0.08299999684095383,21,83.40889009051864,0.19029366893311156,1.57542003E9,,,,0,,1,0.0,1.57542003E9,367.0,NaN,NaN
Raw,233112920954513,649917427000000,,,-1265581155228548731,0.3285942077636719,1001.3217106461525,6.6923790593371315,8.794348581466256,171,13,0.0,16399,384672587132838,8,36.8,273.83404541015625,0.07100000232458115,21,35.07662182818439,0.001160791358090767,1.57542003E9,,,,0,,1,0.0,1.57542003E9,367.0,NaN,NaN
Raw,233112920954513,649917427000000,,,-1265581155228548731,0.3285942077636719,1001.3217106461525,6.6923790593371315,8.794348581466256,171,15,0.0,16399,384672588017710,5,41.3,-51.55780792236328,0.05990000069141388,21,-6.599243034428404,0.001160791358090767,1.57542003E9,,,,0,,1,0.0,1.57542003E9,367.0,NaN,NaN
Raw,233112920954513,649917427000000,,,-1265581155228548731,0.3285942077636719,1001.3217106461525,6.6923790593371315,8.794348581466256,171,17,0.0,16399,384672574067690,10,34.3,-516.466796875,0.05959999933838844,21,-59.47525310603452,9.324389888310735E-4,1.57542003E9,,,,0,,1,0.0,1.57542003E9,367.0,NaN,NaN
Raw,233112920954513,649917427000000,,,-1265581155228548731,0.3285942077636719,1001.3217106461525,6.6923790593371315,8.794348581466256,171,20,0.0,16399,384672579540499,13,31.5,-294.24102783203125,0.0835999995470047,21,-35.385336545807284,7.42145288706399E-4,1.57542003E9,,,,0,,1,0.0,1.57542003E9,367.0,NaN,NaN
Raw,233112920954513,649917427000000,,,-1265581155228548731,0.3285942077636719,1001.3217106461525,6.6923790593371315,8.794348581466256,171,24,0.0,16399,384672581049794,17,28.7,-558.3621826171875,0.12890000641345978,21,-68.11927681407936,0.0030066398239606148,1.57542003E9,,,,0,,1,0.0,1.57542003E9,367.0,NaN,NaN
Raw,233112920954513,649917427000000,,,-1265581155228548731,0.3285942077636719,1001.3217106461525,6.6923790593371315,8.794348581466256,171,28,0.0,16399,384672583580847,5,41.7,247.62112426757812,0.052400000393390656,21,30.687779543800573,9.324389888310735E-4,1.57542003E9,,,,0,,1,0.0,1.57542003E9,367.0,NaN,NaN
Raw,233112920954513,649917427000000,,,-1265581155228548731,0.3285942077636719,1001.3217106461525,6.6923790593371315,8.794348581466256,171,30,0.0,16399,384672576452292,17,28.3,605.3499755859375,0.12139999866485596,21,70.83664186355531,0.002074201012354331,1.57542003E9,,,,0,,1,0.0,1.57542003E9,367.0,NaN,NaN
Raw,233112920954513,649917427000000,,,-1265581155228548731,0.3285942077636719,1001.3217106461525,6.6923790593371315,8.794348581466256,171,14,0.0,49359,49854591685725,6,39.6,42.81062698364258,0.23840001225471497,21,4.817439836063915,-6.9211246400369992E18,1.59806246E9,,,,0,,3,0.0,1.59806246E9,367.0,NaN,NaN
Raw,233112920954513,649917427000000,,,-1265581155228548731,0.3285942077636719,1001.3217106461525,6.6923790593371315,8.794348581466256,171,22,0.0,49359,49854578256925,19,27.6,-75.10832977294922,0.39070001244544983,19,-9.02031339046399,-6.9113937779659387E18,1.60031245E9,,,,0,,3,0.0,1.60031245E9,367.0,NaN,NaN
Raw,233112920954513,649917427000000,,,-1265581155228548731,0.3285942077636719,1001.3217106461525,6.6923790593371315,8.794348581466256,171,13,0.0,49359,49854583362147,17,28.0,671.7410278320312,0.3319000005722046,21,83.23837794749475,-6.908965060130815E18,1.60087501E9,,,,0,,3,0.0,1.60087501E9,367.0,NaN,NaN
Raw,233112920954513,649917427000000,,,-1265581155228548731,0.3285942077636719,1001.3217106461525,6.6923790593371315,8.794348581466256,171,15,0.0,49359,49854584752201,14,30.7,-616.08935546875,0.2994999885559082,21,-76.93322169471357,-6.9041132933262418E18,1.602E9,,,,0,,3,0.0,1.602E9,367.0,NaN,NaN
Raw,233112920954513,649917427000000,,,-1265581155228548731,0.3285942077636719,1001.3217106461525,6.6923790593371315,8.794348581466256,171,5,0.0,49359,49854587462919,8,36.7,-499.27679443359375,0.2709999978542328,21,-63.9746095059314,-6.9016896887374172E18,1.60256256E9,,,,0,,3,0.0,1.60256256E9,367.0,NaN,NaN
Raw,233112920954513,649917427000000,,,-1265581155228548731,0.3285942077636719,1001.3217106461525,6.6923790593371315,8.794348581466256,171,3,0.0,49359,49854579868102,17,28.0,802.7232055664062,0.32590001821517944,21,96.31142529014846,-6.8920133614737244E18,1.60481254E9,,,,0,,3,0.0,1.60481254E9,367.0,NaN,NaN
Raw,233112920954513,649917427000000,,,-1265581155228548731,0.3285942077636719,1001.3217106461525,6.6923790593371315,8.794348581466256,171,4,0.0,49359,49854590674560,4,42.1,288.83966064453125,0.23120000958442688,21,32.03288911795518,-6.889598792343851E18,1.60537498E9,,,,0,,3,0.0,1.60537498E9,367.0,NaN,NaN
Raw,233112920954513,649917427000000,,,-1265581155228548731,0.3285942077636719,1001.3217106461525,6.6923790593371315,8.794348581466256,171,1,0.0,23567,384672570413258,6,38.3,416.8529968261719,0.06390000134706497,21,52.8682225704861,0.003311109885939926,1.57542003E9,,,,0,,6,0.0,1.57542003E9,367.0,NaN,NaN
Raw,233112920954513,649917427000000,,,-1265581155228548731,0.3285942077636719,1001.3217106461525,6.6923790593371315,8.794348581466256,171,4,0.0,23567,384672568227482,11,33.2,522.6603393554688,0.0852000042796135,21,67.33571063401375,0.0021883771969841777,1.57542003E9,,,,0,,6,0.0,1.57542003E9,367.0,NaN,NaN
Raw,233112920954513,649917427000000,,,-1265581155228548731,0.3285942077636719,1001.3217106461525,6.6923790593371315,8.794348581466256,171,5,0.0,23567,384672571180873,7,37.1,-398.69482421875,0.06800000369548798,21,-51.09908248755988,0.0025499350854412276,1.57542003E9,,,,0,,6,0.0,1.57542003E9,367.0,NaN,NaN
Raw,233112920954513,649917427000000,,,-1265581155228548731,0.3285942077636719,1001.3217106461525,6.6923790593371315,8.794348581466256,171,9,0.0,23567,384672583689008,6,38.4,100.82091522216797,0.06540000438690186,21,12.900335559317957,0.003596550258902148,1.57542003E9,,,,0,,6,0.0,1.57542003E9,367.0,NaN,NaN
Raw,233112920954513,649917427000000,,,-1265581155228548731,0.3285942077636719,1001.3217106461525,6.6923790593371315,8.794348581466256,171,24,0.0,23567,384672574737248,14,30.7,-532.1181640625,0.10249999910593033,21,-67.67438231853092,190.10337526417845,1.57542003E9,,,,0,,6,0.0,1.57542003E9,367.0,NaN,NaN
Raw,233112920954513,649917427000000,,,-1265581155228548731,0.3285942077636719,1001.3217106461525,6.6923790593371315,8.794348581466256,171,31,0.0,23567,384672577005898,9,35.9,-99.89020538330078,0.07800000160932541,21,-12.938542705963975,0.0025499350854412276,1.57542003E9,,,,0,,6,0.0,1.57542003E9,367.0,NaN,NaN
Fix,gps,51.524679,-0.134156,77.344055,0.000000,3.790092,1582195856000,233113914058310
Raw,233113935735864,649918418000000,,,-1265581155227694309,0.8680667877197266,1001.2704879045486,5.306270184227093,8.813837683154942,172,5,0.0,16399,384673563351294,14,30.5,732.750732421875,0.09799999743700027,21,90.8849078617282,0.19029366893311156,1.57542003E9,,,,0,,1,0.0,1.57542003E9,367.0,NaN,NaN
Raw,233113935735864,649918418000000,,,-1265581155227694309,0.8680667877197266,1001.2704879045486,5.306270184227093,8.813837683154942,172,13,0.0,16399,384673577277581,9,35.0,275.3006896972656,0.06000000238418579,21,32.499047972508244,0.001160791358090767,1.57542003E9,,,,0,,1,0.0,1.57542003E9,367.0,NaN,NaN
Raw,233113935735864,649918418000000,,,-1265581155227694309,0.8680667877197266,1001.2704879045486,5.306270184227093,8.813837683154942,172,15,0.0,16399,384673578163473,5,40.7,-50.02497100830078,0.04690000042319298,21,-5.96239380012288,0.001160791358090767,1.57542003E9,,,,0,,1,0.0,1.57542003E9,367.0,NaN,NaN
Raw,233113935735864,649918418000000,,,-1265581155227694309,0.8680667877197266,1001.2704879045486,5.306270184227093,8.813837683154942,172,17,0.0,16399,384673564214952,6,38.3,-514.9345092773438,0.0609000027179718,21,-64.32473928874225,9.324389888310735E-4,1.57542003E9,,,,0,,1,0.0,1.57542003E9,367.0,NaN,NaN
Raw,233113935735864,649918418000000,,,-1265581155227694309,0.8680667877197266,1001.2704879045486,5.306270184227093,8.813837683154942,172,20,0.0,16399,384673569686943,6,38.0,-292.619873046875,0.06840000301599503,21,-38.056254068707446,7.42145288706399E-4,1.57542003E9,,,,0,,1,0.0,1.57542003E9,367.0,NaN,NaN
Raw,233113935735864,649918418000000,,,-1265581155227694309,0.8680667877197266,1001.2704879045486,5.306270184227093,8.813837683154942,172,24,0.0,16399,384673571197248,14,30.0,-556.9445190429688,0.07999999821186066,21,-62.38166325453329,0.0030066398239606148,1.57542003E9,,,,0,,1,0.0,1.57542003E9,367.0,NaN,NaN
Raw,233113935735864,649918418000000,,,-1265581155227694309,0.8680667877197266,1001.2704879045486,5.306270184227093,8.813837683154942,172,28,0.0,16399,384673573725618,4,42.9,249.08033752441406,0.0357000008225441,21,28.338375668972965,9.324389888310735E-4,1.57542003E9,,,,0,,1,0.0,1.57542003E9,367.0,NaN,NaN
Raw,233113935735864,649918418000000,,,-1265581155227694309,0.8680667877197266,1001.2704879045486,5.306270184227093,8.813837683154942,172,30,0.0,16399,384673566595877,16,29.6,606.7933349609375,0.11339999735355377,21,77.14157365017994,0.002074201012354331,1.57542003E9,,,,0,,1,0.0,1.57542003E9,367.0,NaN,NaN
Raw,233113935735864,649918418000000,,,-1265581155227694309,0.8680667877197266,1001.2704879045486,5.306270184227093,8.813837683154942,172,14,0.0,49359,49855581831175,6,39.9,44.36500549316406,0.2533999979496002,21,5.394073970718627,-6.9211246400369992E18,1.59806246E9,,,,0,,3,0.0,1.59806246E9,367.0,NaN,NaN
