# 
# Header Description:
# 
# Version: v2.0.0.1 Platform: 10 Manufacturer: Google Model: Pixel 4
# 
# Raw,ElapsedRealtimeNanos,TimeNanos,LeapSecond,TimeUncertaintyNanos,FullBiasNanos,BiasNanos,BiasUncertaintyNanos,DriftNanosPerSecond,DriftUncertaintyNanosPerSecond,HardwareClockDiscontinuityCount,Svid,TimeOffsetNanos,State,ReceivedSvTimeNanos,ReceivedSvTimeUncertaintyNanos,Cn0DbHz,PseudorangeRateMetersPerSecond,PseudorangeRateUncertaintyMetersPerSecond,AccumulatedDeltaRangeState,AccumulatedDeltaRangeMeters,AccumulatedDeltaRangeUncertaintyMeters,CarrierFrequencyHz,CarrierCycles,CarrierPhase,CarrierPhaseUncertainty,MultipathIndicator,SnrInDb,ConstellationType,AgcDb,CarrierFrequencyHz,UserLatitude,UserLongitude,UserAltitude
# 
# Fix,Provider,Latitude,Longitude,Altitude,Speed,Accuracy,(UTC)TimeInMs,ElapsedRealtimeNanos
# 
# Nav,Svid,Type,Status,MessageId,Sub-messageId,Data(Bytes)
# 
Fix,gps,51.524750,-0.134132,76.443481,0.000000,3.790092,1582195412000,232669900566890
Raw,232669914609965,649474202000000,,,-1265581155242092245,-0.8469867706298828,39.02386742993258,24.712646974615684,10.507061749092722,145,5,0.0,16399,384229362828378,17,28.7,733.5726928710938,0.028200000524520874,25,10278.183438820848,0.0030066398239606148,1.57542003E9,,,,0,,1,0.0,1.57542003E9,358.0,NaN,NaN
Raw,232669914609965,649474202000000,,,-1265581155242092245,-0.8469867706298828,39.02386742993258,24.712646974615684,10.507061749092722,145,13,0.0,16399,384229376048502,7,37.9,238.5242462158203,0.04340000078082085,25,3451.43489789513,0.0010085564157135064,1.57542003E9,,,,0,,1,0.0,1.57542003E9,358.0,NaN,NaN
Raw,232669914609965,649474202000000,,,-1265581155242092245,-0.8469867706298828,39.02386742993258,24.712646974615684,10.507061749092722,145,15,0.0,16399,384229376446503,9,35.8,-94.42943572998047,0.04410000145435333,25,-1390.2542210942038,0.0013320557236479321,1.57542003E9,,,,0,,1,0.0,1.57542003E9,358.0,NaN,NaN
Raw,232669914609965,649474202000000,,,-1265581155242092245,-0.8469867706298828,39.02386742993258,24.712646974615684,10.507061749092722,145,17,0.0,16399,384229361831214,17,28.7,-528.7797241210938,0.02670000120997429,25,-7423.122698805894,0.0030066398239606148,1.57542003E9,,,,0,,1,0.0,1.57542003E9,358.0,NaN,NaN
Raw,232669914609965,649474202000000,,,-1265581155242092245,-0.8469867706298828,39.02386742993258,24.712646974615684,10.507061749092722,145,20,0.0,16399,384229367608865,11,33.0,-338.9492492675781,0.031700000166893005,25,-4940.852449266605,0.001655554942969963,1.57542003E9,,,,0,,1,0.0,1.57542003E9,358.0,NaN,NaN
Raw,232669914609965,649474202000000,,,-1265581155242092245,-0.8469867706298828,39.02386742993258,24.712646974615684,10.507061749092722,145,24,0.0,16399,384229368748742,17,28.1,-574.7330322265625,0.03720000013709068,25,-4238.775000486126,0.0030066398239606148,1.57542003E9,,,,0,,1,0.0,1.57542003E9,358.0,NaN,NaN
Raw,232669914609965,649474202000000,,,-1265581155242092245,-0.8469867706298828,39.02386742993258,24.712646974615684,10.507061749092722,145,28,0.0,16399,384229372453424,5,40.7,206.2054443359375,0.03660000115633011,25,3019.8723768048926,7.42145288706399E-4,1.57542003E9,,,,0,,1,0.0,1.57542003E9,358.0,NaN,NaN
Raw,232669914609965,649474202000000,,,-1265581155242092245,-0.8469867706298828,39.02386742993258,24.712646974615684,10.507061749092722,145,30,0.0,16399,384229365880509,14,30.9,599.9520263671875,0.030400000512599945,25,8825.281762904382,0.002397700231676362,1.57542003E9,,,,0,,1,0.0,1.57542003E9,358.0,NaN,NaN
Raw,232669914609965,649474202000000,,,-1265581155242092245,-0.8469867706298828,39.02386742993258,24.712646974615684,10.507061749092722,145,14,0.0,49359,49411380246657,6,39.5,-10.422212600708008,0.21880000829696655,25,-170.0441571878863,8.254288163121457E-4,1.59806246E9,,,,0,,3,-0.07,1.59806246E9,358.0,NaN,NaN
Raw,232669914609965,649474202000000,,,-1265581155242092245,-0.8469867706298828,39.02386742993258,24.712646974615684,10.507061749092722,145,22,0.0,49359,49411366633486,16,29.1,-141.62310791015625,0.232900008559227,21,-1652.6961078198372,0.00277253881595763,1.60031245E9,,,,0,,3,-0.07,1.60031245E9,358.0,NaN,NaN
Raw,232669914609965,649474202000000,,,-1265581155242092245,-0.8469867706298828,39.02386742993258,24.712646974615684,10.507061749092722,145,13,0.0,49359,49411372879687,31,23.6,654.052001953125,0.32919999957084656,21,8854.372498370625,0.18726787319550683,1.60087501E9,,,,0,,3,-0.07,1.60087501E9,358.0,NaN,NaN
Raw,232669914609965,649474202000000,,,-1265581155242092245,-0.8469867706298828,39.02386742993258,24.712646974615684,10.507061749092722,145,15,0.0,49359,49411372356410,40,21.8,-644.3198852539062,1.0045000314712524,16,0.0,0.0,1.602E9,,,,0,,3,-0.07,1.602E9,358.0,NaN,NaN
Raw,232669914609965,649474202000000,,,-1265581155242092245,-0.8469867706298828,39.02386742993258,24.712646974615684,10.507061749092722,145,5,0.0,49359,49411375229685,5,40.7,-541.7556762695312,0.241100013256073,25,-7792.110074141729,7.295756082573676E-4,1.60256256E9,,,,0,,3,-0.07,1.60256256E9,358.0,NaN,NaN
Raw,232669914609965,649474202000000,,,-1265581155242092245,-0.8469867706298828,39.02386742993258,24.712646974615684,10.507061749092722,145,3,0.0,49359,49411369579357,6,38.4,784.9967651367188,0.23260000348091125,25,11252.302694718479,9.153611536216265E-4,1.60481254E9,,,,0,,3,-0.07,1.60481254E9,358.0,NaN,NaN
Raw,232669914609965,649474202000000,,,-1265581155242092245,-0.8469867706298828,39.02386742993258,24.712646974615684,10.507061749092722,145,4,0.0,49359,49411379593135,7,37.0,227.4384765625,0.21790000796318054,25,3238.8192949137174,9.897376030341073E-4,1.60537498E9,,,,0,,3,-0.07,1.60537498E9,358.0,NaN,NaN
Raw,232669914609965,649474202000000,,,-1265581155242092245,-0.8469867706298828,39.02386742993258,24.712646974615684,10.507061749092722,145,37,0.0,16399,384215364370684,5,40.3,489.9286193847656,0.02460000105202198,25,7173.922107143645,7.489539839688142E-4,1.56109798E9,,,,0,,5,0.25,1.56109798E9,358.0,NaN,NaN
Raw,232669914609965,649474202000000,,,-1265581155242092245,-0.8469867706298828,39.02386742993258,24.712646974615684,10.507061749092722,145,22,0.0,16399,384215364333658,7,37.8,-388.90301513671875,0.02540000155568123,25,-5046.277296834463,0.0010178092579723537,1.56109798E9,,,,0,,5,0.25,1.56109798E9,358.0,NaN,NaN
Raw,232669914609965,649474202000000,,,-1265581155242092245,-0.8469867706298828,39.02386742993258,24.712646974615684,10.507061749092722,145,20,0.0,16399,384215360928645,40,21.6,647.6724243164062,0.8464999794960022,16,0.0,0.0,1.56109798E9,,,,0,,5,0.25,1.56109798E9,358.0,NaN,NaN
Raw,232669914609965,649474202000000,,,-1265581155242092245,-0.8469867706298828,39.02386742993258,24.712646974615684,10.507061749092722,145,19,0.0,16399,384215370509902,14,30.8,217.82017517089844,0.03790000081062317,25,2807.213362353951,0.0024196975554572116,1.56109798E9,,,,0,,5,0.25,1.56109798E9,358.0,NaN,NaN
Raw,232669914609965,649474202000000,,,-1265581155242092245,-0.8469867706298828,39.02386742993258,24.712646974615684,10.507061749092722,145,10,0.0,16399,384215311654486,19,27.4,177.75546264648438,0.04230000078678131,21,2296.2898693002185,0.0032646714781548623,1.56109798E9,,,,0,,5,0.25,1.56109798E9,358.0,NaN,NaN
Raw,232669914609965,649474202000000,,,-1265581155242092245,-0.8469867706298828,39.02386742993258,24.712646974615684,10.507061749092722,145,1,0.0,23567,384229359554519,10,34.5,400.2174987792969,0.04310000315308571,25,5847.802289052829,0.003311109885939926,1.57542003E9,,,,0,,6,-0.05,1.57542003E9,358.0,NaN,NaN
Raw,232669914609965,649474202000000,,,-1265581155242092245,-0.8469867706298828,39.02386742993258,24.712646974615684,10.507061749092722,145,4,0.0,23567,384229357529197,7,37.0,511.7925109863281,0.04490000009536743,25,7483.138166386195,0.0021883771969841777,1.57542003E9,,,,0,,6,-0.05,1.57542003E9,358.0,NaN,NaN
Raw,232669914609965,649474202000000,,,-1265581155242092245,-0.8469867706298828,39.02386742993258,24.712646974615684,10.507061749092722,145,5,0.0,23567,384229359118226,13,31.5,-412.2199401855469,0.05060000345110893,25,-6043.282519545033,0.004528989424958011,1.57542003E9,,,,0,,6,-0.05,1.57542003E9,358.0,NaN,NaN
Raw,232669914609965,649474202000000,,,-1265581155242092245,-0.8469867706298828,39.02386742993258,24.712646974615684,10.507061749092722,145,9,0.0,23567,384229372354432,10,34.4,73.03192901611328,0.044600002467632294,25,1056.4386290168186,0.003311109885939926,1.57542003E9,,,,0,,6,-0.05,1.57542003E9,358.0,NaN,NaN
Raw,232669914609965,649474202000000,,,-1265581155242092245,-0.8469867706298828,39.02386742993258,24.712646974615684,10.507061749092722,145,24,0.0,23567,384229362479300,40,21.3,-541.4520874023438,0.8134999871253967,16,0.0,0.0,1.57542003E9,,,,0,,6,-0.05,1.57542003E9,358.0,NaN,NaN
Raw,232669914609965,649474202000000,,,-1265581155242092245,-0.8469867706298828,39.02386742993258,24.712646974615684,10.507061749092722,145,31,0.0,23567,384229365373060,6,38.1,-129.8555145263672,0.044600002467632294,25,-1913.8658263188727,0.0020551716777868216,1.57542003E9,,,,0,,6,-0.05,1.57542003E9,358.0,NaN,NaN
Raw,232669914609965,649474202000000,,,-1265581155242092245,-0.8469867706298828,39.02386742993258,24.712646974615684,10.507061749092722,145,24,0.0,81935,384229368756597,4,30.9,-574.7909545898438,0.041200000792741776,25,-4198.930447116894,0.0032108332879374254,1.17645005E9,,,,0,,1,-0.61,1.17645005E9,358.0,NaN,NaN
Raw,232669914609965,649474202000000,,,-1265581155242092245,-0.8469867706298828,39.02386742993258,24.712646974615684,10.507061749092722,145,30,0.0,81935,384229365888283,3,32.4,600.0201416015625,0.0340999998152256,29,4415.906157068372,0.0024208662868967453,1.17645005E9,,,,0,,1,-0.61,1.17645005E9,358.0,NaN,NaN
Raw,232669914609965,649474202000000,,,-1265581155242092245,-0.8469867706298828,39.02386742993258,24.712646974615684,10.507061749092722,145,1,0.0,81935,384229359561575,2,36.4,400.610595703125,0.021400000900030136,25,3333.4835923597225,0.0015544510042033504,1.17645005E9,,,,0,,6,-0.61,1.17645005E9,358.0,NaN,NaN
Raw,232669914609965,649474202000000,,,-1265581155242092245,-0.8469867706298828,39.02386742993258,24.712646974615684,10.507061749092722,145,4,0.0,81935,384229357536302,4,29.0,512.0498046875,0.05650000274181366,29,4273.520045417089,0.0037714549693657518,1.17645005E9,,,,0,,6,-0.61,1.17645005E9,358.0,NaN,NaN
Raw,232669914609965,649474202000000,,,-1265581155242092245,-0.8469867706298828,39.02386742993258,24.712646974615684,10.507061749092722,145,5,0.0,81935,384229359125284,6,25.2,-412.1094970703125,0.058900002390146255,29,-3442.4473286667685,0.02346966281299121,1.17645005E9,,,,0,,6,-0.61,1.17645005E9,358.0,NaN,NaN
Raw,232669914609965,649474202000000,,,-1265581155242092245,-0.8469867706298828,39.02386742993258,24.712646974615684,10.507061749092722,145,9,0.0,81935,384229372361500,4,29.6,73.30884552001953,0.049000002443790436,29,604.9941453551326,0.0037714549693657518,1.17645005E9,,,,0,,6,-0.61,1.17645005E9,358.0,NaN,NaN
Raw,232669914609965,649474202000000,,,-1265581155242092245,-0.8469867706298828,39.02386742993258,24.712646974615684,10.507061749092722,145,24,0.0,81935,384229362486338,16,16.9,-542.7200317382812,1.8294999599456787,16,0.0,0.0,1.17645005E9,,,,0,,6,-0.61,1.17645005E9,358.0,NaN,NaN
Raw,232669914609965,649474202000000,,,-1265581155242092245,-0.8469867706298828,39.02386742993258,24.712646974615684,10.507061749092722,145,31,0.0,81935,384229365380142,5,27.8,-129.52816772460938,0.04350000247359276,29,-1089.0921948059636,0.004332076888121183,1.17645005E9,,,,0,,6,-0.61,1.17645005E9,358.0,NaN,NaN
Fix,gps,51.524747,-0.134134,76.458313,0.000000,3.790092,1582195413000,232670899539073
Raw,232670919117044,649475202000000,,,-1265581155242092224,-0.8363494873046875,38.20715210167691,24.638558803828207,10.612150681853864,145,5,0.0,16399,384230362825984,17,28.2,734.5505981445312,0.028200000524520874,25,11012.668789433697,0.0030066398239606148,1.57542003E9,,,,0,,1,0.22,1.57542003E9,358.0,NaN,NaN
Raw,232670919117044,649475202000000,,,-1265581155242092224,-0.8363494873046875,38.20715210167691,24.638558803828207,10.612150681853864,145,13,0.0,16399,384230376047696,6,38.1,239.61373901367188,0.04310000315308571,25,3690.943148202548,9.324389888310735E-4,1.57542003E9,,,,0,,1,0.22,1.57542003E9,358.0,NaN,NaN
Raw,232670919117044,649475202000000,,,-1265581155242092224,-0.8363494873046875,38.20715210167691,24.638558803828207,10.612150681853864,145,15,0.0,16399,384230376446868,7,37.3,-93.33411407470703,0.04340000078082085,25,-1483.6826928198518,0.0010085564157135064,1.57542003E9,,,,0,,1,0.22,1.57542003E9,358.0,NaN,NaN
Raw,232670919117044,649475202000000,,,-1265581155242092224,-0.8363494873046875,38.20715210167691,24.638558803828207,10.612150681853864,145,17,0.0,16399,384230361833018,24,25.8,-527.7998657226562,0.03480000048875809,21,-7951.125968403958,0.19029366893311156,1.57542003E9,,,,0,,1,0.22,1.57542003E9,358.0,NaN,NaN
Raw,232670919117044,649475202000000,,,-1265581155242092224,-0.8363494873046875,38.20715210167691,24.638558803828207,10.612150681853864,145,20,0.0,16399,384230367610045,12,32.5,-337.9046936035156,0.03210000321269035,25,-5278.835883088959,0.001807789796734829,1.57542003E9,,,,0,,1,0.22,1.57542003E9,358.0,NaN,NaN
Raw,232670919117044,649475202000000,,,-1265581155242092224,-0.8363494873046875,38.20715210167691,24.638558803828207,10.612150681853864,145,24,0.0,16399,384230368750680,13,31.2,-573.78271484375,0.0340999998152256,25,-4812.5775489659345,0.002074201012354331,1.57542003E9,,,,0,,1,0.22,1.57542003E9,358.0,NaN,NaN
Raw,232670919117044,649475202000000,,,-1265581155242092224,-0.8363494873046875,38.20715210167691,24.638558803828207,10.612150681853864,145,28,0.0,16399,384230372452730,6,39.5,207.29409790039062,0.03680000081658363,25,3227.06471647289,8.372921387687362E-4,1.57542003E9,,,,0,,1,0.22,1.57542003E9,358.0,NaN,NaN
Raw,232670919117044,649475202000000,,,-1265581155242092224,-0.8363494873046875,38.20715210167691,24.638558803828207,10.612150681853864,145,30,0.0,16399,384230365878429,6,39.5,601.0296630859375,0.02630000188946724,25,9426.222136934683,8.372921387687362E-4,1.57542003E9,,,,0,,1,0.22,1.57542003E9,358.0,NaN,NaN
Raw,232670919117044,649475202000000,,,-1265581155242092224,-0.8363494873046875,38.20715210167691,24.638558803828207,10.612150681853864,145,14,0.0,49359,49412380246706,5,40.0,-9.382856369018555,0.21860000491142273,25,-179.52839975770158,7.316300713026974E-4,1.59806246E9,,,,0,,3,0.13,1.59806246E9,358.0,NaN,NaN
Raw,232670919117044,649475202000000,,,-1265581155242092224,-0.8363494873046875,38.20715210167691,24.638558803828207,10.612150681853864,145,22,0.0,49359,49412366634080,35,22.5,-140.3874969482422,0.5907999873161316,29,-1793.1236004669192,0.18733370372433672,1.60031245E9,,,,0,,3,0.13,1.60031245E9,358.0,NaN,NaN
Raw,232670919117044,649475202000000,,,-1265581155242092224,-0.8363494873046875,38.20715210167691,24.638558803828207,10.612150681853864,145,13,0.0,49359,49412372877479,27,24.3,655.1591796875,0.25929999351501465,29,9509.437287829962,0.18726787319550683,1.60087501E9,,,,0,,3,0.13,1.60087501E9,358.0,NaN,NaN
Raw,232670919117044,649475202000000,,,-1265581155242092224,-0.8363494873046875,38.20715210167691,24.638558803828207,10.612150681853864,145,15,0.0,49359,49412372358667,40,21.1,-644.4976196289062,1.0045000314712524,16,0.0,0.0,1.602E9,,,,0,,3,0.13,1.602E9,358.0,NaN,NaN
Raw,232670919117044,649475202000000,,,-1265581155242092224,-0.8363494873046875,38.20715210167691,24.638558803828207,10.612150681853864,145,5,0.0,49359,49412375231454,4,42.1,-540.7036743164062,0.24060000479221344,25,-8332.878769254625,5.799191056178505E-4,1.60256256E9,,,,0,,3,0.13,1.60256256E9,358.0,NaN,NaN
Raw,232670919117044,649475202000000,,,-1265581155242092224,-0.8363494873046875,38.20715210167691,24.638558803828207,10.612150681853864,145,3,0.0,49359,49412369576763,7,37.6,786.0285034179688,0.232900008559227,25,12038.241530147985,9.900844722691658E-4,1.60481254E9,,,,0,,3,0.13,1.60481254E9,358.0,NaN,NaN
Raw,232670919117044,649475202000000,,,-1265581155242092224,-0.8363494873046875,38.20715210167691,24.638558803828207,10.612150681853864,145,4,0.0,49359,49412379592354,8,36.2,228.53021240234375,0.21810001134872437,25,3467.2256872937255,0.0011391319696942128,1.60537498E9,,,,0,,3,0.13,1.60537498E9,358.0,NaN,NaN
Raw,232670919117044,649475202000000,,,-1265581155242092224,-0.8363494873046875,38.20715210167691,24.638558803828207,10.612150681853864,145,37,0.0,16399,384216364369044,5,40.6,490.93896484375,0.02460000105202198,25,7664.775512874092,7.489539839688142E-4,1.56109798E9,,,,0,,5,0.55,1.56109798E9,358.0,NaN,NaN
Raw,232670919117044,649475202000000,,,-1265581155242092224,-0.8363494873046875,38.20715210167691,24.638558803828207,10.612150681853864,145,22,0.0,16399,384216364334948,6,38.6,-387.9123229980469,0.025100000202655792,25,-5434.244164543549,9.409935037250662E-4,1.56109798E9,,,,0,,5,0.55,1.56109798E9,358.0,NaN,NaN
Raw,232670919117044,649475202000000,,,-1265581155242092224,-0.8363494873046875,38.20715210167691,24.638558803828207,10.612150681853864,145,20,0.0,16399,384216360926621,35,22.5,648.7420043945312,0.38179999589920044,19,9023.148928182867,0.1920394882785269,1.56109798E9,,,,0,,5,0.55,1.56109798E9,358.0,NaN,NaN
Raw,232670919117044,649475202000000,,,-1265581155242092224,-0.8363494873046875,38.20715210167691,24.638558803828207,10.612150681853864,145,19,0.0,16399,384216370509166,11,33.1,218.87142944335938,0.03620000183582306,25,3025.99667301662,0.0016707435714883973,1.56109798E9,,,,0,,5,0.55,1.56109798E9,358.0,NaN,NaN
Raw,232670919117044,649475202000000,,,-1265581155242092224,-0.8363494873046875,38.20715210167691,24.638558803828207,10.612150681853864,145,10,0.0,16399,384216311653876,24,25.0,178.71072387695312,0.049800001084804535,21,2474.9768260313467,0.1920394882785269,1.56109798E9,,,,0,,5,0.55,1.56109798E9,358.0,NaN,NaN
Raw,232670919117044,649475202000000,,,-1265581155242092224,-0.8363494873046875,38.20715210167691,24.638558803828207,10.612150681853864,145,1,0.0,23567,384230359553159,11,33.4,401.4234313964844,0.04370000213384628,25,6249.119693911547,0.003596550258902148,1.57542003E9,,,,0,,6,0.2,1.57542003E9,358.0,NaN,NaN
Raw,232670919117044,649475202000000,,,-1265581155242092224,-0.8363494873046875,38.20715210167691,24.638558803828207,10.612150681853864,145,4,0.0,23567,384230357527486,8,36.5,512.9678344726562,0.045100003480911255,25,7996.0164437380145,0.0025499350854412276,1.57542003E9,,,,0,,6,0.2,1.57542003E9,358.0,NaN,NaN
Raw,232670919117044,649475202000000,,,-1265581155242092224,-0.8363494873046875,38.20715210167691,24.638558803828207,10.612150681853864,145,5,0.0,23567,384230359119562,13,31.5,-411.0547180175781,0.05060000345110893,25,-6454.38112368074,0.004528989424958011,1.57542003E9,,,,0,,6,0.2,1.57542003E9,358.0,NaN,NaN
Raw,232670919117044,649475202000000,,,-1265581155242092224,-0.8363494873046875,38.20715210167691,24.638558803828207,10.612150681853864,145,9,0.0,23567,384230372354206,12,32.8,74.2426528930664,0.04560000076889992,25,1130.5852258541518,0.003958108324583987,1.57542003E9,,,,0,,6,0.2,1.57542003E9,358.0,NaN,NaN
Raw,232670919117044,649475202000000,,,-1265581155242092224,-0.8363494873046875,38.20715210167691,24.638558803828207,10.612150681853864,145,24,0.0,23567,384230362481089,19,27.3,-541.82373046875,0.052800003439188004,19,-302.6557556309949,0.007212130206821385,1.57542003E9,,,,0,,6,0.2,1.57542003E9,358.0,NaN,NaN
Raw,232670919117044,649475202000000,,,-1265581155242092224,-0.8363494873046875,38.20715210167691,24.638558803828207,10.612150681853864,145,31,0.0,23567,384230365373476,7,37.7,-128.66673278808594,0.04490000009536743,25,-2042.627719952517,0.0021883771969841777,1.57542003E9,,,,0,,6,0.2,1.57542003E9,358.0,NaN,NaN
Raw,232670919117044,649475202000000,,,-1265581155242092224,-0.8363494873046875,38.20715210167691,24.638558803828207,10.612150681853864,145,24,0.0,81935,384230368758500,2,34.2,-573.8008422851562,0.036500003188848495,25,-4772.756467328542,0.0020386244039789624,1.17645005E9,,,,0,,1,9.25,1.17645005E9,358.0,NaN,NaN
Raw,232670919117044,649475202000000,,,-1265581155242092224,-0.8363494873046875,38.20715210167691,24.638558803828207,10.612150681853864,145,30,0.0,81935,384230365886275,3,32.7,600.9853515625,0.0340999998152256,25,5016.838576036506,0.0024208662868967453,1.17645005E9,,,,0,,1,9.25,1.17645005E9,358.0,NaN,NaN
Raw,232670919117044,649475202000000,,,-1265581155242092224,-0.8363494873046875,38.20715210167691,24.638558803828207,10.612150681853864,145,1,0.0,81935,384230359560240,2,36.9,401.40057373046875,0.021400000900030136,25,3734.7760481197693,0.0015544510042033504,1.17645005E9,,,,0,,6,9.25,1.17645005E9,358.0,NaN,NaN
Raw,232670919117044,649475202000000,,,-1265581155242092224,-0.8363494873046875,38.20715210167691,24.638558803828207,10.612150681853864,145,4,0.0,81935,384230357534593,3,31.0,512.8870239257812,0.053300000727176666,25,4786.381193128619,0.0027776256465907277,1.17645005E9,,,,0,,6,9.25,1.17645005E9,358.0,NaN,NaN
Raw,232670919117044,649475202000000,,,-1265581155242092224,-0.8363494873046875,38.20715210167691,24.638558803828207,10.612150681853864,145,5,0.0,81935,384230359126656,4,30.0,-411.0894775390625,0.07270000129938126,25,-3853.5288809696854,0.0032108332879374254,1.17645005E9,,,,0,,6,9.25,1.17645005E9,358.0,NaN,NaN
Raw,232670919117044,649475202000000,,,-1265581155242092224,-0.8363494873046875,38.20715210167691,24.638558803828207,10.612150681853864,145,9,0.0,81935,384230372361262,4,30.6,74.1734619140625,0.047200001776218414,25,679.1611781301812,0.0032108332879374254,1.17645005E9,,,,0,,6,9.25,1.17645005E9,358.0,NaN,NaN
Raw,232670919117044,649475202000000,,,-1265581155242092224,-0.8363494873046875,38.20715210167691,24.638558803828207,10.612150681853864,145,24,0.0,81935,384230362488153,9,21.1,-541.7899169921875,0.7894999980926514,16,0.0,0.0,1.17645005E9,,,,0,,6,9.25,1.17645005E9,358.0,NaN,NaN
Raw,232670919117044,649475202000000,,,-1265581155242092224,-0.8363494873046875,38.20715210167691,24.638558803828207,10.612150681853864,145,31,0.0,81935,384230365380580,4,30.5,-128.66244506835938,0.03670000284910202,25,-1217.8457039152001,0.0032108332879374254,1.17645005E9,,,,0,,6,9.25,1.17645005E9,358.0,NaN,NaN
Fix,gps,51.524745,-0.134136,76.560303,0.000000,3.790092,1582195414000,232671905942611
Raw,232671925670425,649476202000000,,,-1265581155242092195,-0.9280967712402344,37.61177868000232,27.957217372823514,11.52729864683444,145,5,0.0,16399,384231362823515,17,28.6,734.12939453125,0.028200000524520874,25,11746.963242926402,0.0030066398239606148,1.57542003E9,,,,0,,1,0.17,1.57542003E9,358.0,NaN,NaN
Raw,232671925670425,649476202000000,,,-1265581155242092195,-0.9280967712402344,37.61177868000232,27.957217372823514,11.52729864683444,145,13,0.0,16399,384231376046915,6,38.1,239.24557495117188,0.04310000315308571,25,3930.341929231959,9.324389888310735E-4,1.57542003E9,,,,0,,1,0.17,1.57542003E9,358.0,NaN,NaN
Raw,232671925670425,649476202000000,,,-1265581155242092195,-0.9280967712402344,37.61177868000232,27.957217372823514,11.52729864683444,145,15,0.0,16399,384231376447159,7,37.1,-93.70724487304688,0.04340000078082085,25,-1577.251873168184,0.0010085564157135064,1.57542003E9,,,,0,,1,0.17,1.57542003E9,358.0,NaN,NaN
Raw,232671925670425,649476202000000,,,-1265581155242092195,-0.9280967712402344,37.61177868000232,27.957217372823514,11.52729864683444,145,17,0.0,16399,384231361834802,17,28.3,-528.2364501953125,0.02670000120997429,17,-8479.17409542677,0.0030066398239606148,1.57542003E9,,,,0,,1,0.17,1.57542003E9,358.0,NaN,NaN
Raw,232671925670425,649476202000000,,,-1265581155242092195,-0.9280967712402344,37.61177868000232,27.957217372823514,11.52729864683444,145,20,0.0,16399,384231367611118,12,32.8,-338.23846435546875,0.03210000321269035,25,-5616.942214923599,0.001807789796734829,1.57542003E9,,,,0,,1,0.17,1.57542003E9,358.0,NaN,NaN
Raw,232671925670425,649476202000000,,,-1265581155242092195,-0.9280967712402344,37.61177868000232,27.957217372823514,11.52729864683444,145,24,0.0,16399,384231368752600,14,30.9,-574.1947631835938,0.03490000218153,25,-5386.604167895905,0.002397700231676362,1.57542003E9,,,,0,,1,0.17,1.57542003E9,358.0,NaN,NaN
Raw,232671925670425,649476202000000,,,-1265581155242092195,-0.9280967712402344,37.61177868000232,27.957217372823514,11.52729864683444,145,28,0.0,16399,384231372452044,5,41.9,206.98736572265625,0.03629999980330467,25,3434.183583316342,6.850571963914755E-4,1.57542003E9,,,,0,,1,0.17,1.57542003E9,358.0,NaN,NaN
Raw,232671925670425,649476202000000,,,-1265581155242092195,-0.9280967712402344,37.61177868000232,27.957217372823514,11.52729864683444,145,30,0.0,16399,384231365876418,6,38.8,600.6072998046875,0.026600001379847527,25,10027.006507493954,9.324389888310735E-4,1.57542003E9,,,,0,,1,0.17,1.57542003E9,358.0,NaN,NaN
Raw,232671925670425,649476202000000,,,-1265581155242092195,-0.9280967712402344,37.61177868000232,27.957217372823514,11.52729864683444,145,14,0.0,49359,49413380246727,5,40.5,-9.705748558044434,0.21860000491142273,25,-189.10637287314395,7.316300713026974E-4,1.59806246E9,,,,0,,3,0.15,1.59806246E9,358.0,NaN,NaN
Raw,232671925670425,649476202000000,,,-1265581155242092195,-0.9280967712402344,37.61177868000232,27.957217372823514,11.52729864683444,145,22,0.0,49359,49413366634364,16,29.6,-140.8150177001953,0.232900008559227,25,-1933.818665006615,0.00277253881595763,1.60031245E9,,,,0,,3,0.15,1.60031245E9,358.0,NaN,NaN
Raw,232671925670425,649476202000000,,,-1265581155242092195,-0.9280967712402344,37.61177868000232,27.957217372823514,11.52729864683444,145,13,0.0,49359,49413372875376,21,26.3,654.8111572265625,0.24469999969005585,21,10164.406998673132,0.005355861144370204,1.60087501E9,,,,0,,3,0.15,1.60087501E9,358.0,NaN,NaN
Raw,232671925670425,649476202000000,,,-1265581155242092195,-0.9280967712402344,37.61177868000232,27.957217372823514,11.52729864683444,145,15,0.0,49359,49413372360785,19,27.5,-644.2468872070312,0.24379999935626984,19,-10559.749889336295,0.0031813183913669513,1.602E9,,,,0,,3,0.15,1.602E9,358.0,NaN,NaN
Raw,232671925670425,649476202000000,,,-1265581155242092195,-0.9280967712402344,37.61177868000232,27.957217372823514,11.52729864683444,145,5,0.0,49359,49413375233304,5,41.6,-541.0308227539062,0.24080000817775726,25,-8873.768552936934,6.734544143230755E-4,1.60256256E9,,,,0,,3,0.15,1.60256256E9,358.0,NaN,NaN
Raw,232671925670425,649476202000000,,,-1265581155242092195,-0.9280967712402344,37.61177868000232,27.957217372823514,11.52729864683444,145,3,0.0,49359,49413369574108,6,38.4,785.6328735351562,0.23260000348091125,25,12824.028645587603,9.153611536216265E-4,1.60481254E9,,,,0,,3,0.15,1.60481254E9,358.0,NaN,NaN
Raw,232671925670425,649476202000000,,,-1265581155242092195,-0.9280967712402344,37.61177868000232,27.957217372823514,11.52729864683444,145,4,0.0,49359,49413379591614,7,37.0,228.2007293701172,0.2029000073671341,25,3695.547548232423,9.897376030341073E-4,1.60537498E9,,,,0,,3,0.15,1.60537498E9,358.0,NaN,NaN
Raw,232671925670425,649476202000000,,,-1265581155242092195,-0.9280967712402344,37.61177868000232,27.957217372823514,11.52729864683444,145,37,0.0,16399,384217364367413,5,40.3,490.56280517578125,0.02460000105202198,25,8155.501951566378,7.489539839688142E-4,1.56109798E9,,,,0,,5,0.52,1.56109798E9,358.0,NaN,NaN
Raw,232671925670425,649476202000000,,,-1265581155242092195,-0.9280967712402344,37.61177868000232,27.957217372823514,11.52729864683444,145,22,0.0,16399,384217364336242,7,37.1,-388.2777099609375,0.02540000155568123,25,-5822.367614435664,0.0010178092579723537,1.56109798E9,,,,0,,5,0.52,1.56109798E9,358.0,NaN,NaN
Raw,232671925670425,649476202000000,,,-1265581155242092195,-0.9280967712402344,37.61177868000232,27.957217372823514,11.52729864683444,145,20,0.0,16399,384217360924435,16,29.4,648.4603881835938,0.023900000378489494,21,9671.88407134495,0.0028421844273806814,1.56109798E9,,,,0,,5,0.52,1.56109798E9,358.0,NaN,NaN
Raw,232671925670425,649476202000000,,,-1265581155242092195,-0.9280967712402344,37.61177868000232,27.957217372823514,11.52729864683444,145,19,0.0,16399,384217370508445,11,33.3,218.526123046875,0.03620000183582306,25,3244.6659771838777,0.0016707435714883973,1.56109798E9,,,,0,,5,0.52,1.56109798E9,358.0,NaN,NaN
Raw,232671925670425,649476202000000,,,-1265581155242092195,-0.9280967712402344,37.61177868000232,27.957217372823514,11.52729864683444,145,10,0.0,16399,384217311653295,21,26.0,178.3247528076172,0.04320000112056732,25,2653.5591688119207,0.005492329335005111,1.56109798E9,,,,0,,5,0.52,1.56109798E9,358.0,NaN,NaN
Raw,232671925670425,649476202000000,,,-1265581155242092195,-0.9280967712402344,37.61177868000232,27.957217372823514,11.52729864683444,145,1,0.0,23567,384231359551828,6,38.3,401.06341552734375,0.041600000113248825,25,6650.303474042264,0.0020551716777868216,1.57542003E9,,,,0,,6,0.15,1.57542003E9,358.0,NaN,NaN
Raw,232671925670425,649476202000000,,,-1265581155242092195,-0.9280967712402344,37.61177868000232,27.957217372823514,11.52729864683444,145,4,0.0,23567,384231357525779,7,37.4,512.5791015625,0.04490000009536743,25,8508.732751971625,0.0021883771969841777,1.57542003E9,,,,0,,6,0.15,1.57542003E9,358.0,NaN,NaN
Raw,232671925670425,649476202000000,,,-1265581155242092195,-0.9280967712402344,37.61177868000232,27.957217372823514,11.52729864683444,145,5,0.0,23567,384231359120962,12,32.1,-411.4257507324219,0.05010000243782997,25,-6865.676621907129,0.003958108324583987,1.57542003E9,,,,0,,6,0.15,1.57542003E9,358.0,NaN,NaN
Raw,232671925670425,649476202000000,,,-1265581155242092195,-0.9280967712402344,37.61177868000232,27.957217372823514,11.52729864683444,145,9,0.0,23567,384231372353944,9,35.1,73.85636901855469,0.04410000145435333,25,1204.5689876049958,0.0028924638165555576,1.57542003E9,,,,0,,6,0.15,1.57542003E9,358.0,NaN,NaN
Raw,232671925670425,649476202000000,,,-1265581155242092195,-0.9280967712402344,37.61177868000232,27.957217372823514,11.52729864683444,145,24,0.0,23567,384231362482926,24,25.6,-542.2049560546875,0.06030000001192093,25,-844.703660364615,0.017526047264890512,1.57542003E9,,,,0,,6,0.15,1.57542003E9,358.0,NaN,NaN
Raw,232671925670425,649476202000000,,,-1265581155242092195,-0.9280967712402344,37.61177868000232,27.957217372823514,11.52729864683444,145,31,0.0,23567,384231365373920,6,38.4,-128.99900817871094,0.044600002467632294,25,-2171.5204790022717,0.0020551716777868216,1.57542003E9,,,,0,,6,0.15,1.57542003E9,358.0,NaN,NaN
Raw,232671925670425,649476202000000,,,-1265581155242092195,-0.9280967712402344,37.61177868000232,27.957217372823514,11.52729864683444,145,24,0.0,81935,384231368760419,2,34.7,-574.1930541992188,0.036500003188848495,25,-5346.779493549477,0.0020386244039789624,1.17645005E9,,,,0,,1,7.19,1.17645005E9,358.0,NaN,NaN
Raw,232671925670425,649476202000000,,,-1265581155242092195,-0.9280967712402344,37.61177868000232,27.957217372823514,11.52729864683444,145,30,0.0,81935,384231365884272,3,32.0,600.638427734375,0.0340999998152256,29,5617.628406876198,0.0024208662868967453,1.17645005E9,,,,0,,1,7.19,1.17645005E9,358.0,NaN,NaN
Raw,232671925670425,649476202000000,,,-1265581155242092195,-0.9280967712402344,37.61177868000232,27.957217372823514,11.52729864683444,145,1,0.0,81935,384231359558903,2,35.9,401.01239013671875,0.0071000000461936,25,4135.963045619562,0.0017837963238157039,1.17645005E9,,,,0,,6,7.19,1.17645005E9,358.0,NaN,NaN
Raw,232671925670425,649476202000000,,,-1265581155242092195,-0.9280967712402344,37.61177868000232,27.957217372823514,11.52729864683444,145,4,0.0,81935,384231357532883,4,30.5,512.4597778320312,0.05470000207424164,25,5299.082552779954,0.0032108332879374254,1.17645005E9,,,,0,,6,7.19,1.17645005E9,358.0,NaN,NaN
Raw,232671925670425,649476202000000,,,-1265581155242092195,-0.9280967712402344,37.61177868000232,27.957217372823514,11.52729864683444,145,5,0.0,81935,384231359128022,5,28.5,-411.559326171875,0.06160000339150429,25,-4264.832544491973,0.0040262828122019055,1.17645005E9,,,,0,,6,7.19,1.17645005E9,358.0,NaN,NaN
Raw,232671925670425,649476202000000,,,-1265581155242092195,-0.9280967712402344,37.61177868000232,27.957217372823514,11.52729864683444,145,9,0.0,81935,384231372361014,3,32.9,73.79489135742188,0.044600002467632294,25,753.1468352668395,0.0024208662868967453,1.17645005E9,,,,0,,6,7.19,1.17645005E9,358.0,NaN,NaN
Raw,232671925670425,649476202000000,,,-1265581155242092195,-0.9280967712402344,37.61177868000232,27.957217372823514,11.52729864683444,145,24,0.0,81935,384231362489966,8,22.3,-542.4329223632812,0.03970000147819519,27,-5616.8132303521525,0.34557229348499413,1.17645005E9,,,,0,,6,7.19,1.17645005E9,358.0,NaN,NaN
Raw,232671925670425,649476202000000,,,-1265581155242092195,-0.9280967712402344,37.61177868000232,27.957217372823514,11.52729864683444,145,31,0.0,81935,384231365381015,5,27.9,-129.14828491210938,0.04350000247359276,25,-1346.7776524251121,0.004332076888121183,1.17645005E9,,,,0,,6,7.19,1.17645005E9,358.0,NaN,NaN
Fix,gps,51.524743,-0.134139,76.614807,0.000000,3.790092,1582195415000,232672904835002
Raw,232672923777452,649477202000000,,,-1265581155242092169,-0.9628233909606934,37.08562508109026,26.531091660254432,12.495525107893782,145,5,0.0,16399,384232362821068,17,28.3,734.29931640625,0.013199999928474426,25,12481.304069912725,0.0030066398239606148,1.57542003E9,,,,0,,1,0.26,1.57542003E9,358.0,NaN,NaN
Raw,232672923777452,649477202000000,,,-1265581155242092169,-0.9628233909606934,37.08562508109026,26.531091660254432,12.495525107893782,145,13,0.0,16399,384232376046100,6,38.6,239.5441131591797,0.04310000315308571,25,4169.873426443954,9.324389888310735E-4,1.57542003E9,,,,0,,1,0.26,1.57542003E9,358.0,NaN,NaN
Raw,232672923777452,649477202000000,,,-1265581155242092169,-0.9628233909606934,37.08562508109026,26.531091660254432,12.495525107893782,145,15,0.0,16399,384232376447475,6,38.0,-93.3732681274414,0.04310000315308571,25,-1670.6522621083484,9.324389888310735E-4,1.57542003E9,,,,0,,1,0.26,1.57542003E9,358.0,NaN,NaN
Raw,232672923777452,649477202000000,,,-1265581155242092169,-0.9628233909606934,37.08562508109026,26.531091660254432,12.495525107893782,145,17,0.0,16399,384232361836563,17,28.3,-528.0292358398438,0.011700000613927841,17,-9007.1340533362,0.0030066398239606148,1.57542003E9,,,,0,,1,0.26,1.57542003E9,358.0,NaN,NaN
Raw,232672923777452,649477202000000,,,-1265581155242092169,-0.9628233909606934,37.08562508109026,26.531091660254432,12.495525107893782,145,20,0.0,16399,384232367612289,12,32.4,-337.925537109375,0.03210000321269035,25,-5954.882010343485,0.001807789796734829,1.57542003E9,,,,0,,1,0.26,1.57542003E9,358.0,NaN,NaN
Raw,232672923777452,649477202000000,,,-1265581155242092169,-0.9628233909606934,37.08562508109026,26.531091660254432,12.495525107893782,145,24,0.0,16399,384232368754545,13,31.2,-573.9390258789062,0.0340999998152256,25,-5960.531210400444,0.002074201012354331,1.57542003E9,,,,0,,1,0.26,1.57542003E9,358.0,NaN,NaN
Raw,232672923777452,649477202000000,,,-1265581155242092169,-0.9628233909606934,37.08562508109026,26.531091660254432,12.495525107893782,145,28,0.0,16399,384232372451355,4,42.8,207.27626037597656,0.03610000014305115,25,3641.447011678471,5.899103906353357E-4,1.57542003E9,,,,0,,1,0.26,1.57542003E9,358.0,NaN,NaN
Raw,232672923777452,649477202000000,,,-1265581155242092169,-0.9628233909606934,37.08562508109026,26.531091660254432,12.495525107893782,145,30,0.0,16399,384232365874409,6,39.0,600.82177734375,0.02630000188946724,25,10627.86287031888,8.372921387687362E-4,1.57542003E9,,,,0,,1,0.26,1.57542003E9,358.0,NaN,NaN
Raw,232672923777452,649477202000000,,,-1265581155242092169,-0.9628233909606934,37.08562508109026,26.531091660254432,12.495525107893782,145,14,0.0,49359,49414380246753,5,40.9,-9.377639770507812,0.20360000431537628,25,-198.49163525168277,7.316300713026974E-4,1.59806246E9,,,,0,,3,0.23,1.59806246E9,358.0,NaN,NaN
Raw,232672923777452,649477202000000,,,-1265581155242092169,-0.9628233909606934,37.08562508109026,26.531091660254432,12.495525107893782,145,22,0.0,49359,49414366634841,17,28.3,-140.43426513671875,0.23420000076293945,25,-2074.2973330166556,0.002959872375920247,1.60031245E9,,,,0,,3,0.23,1.60031245E9,358.0,NaN,NaN
Raw,232672923777452,649477202000000,,,-1265581155242092169,-0.9628233909606934,37.08562508109026,26.531091660254432,12.495525107893782,145,13,0.0,49359,49414372873106,17,28.2,655.0114135742188,0.24320000410079956,25,10819.527408024733,0.002958832253614959,1.60087501E9,,,,0,,3,0.23,1.60087501E9,358.0,NaN,NaN
Raw,232672923777452,649477202000000,,,-1265581155242092169,-0.9628233909606934,37.08562508109026,26.531091660254432,12.495525107893782,145,15,0.0,49359,49414372363141,19,27.6,-644.0660400390625,0.24379999935626984,25,-11203.7323691497,0.0031813183913669513,1.602E9,,,,0,,3,0.23,1.602E9,358.0,NaN,NaN
Raw,232672923777452,649477202000000,,,-1265581155242092169,-0.9628233909606934,37.08562508109026,26.531091660254432,12.495525107893782,145,5,0.0,49359,49414375235075,5,41.8,-540.7098388671875,0.24080000817775726,25,-9414.500782571084,6.734544143230755E-4,1.60256256E9,,,,0,,3,0.23,1.60256256E9,358.0,NaN,NaN
Raw,232672923777452,649477202000000,,,-1265581155242092169,-0.9628233909606934,37.08562508109026,26.531091660254432,12.495525107893782,145,3,0.0,49359,49414369571491,6,39.0,785.8767700195312,0.2323000133037567,25,13609.908508899229,8.219569400701237E-4,1.60481254E9,,,,0,,3,0.23,1.60481254E9,358.0,NaN,NaN
Raw,232672923777452,649477202000000,,,-1265581155242092169,-0.9628233909606934,37.08562508109026,26.531091660254432,12.495525107893782,145,4,0.0,49359,49414379590908,7,37.3,228.5351104736328,0.2029000073671341,25,3924.076877333238,9.897376030341073E-4,1.60537498E9,,,,0,,3,0.23,1.60537498E9,358.0,NaN,NaN
Raw,232672923777452,649477202000000,,,-1265581155242092169,-0.9628233909606934,37.08562508109026,26.531091660254432,12.495525107893782,145,37,0.0,16399,384218364365770,5,41.8,490.765869140625,0.00930000003427267,25,8646.304388130802,6.913421459270097E-4,1.56109798E9,,,,0,,5,0.65,1.56109798E9,358.0,NaN,NaN
Raw,232672923777452,649477202000000,,,-1265581155242092169,-0.9628233909606934,37.08562508109026,26.531091660254432,12.495525107893782,145,22,0.0,16399,384218364337537,8,36.2,-388.0056457519531,0.010600000619888306,25,-6210.354921306782,0.0011714408558922843,1.56109798E9,,,,0,,5,0.65,1.56109798E9,358.0,NaN,NaN
Raw,232672923777452,649477202000000,,,-1265581155242092169,-0.9628233909606934,37.08562508109026,26.531091660254432,12.495525107893782,145,20,0.0,16399,384218360922255,13,31.6,648.5717163085938,0.0071000000461936,17,10320.519804398964,0.0020932304434118673,1.56109798E9,,,,0,,5,0.65,1.56109798E9,358.0,NaN,NaN
Raw,232672923777452,649477202000000,,,-1265581155242092169,-0.9628233909606934,37.08562508109026,26.531091660254432,12.495525107893782,145,19,0.0,16399,384218370507708,11,33.9,218.83544921875,0.03620000183582306,25,3463.4870171612474,0.0016707435714883973,1.56109798E9,,,,0,,5,0.65,1.56109798E9,358.0,NaN,NaN
Raw,232672923777452,649477202000000,,,-1265581155242092169,-0.9628233909606934,37.08562508109026,26.531091660254432,12.495525107893782,145,10,0.0,16399,384218311652700,19,27.7,178.5353240966797,0.04230000078678131,25,2832.1020142507737,0.0032646714781548623,1.56109798E9,,,,0,,5,0.65,1.56109798E9,358.0,NaN,NaN
Raw,232672923777452,649477202000000,,,-1265581155242092169,-0.9628233909606934,37.08562508109026,26.531091660254432,12.495525107893782,145,1,0.0,23567,384232359550482,6,39.5,401.291259765625,0.04130000248551369,25,7051.576250173592,0.0018458486430946374,1.57542003E9,,,,0,,6,0.23,1.57542003E9,358.0,NaN,NaN
Raw,232672923777452,649477202000000,,,-1265581155242092169,-0.9628233909606934,37.08562508109026,26.531091660254432,12.495525107893782,145,4,0.0,23567,384232357524072,7,37.7,512.796630859375,0.04490000009536743,25,9021.511548869294,0.0021883771969841777,1.57542003E9,,,,0,,6,0.23,1.57542003E9,358.0,NaN,NaN
Raw,232672923777452,649477202000000,,,-1265581155242092169,-0.9628233909606934,37.08562508109026,26.531091660254432,12.495525107893782,145,5,0.0,23567,384232359122328,13,31.5,-411.1824035644531,0.05060000345110893,25,-7276.890806655226,0.004528989424958011,1.57542003E9,,,,0,,6,0.23,1.57542003E9,358.0,NaN,NaN
Raw,232672923777452,649477202000000,,,-1265581155242092169,-0.9628233909606934,37.08562508109026,26.531091660254432,12.495525107893782,145,9,0.0,23567,384232372353690,8,36.4,74.14862823486328,0.04360000044107437,25,1278.67829366029,0.0025499350854412276,1.57542003E9,,,,0,,6,0.23,1.57542003E9,358.0,NaN,NaN
Raw,232672923777452,649477202000000,,,-1265581155242092169,-0.9628233909606934,37.08562508109026,26.531091660254432,12.495525107893782,145,24,0.0,23567,384232362484735,21,26.7,-542.0929565429688,0.053700003772974014,25,-1386.7924150941901,0.011874324619302384,1.57542003E9,,,,0,,6,0.23,1.57542003E9,358.0,NaN,NaN
Raw,232672923777452,649477202000000,,,-1265581155242092169,-0.9628233909606934,37.08562508109026,26.531091660254432,12.495525107893782,145,31,0.0,23567,384232365374345,6,39.1,-128.7370147705078,0.04430000111460686,25,-2300.2902835747705,0.0018458486430946374,1.57542003E9,,,,0,,6,0.23,1.57542003E9,358.0,NaN,NaN
Raw,232672923777452,649477202000000,,,-1265581155242092169,-0.9628233909606934,37.08562508109026,26.531091660254432,12.495525107893782,145,24,0.0,81935,384232368762334,2,34.3,-573.9404296875,0.036500003188848495,25,-5920.703840270478,0.0020386244039789624,1.17645005E9,,,,0,,1,7.09,1.17645005E9,358.0,NaN,NaN
Raw,232672923777452,649477202000000,,,-1265581155242092169,-0.9628233909606934,37.08562508109026,26.531091660254432,12.495525107893782,145,30,0.0,81935,384232365882268,3,31.5,600.8540649414062,0.03530000150203705,25,6218.48491000224,0.0027776256465907277,1.17645005E9,,,,0,,1,7.09,1.17645005E9,358.0,NaN,NaN
Raw,232672923777452,649477202000000,,,-1265581155242092169,-0.9628233909606934,37.08562508109026,26.531091660254432,12.495525107893782,145,1,0.0,81935,384232359557564,2,35.9,401.19891357421875,0.0071000000461936,25,4537.238421408678,0.0017837963238157039,1.17645005E9,,,,0,,6,7.09,1.17645005E9,358.0,NaN,NaN
Raw,232672923777452,649477202000000,,,-1265581155242092169,-0.9628233909606934,37.08562508109026,26.531091660254432,12.495525107893782,145,4,0.0,81935,384232357531176,4,29.5,512.7845458984375,0.05650000274181366,25,5811.870355799426,0.0037714549693657518,1.17645005E9,,,,0,,6,7.09,1.17645005E9,358.0,NaN,NaN
Raw,232672923777452,649477202000000,,,-1265581155242092169,-0.9628233909606934,37.08562508109026,26.531091660254432,12.495525107893782,145,5,0.0,81935,384232359129396,5,27.7,-411.1960754394531,0.06450000405311584,25,-4676.03441657464,0.004332076888121183,1.17645005E9,,,,0,,6,7.09,1.17645005E9,358.0,NaN,NaN
Raw,232672923777452,649477202000000,,,-1265581155242092169,-0.9628233909606934,37.08562508109026,26.531091660254432,12.495525107893782,145,9,0.0,81935,384232372360766,3,33.3,74.04329681396484,0.04350000247359276,25,827.2576994006358,0.0022170039651624013,1.17645005E9,,,,0,,6,7.09,1.17645005E9,358.0,NaN,NaN
Raw,232672923777452,649477202000000,,,-1265581155242092169,-0.9628233909606934,37.08562508109026,26.531091660254432,12.495525107893782,145,24,0.0,81935,384232362491780,7,24.1,-542.137939453125,0.020099999383091927,25,-6158.8439422679685,0.08959753608771179,1.17645005E9,,,,0,,6,7.09,1.17645005E9,358.0,NaN,NaN
Raw,232672923777452,649477202000000,,,-1265581155242092169,-0.9628233909606934,37.08562508109026,26.531091660254432,12.495525107893782,145,31,0.0,81935,384232365381438,4,29.1,-128.83917236328125,0.03849999979138374,29,-1475.5583180587669,0.0037714549693657518,1.17645005E9,,,,0,,6,7.09,1.17645005E9,358.0,NaN,NaN
Fix,gps,51.524742,-0.134143,76.407227,0.000000,3.790092,1582195416000,232673901007445
Raw,232673925444218,649478202000000,,,-1265581155242092142,-0.2615647315979004,34.38130079302937,27.035613334738034,11.452630717819138,145,5,0.0,16399,384233362818591,16,29.6,734.0786743164062,0.026900000870227814,25,13215.542008692906,0.00281634630106073,1.57542003E9,,,,0,,1,0.04,1.57542003E9,358.0,NaN,NaN
Raw,232673925444218,649478202000000,,,-1265581155242092142,-0.2615647315979004,34.38130079302937,27.035613334738034,11.452630717819138,145,13,0.0,16399,384233376045317,7,37.9,239.380615234375,0.04340000078082085,25,4409.368203219677,0.0010085564157135064,1.57542003E9,,,,0,,1,0.04,1.57542003E9,358.0,NaN,NaN
Raw,232673925444218,649478202000000,,,-1265581155242092142,-0.2615647315979004,34.38130079302937,27.035613334738034,11.452630717819138,145,15,0.0,16399,384233376447789,6,38.0,-93.52892303466797,0.04310000315308571,25,-1764.0717554347154,9.324389888310735E-4,1.57542003E9,,,,0,,1,0.04,1.57542003E9,358.0,NaN,NaN
Raw,232673925444218,649478202000000,,,-1265581155242092142,-0.2615647315979004,34.38130079302937,27.035613334738034,11.452630717819138,145,17,0.0,16399,384233361838362,16,29.1,-528.2406616210938,0.010400000028312206,17,-9535.20901507005,0.00281634630106073,1.57542003E9,,,,0,,1,0.04,1.57542003E9,358.0,NaN,NaN
Raw,232673925444218,649478202000000,,,-1265581155242092142,-0.2615647315979004,34.38130079302937,27.035613334738034,11.452630717819138,145,20,0.0,16399,384233367613436,12,32.1,-338.0995788574219,0.03210000321269035,25,-6292.847499031207,0.001807789796734829,1.57542003E9,,,,0,,1,0.04,1.57542003E9,358.0,NaN,NaN
Raw,232673925444218,649478202000000,,,-1265581155242092142,-0.2615647315979004,34.38130079302937,27.035613334738034,11.452630717819138,145,24,0.0,16399,384233368756439,12,32.6,-574.1605834960938,0.03360000252723694,25,-6534.54989311211,0.001807789796734829,1.57542003E9,,,,0,,1,0.04,1.57542003E9,358.0,NaN,NaN
Raw,232673925444218,649478202000000,,,-1265581155242092142,-0.2615647315979004,34.38130079302937,27.035613334738034,11.452630717819138,145,28,0.0,16399,384233372450672,4,42.4,207.12042236328125,0.03610000014305115,25,3848.684395029853,5.899103906353357E-4,1.57542003E9,,,,0,,1,0.04,1.57542003E9,358.0,NaN,NaN
Raw,232673925444218,649478202000000,,,-1265581155242092142,-0.2615647315979004,34.38130079302937,27.035613334738034,11.452630717819138,145,30,0.0,16399,384233365872394,6,39.9,600.5946044921875,0.02630000188946724,25,11228.606433649418,8.372921387687362E-4,1.57542003E9,,,,0,,1,0.04,1.57542003E9,358.0,NaN,NaN
Raw,232673925444218,649478202000000,,,-1265581155242092142,-0.2615647315979004,34.38130079302937,27.035613334738034,11.452630717819138,145,14,0.0,49359,49415380246795,5,40.5,-9.503682136535645,0.20360000431537628,25,-207.86722898050914,7.316300713026974E-4,1.59806246E9,,,,0,,3,0.05,1.59806246E9,358.0,NaN,NaN
Raw,232673925444218,649478202000000,,,-1265581155242092142,-0.2615647315979004,34.38130079302937,27.035613334738034,11.452630717819138,145,22,0.0,49359,49415366635311,19,27.4,-140.5281524658203,0.23480001091957092,25,-2214.7453363611735,0.0031846731363860867,1.60031245E9,,,,0,,3,0.05,1.60031245E9,358.0,NaN,NaN
Raw,232673925444218,649478202000000,,,-1265581155242092142,-0.2615647315979004,34.38130079302937,27.035613334738034,11.452630717819138,145,13,0.0,49359,49415372870898,17,28.4,654.7753295898438,0.24320000410079956,25,11474.450018092319,0.002958832253614959,1.60087501E9,,,,0,,3,0.05,1.60087501E9,358.0,NaN,NaN
Raw,232673925444218,649478202000000,,,-1265581155242092142,-0.2615647315979004,34.38130079302937,27.035613334738034,11.452630717819138,145,15,0.0,49359,49415372365422,27,24.2,-644.2776489257812,0.25929999351501465,21,-11847.954237034965,0.18713636579275905,1.602E9,,,,0,,3,0.05,1.602E9,358.0,NaN,NaN
Raw,232673925444218,649478202000000,,,-1265581155242092142,-0.2615647315979004,34.38130079302937,27.035613334738034,11.452630717819138,145,5,0.0,49359,49415375236899,5,41.9,-540.9010620117188,0.24080000817775726,25,-9955.274283036868,6.734544143230755E-4,1.60256256E9,,,,0,,3,0.05,1.60256256E9,358.0,NaN,NaN
Raw,232673925444218,649478202000000,,,-1265581155242092142,-0.2615647315979004,34.38130079302937,27.035613334738034,11.452630717819138,145,3,0.0,49359,49415369568852,6,38.6,785.689453125,0.23260000348091125,25,14395.727852307276,9.153611536216265E-4,1.60481254E9,,,,0,,3,0.05,1.60481254E9,358.0,NaN,NaN
Raw,232673925444218,649478202000000,,,-1265581155242092142,-0.2615647315979004,34.38130079302937,27.035613334738034,11.452630717819138,145,4,0.0,49359,49415379590147,8,36.3,228.43016052246094,0.20309999585151672,25,4152.6299814818185,0.0011391319696942128,1.60537498E9,,,,0,,3,0.05,1.60537498E9,358.0,NaN,NaN
Raw,232673925444218,649478202000000,,,-1265581155242092142,-0.2615647315979004,34.38130079302937,27.035613334738034,11.452630717819138,145,37,0.0,16399,384219364364125,5,41.8,490.54498291015625,0.024300001561641693,25,9137.008710557127,6.913421459270097E-4,1.56109798E9,,,,0,,5,0.32,1.56109798E9,358.0,NaN,NaN
Raw,232673925444218,649478202000000,,,-1265581155242092142,-0.2615647315979004,34.38130079302937,27.035613334738034,11.452630717819138,145,22,0.0,16399,384219364338834,7,37.1,-388.18121337890625,0.02540000155568123,25,-6598.3993361285375,0.0010178092579723537,1.56109798E9,,,,0,,5,0.32,1.56109798E9,358.0,NaN,NaN
Raw,232673925444218,649478202000000,,,-1265581155242092142,-0.2615647315979004,34.38130079302937,27.035613334738034,11.452630717819138,145,20,0.0,16399,384219360920083,16,29.5,648.3764038085938,0.008899999782443047,17,10969.063582767038,0.0028421844273806814,1.56109798E9,,,,0,,5,0.32,1.56109798E9,358.0,NaN,NaN
Raw,232673925444218,649478202000000,,,-1265581155242092142,-0.2615647315979004,34.38130079302937,27.035613334738034,11.452630717819138,145,19,0.0,16399,384219370506983,11,33.1,218.67202758789062,0.03620000183582306,25,3682.2721080771835,0.0016707435714883973,1.56109798E9,,,,0,,5,0.32,1.56109798E9,358.0,NaN,NaN
Raw,232673925444218,649478202000000,,,-1265581155242092142,-0.2615647315979004,34.38130079302937,27.035613334738034,11.452630717819138,145,10,0.0,16399,384219311652089,19,27.3,178.28208923339844,0.04230000078678131,25,3010.523617291418,0.0032646714781548623,1.56109798E9,,,,0,,5,0.32,1.56109798E9,358.0,NaN,NaN
Raw,232673925444218,649478202000000,,,-1265581155242092142,-0.2615647315979004,34.38130079302937,27.035613334738034,11.452630717819138,145,1,0.0,23567,384233359549141,6,39.4,401.0699768066406,0.04130000248551369,25,7452.772874509221,0.0018458486430946374,1.57542003E9,,,,0,,6,0.0,1.57542003E9,358.0,NaN,NaN
Raw,232673925444218,649478202000000,,,-1265581155242092142,-0.2615647315979004,34.38130079302937,27.035613334738034,11.452630717819138,145,4,0.0,23567,384233357522364,7,37.1,512.576416015625,0.04490000009536743,25,9534.207093082809,0.0021883771969841777,1.57542003E9,,,,0,,6,0.0,1.57542003E9,358.0,NaN,NaN
Raw,232673925444218,649478202000000,,,-1265581155242092142,-0.2615647315979004,34.38130079302937,27.035613334738034,11.452630717819138,145,5,0.0,23567,384233359123682,13,31.1,-411.4101867675781,0.05060000345110893,25,-7688.178958975911,0.004528989424958011,1.57542003E9,,,,0,,6,0.0,1.57542003E9,358.0,NaN,NaN
Raw,232673925444218,649478202000000,,,-1265581155242092142,-0.2615647315979004,34.38130079302937,27.035613334738034,11.452630717819138,145,9,0.0,23567,384233372353451,9,35.8,73.95973205566406,0.04410000145435333,25,1352.738277916378,0.0028924638165555576,1.57542003E9,,,,0,,6,0.0,1.57542003E9,358.0,NaN,NaN
Raw,232673925444218,649478202000000,,,-1265581155242092142,-0.2615647315979004,34.38130079302937,27.035613334738034,11.452630717819138,145,24,0.0,23567,384233362486540,21,26.6,-542.3226928710938,0.053700003772974014,25,-1928.965395288191,0.011874324619302384,1.57542003E9,,,,0,,6,0.0,1.57542003E9,358.0,NaN,NaN
Raw,232673925444218,649478202000000,,,-1265581155242092142,-0.2615647315979004,34.38130079302937,27.035613334738034,11.452630717819138,145,31,0.0,23567,384233365374767,6,38.5,-128.9232635498047,0.044600002467632294,25,-2429.1070363555014,0.0020551716777868216,1.57542003E9,,,,0,,6,0.0,1.57542003E9,358.0,NaN,NaN
Raw,232673925444218,649478202000000,,,-1265581155242092142,-0.2615647315979004,34.38130079302937,27.035613334738034,11.452630717819138,145,24,0.0,81935,384233368764251,3,32.8,-574.18017578125,0.038600001484155655,25,-6494.721046342232,0.0024208662868967453,1.17645005E9,,,,0,,1,5.0,1.17645005E9,358.0,NaN,NaN
Raw,232673925444218,649478202000000,,,-1265581155242092142,-0.2615647315979004,34.38130079302937,27.035613334738034,11.452630717819138,145,30,0.0,81935,384233365880261,4,30.0,600.5855712890625,0.03670000284910202,25,6819.219928454892,0.0032108332879374254,1.17645005E9,,,,0,,1,5.0,1.17645005E9,358.0,NaN,NaN
Raw,232673925444218,649478202000000,,,-1265581155242092142,-0.2615647315979004,34.38130079302937,27.035613334738034,11.452630717819138,145,1,0.0,81935,384233359556228,3,33.7,401.11865234375,0.008999999612569809,25,4938.421221634141,0.0022170039651624013,1.17645005E9,,,,0,,6,5.0,1.17645005E9,358.0,NaN,NaN
Raw,232673925444218,649478202000000,,,-1265581155242092142,-0.2615647315979004,34.38130079302937,27.035613334738034,11.452630717819138,145,4,0.0,81935,384233357529467,5,27.8,512.6973876953125,0.061500001698732376,25,6324.572482948485,0.004332076888121183,1.17645005E9,,,,0,,6,5.0,1.17645005E9,358.0,NaN,NaN
Raw,232673925444218,649478202000000,,,-1265581155242092142,-0.2615647315979004,34.38130079302937,27.035613334738034,11.452630717819138,145,5,0.0,81935,384233359130765,5,27.2,-411.2434997558594,0.06450000405311584,25,-5087.327043215648,0.004332076888121183,1.17645005E9,,,,0,,6,5.0,1.17645005E9,358.0,NaN,NaN
Raw,232673925444218,649478202000000,,,-1265581155242092142,-0.2615647315979004,34.38130079302937,27.035613334738034,11.452630717819138,145,9,0.0,81935,384233372360518,4,30.7,73.99920654296875,0.047200001776218414,25,901.3145911652557,0.0032108332879374254,1.17645005E9,,,,0,,6,5.0,1.17645005E9,358.0,NaN,NaN
Raw,232673925444218,649478202000000,,,-1265581155242092142,-0.2615647315979004,34.38130079302937,27.035613334738034,11.452630717819138,145,24,0.0,81935,384233362493585,9,21.0,-542.3396606445312,0.04839999973773956,25,-6701.021243565104,0.34557229348499413,1.17645005E9,,,,0,,6,5.0,1.17645005E9,358.0,NaN,NaN
Raw,232673925444218,649478202000000,,,-1265581155242092142,-0.2615647315979004,34.38130079302937,27.035613334738034,11.452630717819138,145,31,0.0,81935,384233365381868,6,25.8,-128.8477783203125,0.06199999898672104,25,-1604.383318944044,0.010753742989341824,1.17645005E9,,,,0,,6,5.0,1.17645005E9,358.0,NaN,NaN
Fix,gps,51.524740,-0.134145,76.468994,0.000000,3.790092,1582195417000,232674910044525
Raw,232674931171975,649479202000000,,,-1265581155242092116,-0.35589599609375,34.83985346974805,26.199681498093646,12.45644749466939,145,5,0.0,16399,384234362816097,14,30.4,733.9185180664062,0.010900000110268593,25,13949.246493226712,0.002397700231676362,1.57542003E9,,,,0,,1,0.31,1.57542003E9,358.0,NaN,NaN
Raw,232674931171975,649479202000000,,,-1265581155242092116,-0.35589599609375,34.83985346974805,26.199681498093646,12.45644749466939,145,13,0.0,16399,384234376044519,6,38.5,239.2814483642578,0.04310000315308571,25,4648.430560113737,9.324389888310735E-4,1.57542003E9,,,,0,,1,0.31,1.57542003E9,358.0,NaN,NaN
Raw,232674931171975,649479202000000,,,-1265581155242092116,-0.35589599609375,34.83985346974805,26.199681498093646,12.45644749466939,145,15,0.0,16399,384234376448108,7,37.8,-93.60771179199219,0.04340000078082085,25,-1857.919917278217,0.0010085564157135064,1.57542003E9,,,,0,,1,0.31,1.57542003E9,358.0,NaN,NaN
Raw,232674931171975,649479202000000,,,-1265581155242092116,-0.35589599609375,34.83985346974805,26.199681498093646,12.45644749466939,145,17,0.0,16399,384234361840125,19,27.7,-528.3553466796875,0.01230000052601099,25,-10063.669625068487,0.003234992547669888,1.57542003E9,,,,0,,1,0.31,1.57542003E9,358.0,NaN,NaN
Raw,232674931171975,649479202000000,,,-1265581155242092116,-0.35589599609375,34.83985346974805,26.199681498093646,12.45644749466939,145,20,0.0,16399,384234367614556,12,32.0,-338.1417236328125,0.03210000321269035,25,-6631.241152270088,0.001807789796734829,1.57542003E9,,,,0,,1,0.31,1.57542003E9,358.0,NaN,NaN
Raw,232674931171975,649479202000000,,,-1265581155242092116,-0.35589599609375,34.83985346974805,26.199681498093646,12.45644749466939,145,24,0.0,16399,384234368758352,11,33.4,-574.2935180664062,0.03319999948143959,25,-7109.049526164777,0.001655554942969963,1.57542003E9,,,,0,,1,0.31,1.57542003E9,358.0,NaN,NaN
Raw,232674931171975,649479202000000,,,-1265581155242092116,-0.35589599609375,34.83985346974805,26.199681498093646,12.45644749466939,145,28,0.0,16399,384234372449983,4,42.0,207.05203247070312,0.03610000014305115,25,4055.507352617013,5.899103906353357E-4,1.57542003E9,,,,0,,1,0.31,1.57542003E9,358.0,NaN,NaN
Raw,232674931171975,649479202000000,,,-1265581155242092116,-0.35589599609375,34.83985346974805,26.199681498093646,12.45644749466939,145,30,0.0,16399,384234365870388,5,40.6,600.4514770507812,0.026100000366568565,25,11828.85256057595,7.42145288706399E-4,1.57542003E9,,,,0,,1,0.31,1.57542003E9,358.0,NaN,NaN
Raw,232674931171975,649479202000000,,,-1265581155242092116,-0.35589599609375,34.83985346974805,26.199681498093646,12.45644749466939,145,14,0.0,49359,49416380246833,5,40.4,-9.501138687133789,0.20360000431537628,25,-217.63821974615277,7.316300713026974E-4,1.59806246E9,,,,0,,3,0.29,1.59806246E9,358.0,NaN,NaN
Raw,232674931171975,649479202000000,,,-1265581155242092116,-0.35589599609375,34.83985346974805,26.199681498093646,12.45644749466939,145,22,0.0,49359,49416366635674,17,28.2,-140.5587921142578,0.23420000076293945,25,-2355.5570721542126,0.002959872375920247,1.60031245E9,,,,0,,3,0.29,1.60031245E9,358.0,NaN,NaN
Raw,232674931171975,649479202000000,,,-1265581155242092116,-0.35589599609375,34.83985346974805,26.199681498093646,12.45644749466939,145,13,0.0,49359,49416372868725,17,28.2,654.6599731445312,0.24320000410079956,25,12128.904481442507,0.002958832253614959,1.60087501E9,,,,0,,3,0.29,1.60087501E9,358.0,NaN,NaN
Raw,232674931171975,649479202000000,,,-1265581155242092116,-0.35589599609375,34.83985346974805,26.199681498093646,12.45644749466939,145,15,0.0,49359,49416372367569,27,24.0,-644.391357421875,0.25929999351501465,29,-12492.457795610313,0.18713636579275905,1.602E9,,,,0,,3,0.29,1.602E9,358.0,NaN,NaN
Raw,232674931171975,649479202000000,,,-1265581155242092116,-0.35589599609375,34.83985346974805,26.199681498093646,12.45644749466939,145,5,0.0,49359,49416375238717,4,42.1,-540.972900390625,0.24060000479221344,25,-10496.480273008481,5.799191056178505E-4,1.60256256E9,,,,0,,3,0.29,1.60256256E9,358.0,NaN,NaN
Raw,232674931171975,649479202000000,,,-1265581155242092116,-0.35589599609375,34.83985346974805,26.199681498093646,12.45644749466939,145,3,0.0,49359,49416369566266,7,37.9,785.5747680664062,0.232900008559227,25,15181.085309271672,9.900844722691658E-4,1.60481254E9,,,,0,,3,0.29,1.60481254E9,358.0,NaN,NaN
Raw,232674931171975,649479202000000,,,-1265581155242092116,-0.35589599609375,34.83985346974805,26.199681498093646,12.45644749466939,145,4,0.0,49359,49416379589374,8,36.7,228.44338989257812,0.20309999585151672,25,4380.8030027285595,0.0011391319696942128,1.60537498E9,,,,0,,3,0.29,1.60537498E9,358.0,NaN,NaN
Raw,232674931171975,649479202000000,,,-1265581155242092116,-0.35589599609375,34.83985346974805,26.199681498093646,12.45644749466939,145,37,0.0,16399,384220364362489,5,41.8,490.4302673339844,0.00930000003427267,25,9627.226575079423,6.913421459270097E-4,1.56109798E9,,,,0,,5,0.69,1.56109798E9,358.0,NaN,NaN
Raw,232674931171975,649479202000000,,,-1265581155242092116,-0.35589599609375,34.83985346974805,26.199681498093646,12.45644749466939,145,22,0.0,16399,384220364340122,7,37.3,-388.2707824707031,0.010400000028312206,25,-6986.902813965499,0.0010178092579723537,1.56109798E9,,,,0,,5,0.69,1.56109798E9,358.0,NaN,NaN
Raw,232674931171975,649479202000000,,,-1265581155242092116,-0.35589599609375,34.83985346974805,26.199681498093646,12.45644749466939,145,20,0.0,16399,384220360917928,13,31.3,648.2806396484375,0.0071000000461936,17,11617.116508637811,0.0020932304434118673,1.56109798E9,,,,0,,5,0.69,1.56109798E9,358.0,NaN,NaN
Raw,232674931171975,649479202000000,,,-1265581155242092116,-0.35589599609375,34.83985346974805,26.199681498093646,12.45644749466939,145,19,0.0,16399,384220370506262,11,33.3,218.59152221679688,0.03620000183582306,25,3900.6322098454216,0.0016707435714883973,1.56109798E9,,,,0,,5,0.69,1.56109798E9,358.0,NaN,NaN
Raw,232674931171975,649479202000000,,,-1265581155242092116,-0.35589599609375,34.83985346974805,26.199681498093646,12.45644749466939,145,10,0.0,16399,384220311651493,21,26.1,178.0701446533203,0.04320000112056732,25,3188.4352463793853,0.005492329335005111,1.56109798E9,,,,0,,5,0.69,1.56109798E9,358.0,NaN,NaN
