# 
# Header Description:
# 
# Version: v2.0.0.1 Platform: 10 Manufacturer: Google Model: Pixel 4
# 
# Raw,ElapsedRealtimeNanos,TimeNanos,LeapSecond,TimeUncertaintyNanos,FullBiasNanos,BiasNanos,BiasUncertaintyNanos,DriftNanosPerSecond,DriftUncertaintyNanosPerSecond,HardwareClockDiscontinuityCount,Svid,TimeOffsetNanos,State,ReceivedSvTimeNanos,ReceivedSvTimeUncertaintyNanos,Cn0DbHz,PseudorangeRateMetersPerSecond,PseudorangeRateUncertaintyMetersPerSecond,AccumulatedDeltaRangeState,AccumulatedDeltaRangeMeters,AccumulatedDeltaRangeUncertaintyMeters,CarrierFrequencyHz,CarrierCycles,CarrierPhase,CarrierPhaseUncertainty,MultipathIndicator,SnrInDb,ConstellationType,AgcDb,CarrierFrequencyHz,UserLatitude,UserLongitude,UserAltitude
# 
# Fix,Provider,Latitude,Longitude,Altitude,Speed,Accuracy,(UTC)TimeInMs,ElapsedRealtimeNanos
# 
# Nav,Svid,Type,Status,MessageId,Sub-messageId,Data(Bytes)
# 
Fix,gps,51.524721,-0.134315,75.627197,0.000000,3.790092,1582195131000,232388897406293
Raw,232388923395306,649193190000000,,,-1265581155251998639,0.67905293405056,37.07806899910793,-100.9521725056642,10.697338558520268,119,5,0.0,16399,383948361413597,27,24.8,692.1341552734375,0.04280000180006027,19,8127.249785304801,0.19029366893311156,1.57542003E9,,,,0,,1,0.24,1.57542003E9,352.0,NaN,NaN
Raw,232388923395306,649193190000000,,,-1265581155251998639,0.67905293405056,37.07806899910793,-100.9521725056642,10.697338558520268,119,13,0.0,16399,383948374159207,10,34.2,174.8582763671875,0.041600000113248825,25,2263.997997747206,0.0015223494237726067,1.57542003E9,,,,0,,1,0.24,1.57542003E9,352.0,NaN,NaN
Raw,232388923395306,649193190000000,,,-1265581155251998639,0.67905293405056,37.07806899910793,-100.9521725056642,10.697338558520268,119,15,0.0,16399,383948374243113,17,28.5,-162.0223388671875,0.04620000347495079,21,-2106.521525110596,0.0030066398239606148,1.57542003E9,,,,0,,1,0.24,1.57542003E9,352.0,NaN,NaN
Raw,232388923395306,649193190000000,,,-1265581155251998639,0.67905293405056,37.07806899910793,-100.9521725056642,10.697338558520268,119,17,0.0,16399,383948359230525,16,29.6,-576.3034057617188,0.052400000393390656,21,-6481.296332072931,0.00281634630106073,1.57542003E9,,,,0,,1,0.24,1.57542003E9,352.0,NaN,NaN
Raw,232388923395306,649193190000000,,,-1265581155251998639,0.67905293405056,37.07806899910793,-100.9521725056642,10.697338558520268,119,20,0.0,16399,383948365175956,40,21.9,-407.4092102050781,0.793999969959259,16,0.0,0.0,1.57542003E9,,,,0,,1,0.24,1.57542003E9,352.0,NaN,NaN
Raw,232388923395306,649193190000000,,,-1265581155251998639,0.67905293405056,37.07806899910793,-100.9521725056642,10.697338558520268,119,24,0.0,16399,383948366103270,61,18.2,-626.3611450195312,1.0855000019073486,16,0.0,0.0,1.57542003E9,,,,0,,1,0.24,1.57542003E9,352.0,NaN,NaN
Raw,232388923395306,649193190000000,,,-1265581155251998639,0.67905293405056,37.07806899910793,-100.9521725056642,10.697338558520268,119,28,0.0,16399,383948370531801,11,33.5,137.92706298828125,0.03620000183582306,25,1750.7965335114322,0.001655554942969963,1.57542003E9,,,,0,,1,0.24,1.57542003E9,352.0,NaN,NaN
Raw,232388923395306,649193190000000,,,-1265581155251998639,0.67905293405056,37.07806899910793,-100.9521725056642,10.697338558520268,119,30,0.0,16399,383948364338635,8,36.2,554.7039184570312,0.025600001215934753,25,7189.6037338456335,0.001160791358090767,1.57542003E9,,,,0,,1,0.24,1.57542003E9,352.0,NaN,NaN
Raw,232388923395306,649193190000000,,,-1265581155251998639,0.67905293405056,37.07806899910793,-100.9521725056642,10.697338558520268,119,14,0.0,49359,49130378118450,5,40.4,-86.04261779785156,0.24560000002384186,25,-1088.4080293139668,7.316300713026974E-4,1.59806246E9,,,,0,,3,-1.75,1.59806246E9,352.0,NaN,NaN
Raw,232388923395306,649193190000000,,,-1265581155251998639,0.67905293405056,37.07806899910793,-100.9521725056642,10.697338558520268,119,22,0.0,49359,49130364378959,31,23.5,-224.01934814453125,0.3172000050544739,29,-1241.1103907517963,0.18733370372433672,1.60031245E9,,,,0,,3,-1.75,1.60031245E9,352.0,NaN,NaN
Raw,232388923395306,649193190000000,,,-1265581155251998639,0.67905293405056,37.07806899910793,-100.9521725056642,10.697338558520268,119,13,0.0,49359,49130371384295,19,27.1,599.7719116210938,0.24230000376701355,25,5725.617114186745,0.0031835540173351597,1.60087501E9,,,,0,,3,-1.75,1.60087501E9,352.0,NaN,NaN
Raw,232388923395306,649193190000000,,,-1265581155251998639,0.67905293405056,37.07806899910793,-100.9521725056642,10.697338558520268,119,15,0.0,49359,49130369641518,12,32.5,-703.0455322265625,0.23510000109672546,25,-8841.343917931365,0.0017777954178659534,1.602E9,,,,0,,3,-1.75,1.602E9,352.0,NaN,NaN
Raw,232388923395306,649193190000000,,,-1265581155251998639,0.67905293405056,37.07806899910793,-100.9521725056642,10.697338558520268,119,5,0.0,49359,49130372608060,5,40.8,-607.1355590820312,0.23660001158714294,25,-7636.791519290838,7.295756082573676E-4,1.60256256E9,,,,0,,3,-1.75,1.60256256E9,352.0,NaN,NaN
Raw,232388923395306,649193190000000,,,-1265581155251998639,0.67905293405056,37.07806899910793,-100.9521725056642,10.697338558520268,119,3,0.0,49359,49130368206718,7,37.6,730.5975952148438,0.2314000129699707,25,8437.210208776445,9.900844722691658E-4,1.60481254E9,,,,0,,3,-1.75,1.60481254E9,352.0,NaN,NaN
Raw,232388923395306,649193190000000,,,-1265581155251998639,0.67905293405056,37.07806899910793,-100.9521725056642,10.697338558520268,119,4,0.0,49359,49130377685607,7,37.3,146.95643615722656,0.24490000307559967,25,1840.9288663098287,9.897376030341073E-4,1.60537498E9,,,,0,,3,-1.75,1.60537498E9,352.0,NaN,NaN
Raw,232388923395306,649193190000000,,,-1265581155251998639,0.67905293405056,37.07806899910793,-100.9521725056642,10.697338558520268,119,37,0.0,16399,383934362723806,9,35.7,440.7340393066406,0.023100001737475395,17,5692.935061703615,0.0013442764594430532,1.56109798E9,,,,0,,5,0.16,1.56109798E9,352.0,NaN,NaN
Raw,232388923395306,649193190000000,,,-1265581155251998639,0.67905293405056,37.07806899910793,-100.9521725056642,10.697338558520268,119,22,0.0,16399,383934361858240,6,38.4,-448.1410827636719,0.020600000396370888,25,-5792.554175124622,9.409935037250662E-4,1.56109798E9,,,,0,,5,0.16,1.56109798E9,352.0,NaN,NaN
Raw,232388923395306,649193190000000,,,-1265581155251998639,0.67905293405056,37.07806899910793,-100.9521725056642,10.697338558520268,119,20,0.0,16399,383934359430650,17,28.7,600.0504760742188,0.06870000064373016,17,7727.873835763271,0.003034223768286223,1.56109798E9,,,,0,,5,0.16,1.56109798E9,352.0,NaN,NaN
Raw,232388923395306,649193190000000,,,-1265581155251998639,0.67905293405056,37.07806899910793,-100.9521725056642,10.697338558520268,119,19,0.0,16399,383934368599994,16,29.1,151.46658325195312,0.03590000048279762,17,1652.1394486379488,0.0028421844273806814,1.56109798E9,,,,0,,5,0.16,1.56109798E9,352.0,NaN,NaN
Raw,232388923395306,649193190000000,,,-1265581155251998639,0.67905293405056,37.07806899910793,-100.9521725056642,10.697338558520268,119,10,0.0,16399,383934309718857,16,29.1,136.78146362304688,0.03739999979734421,17,1497.5232032672664,0.0028421844273806814,1.56109798E9,,,,0,,5,0.16,1.56109798E9,352.0,NaN,NaN
Raw,232388923395306,649193190000000,,,-1265581155251998639,0.67905293405056,37.07806899910793,-100.9521725056642,10.697338558520268,119,1,0.0,23567,383948357822133,6,38.6,347.87432861328125,0.044600002467632294,25,4476.176692039251,0.0020551716777868216,1.57542003E9,,,,0,,6,0.18,1.57542003E9,352.0,NaN,NaN
Raw,232388923395306,649193190000000,,,-1265581155251998639,0.67905293405056,37.07806899910793,-100.9521725056642,10.697338558520268,119,4,0.0,23567,383948355903350,10,34.1,463.5137023925781,0.04310000315308571,25,4893.640211448888,0.003311109885939926,1.57542003E9,,,,0,,6,0.18,1.57542003E9,352.0,NaN,NaN
Raw,232388923395306,649193190000000,,,-1265581155251998639,0.67905293405056,37.07806899910793,-100.9521725056642,10.697338558520268,119,5,0.0,23567,383948356626143,12,32.7,-460.5386962890625,0.04560000076889992,25,-5929.856699101136,0.003958108324583987,1.57542003E9,,,,0,,6,0.18,1.57542003E9,352.0,NaN,NaN
Raw,232388923395306,649193190000000,,,-1265581155251998639,0.67905293405056,37.07806899910793,-100.9521725056642,10.697338558520268,119,9,0.0,23567,383948370312615,10,34.5,14.850634574890137,0.047600001096725464,25,189.28174932107902,0.003311109885939926,1.57542003E9,,,,0,,6,0.18,1.57542003E9,352.0,NaN,NaN
Raw,232388923395306,649193190000000,,,-1265581155251998639,0.67905293405056,37.07806899910793,-100.9521725056642,10.697338558520268,119,31,0.0,23567,383948363140302,7,37.6,-189.74610900878906,0.0479000024497509,25,-2446.589128472109,0.0021883771969841777,1.57542003E9,,,,0,,6,0.18,1.57542003E9,352.0,NaN,NaN
Raw,232388923395306,649193190000000,,,-1265581155251998639,0.67905293405056,37.07806899910793,-100.9521725056642,10.697338558520268,119,24,0.0,81935,383948366111003,14,17.9,-624.6344604492188,1.0855000019073486,16,0.0,0.0,1.17645005E9,,,,0,,1,-8.2,1.17645005E9,352.0,NaN,NaN
Raw,232388923395306,649193190000000,,,-1265581155251998639,0.67905293405056,37.07806899910793,-100.9521725056642,10.697338558520268,119,30,0.0,81935,383948364346459,2,36.0,554.6768798828125,0.02890000119805336,25,2976.8751769350565,0.0015544510042033504,1.17645005E9,,,,0,,1,-8.2,1.17645005E9,352.0,NaN,NaN
Raw,232388923395306,649193190000000,,,-1265581155251998639,0.67905293405056,37.07806899910793,-100.9521725056642,10.697338558520268,119,1,0.0,81935,383948357829237,6,25.6,347.8466491699219,0.07999999821186066,25,2218.5457921467378,0.010753742989341824,1.17645005E9,,,,0,,6,-8.2,1.17645005E9,352.0,NaN,NaN
Raw,232388923395306,649193190000000,,,-1265581155251998639,0.67905293405056,37.07806899910793,-100.9521725056642,10.697338558520268,119,4,0.0,81935,383948355910434,3,33.1,463.57000732421875,0.04800000041723251,25,2958.574806065445,0.0022170039651624013,1.17645005E9,,,,0,,6,-8.2,1.17645005E9,352.0,NaN,NaN
Raw,232388923395306,649193190000000,,,-1265581155251998639,0.67905293405056,37.07806899910793,-100.9521725056642,10.697338558520268,119,5,0.0,81935,383948356633201,3,33.5,-460.5702819824219,0.0494999997317791,25,-2932.970277729904,0.0022170039651624013,1.17645005E9,,,,0,,6,-8.2,1.17645005E9,352.0,NaN,NaN
Raw,232388923395306,649193190000000,,,-1265581155251998639,0.67905293405056,37.07806899910793,-100.9521725056642,10.697338558520268,119,9,0.0,81935,383948370319689,3,32.7,14.897133827209473,0.041600000113248825,25,97.72568690671955,0.0024208662868967453,1.17645005E9,,,,0,,6,-8.2,1.17645005E9,352.0,NaN,NaN
Raw,232388923395306,649193190000000,,,-1265581155251998639,0.67905293405056,37.07806899910793,-100.9521725056642,10.697338558520268,119,31,0.0,81935,383948363147377,5,27.5,-189.68338012695312,0.04050000011920929,25,-1204.9775866113414,0.004332076888121183,1.17645005E9,,,,0,,6,-8.2,1.17645005E9,352.0,NaN,NaN
Fix,gps,51.524723,-0.134310,76.220581,0.000000,3.790092,1582195132000,232389901246133
Raw,232389917688061,649194190000000,,,-1265581155251998742,0.6032971739768982,38.047393900342286,-99.91115258766497,10.685016509162377,119,5,0.0,16399,383949361411290,14,30.8,692.4955444335938,0.024400001391768456,17,8819.241500405806,0.002397700231676362,1.57542003E9,,,,0,,1,0.57,1.57542003E9,352.0,NaN,NaN
Raw,232389917688061,649194190000000,,,-1265581155251998742,0.6032971739768982,38.047393900342286,-99.91115258766497,10.685016509162377,119,13,0.0,16399,383949374158584,12,32.8,175.34857177734375,0.04260000213980675,25,2438.7746519042494,0.001807789796734829,1.57542003E9,,,,0,,1,0.57,1.57542003E9,352.0,NaN,NaN
Raw,232389917688061,649194190000000,,,-1265581155251998742,0.6032971739768982,38.047393900342286,-99.91115258766497,10.685016509162377,119,15,0.0,16399,383949374243873,35,22.3,-161.2834014892578,0.8075000047683716,16,0.0,0.0,1.57542003E9,,,,0,,1,0.57,1.57542003E9,352.0,NaN,NaN
Raw,232389917688061,649194190000000,,,-1265581155251998742,0.6032971739768982,38.047393900342286,-99.91115258766497,10.685016509162377,119,17,0.0,16399,383949359232463,14,30.7,-575.1964111328125,0.05140000209212303,17,-7056.992617828182,0.002397700231676362,1.57542003E9,,,,0,,1,0.57,1.57542003E9,352.0,NaN,NaN
Raw,232389917688061,649194190000000,,,-1265581155251998742,0.6032971739768982,38.047393900342286,-99.91115258766497,10.685016509162377,119,20,0.0,16399,383949365177387,27,24.4,-406.6309509277344,0.04880000278353691,19,-5602.052645499524,0.19029366893311156,1.57542003E9,,,,0,,1,0.57,1.57542003E9,352.0,NaN,NaN
Raw,232389917688061,649194190000000,,,-1265581155251998742,0.6032971739768982,38.047393900342286,-99.91115258766497,10.685016509162377,119,28,0.0,16399,383949370531352,10,34.8,138.4419708251953,0.035600002855062485,25,1888.6610652035854,0.0015223494237726067,1.57542003E9,,,,0,,1,0.57,1.57542003E9,352.0,NaN,NaN
Raw,232389917688061,649194190000000,,,-1265581155251998742,0.6032971739768982,38.047393900342286,-99.91115258766497,10.685016509162377,119,30,0.0,16399,383949364336763,9,35.9,555.1170043945312,0.026100000366568565,25,7744.201729544,0.0013320557236479321,1.57542003E9,,,,0,,1,0.57,1.57542003E9,352.0,NaN,NaN
Raw,232389917688061,649194190000000,,,-1265581155251998742,0.6032971739768982,38.047393900342286,-99.91115258766497,10.685016509162377,119,14,0.0,49359,49131378118724,5,40.2,-85.55667114257812,0.24560000002384186,25,-1174.5051748393546,7.316300713026974E-4,1.59806246E9,,,,0,,3,-1.44,1.59806246E9,352.0,NaN,NaN
Raw,232389917688061,649194190000000,,,-1265581155251998742,0.6032971739768982,38.047393900342286,-99.91115258766497,10.685016509162377,119,22,0.0,49359,49131364379635,24,25.2,-223.5072021484375,0.23930001258850098,21,-1465.2028177738844,0.18733370372433672,1.60031245E9,,,,0,,3,-1.44,1.60031245E9,352.0,NaN,NaN
Raw,232389917688061,649194190000000,,,-1265581155251998742,0.6032971739768982,38.047393900342286,-99.91115258766497,10.685016509162377,119,13,0.0,49359,49131371382371,16,29.2,600.1243286132812,0.24040000140666962,25,6325.208788453707,0.0027715645241306536,1.60087501E9,,,,0,,3,-1.44,1.60087501E9,352.0,NaN,NaN
Raw,232389917688061,649194190000000,,,-1265581155251998742,0.6032971739768982,38.047393900342286,-99.91115258766497,10.685016509162377,119,15,0.0,49359,49131369643889,10,34.6,-702.6192626953125,0.23409999907016754,25,-9544.525205499729,0.0014970909974500758,1.602E9,,,,0,,3,-1.44,1.602E9,352.0,NaN,NaN
Raw,232389917688061,649194190000000,,,-1265581155251998742,0.6032971739768982,38.047393900342286,-99.91115258766497,10.685016509162377,119,5,0.0,49359,49131372610049,5,40.6,-606.7210083007812,0.23660001158714294,25,-8244.022533078118,7.295756082573676E-4,1.60256256E9,,,,0,,3,-1.44,1.60256256E9,352.0,NaN,NaN
Raw,232389917688061,649194190000000,,,-1265581155251998742,0.6032971739768982,38.047393900342286,-99.91115258766497,10.685016509162377,119,3,0.0,49359,49131368204284,6,38.3,731.048583984375,0.23110000789165497,25,9167.722761531284,9.153611536216265E-4,1.60481254E9,,,,0,,3,-1.44,1.60481254E9,352.0,NaN,NaN
Raw,232389917688061,649194190000000,,,-1265581155251998742,0.6032971739768982,38.047393900342286,-99.91115258766497,10.685016509162377,119,4,0.0,49359,49131377685072,6,39.4,147.46981811523438,0.2443000078201294,25,1987.8397055809417,8.216689731510993E-4,1.60537498E9,,,,0,,3,-1.44,1.60537498E9,352.0,NaN,NaN
Raw,232389917688061,649194190000000,,,-1265581155251998742,0.6032971739768982,38.047393900342286,-99.91115258766497,10.685016509162377,119,37,0.0,16399,383935362722333,10,34.0,441.1593933105469,0.023600000888109207,25,6133.669657677424,0.001536315979199305,1.56109798E9,,,,0,,5,0.57,1.56109798E9,352.0,NaN,NaN
Raw,232389917688061,649194190000000,,,-1265581155251998742,0.6032971739768982,38.047393900342286,-99.91115258766497,10.685016509162377,119,22,0.0,16399,383935361859724,7,37.6,-447.7141418457031,0.020899999886751175,25,-6240.784698582277,0.0010178092579723537,1.56109798E9,,,,0,,5,0.57,1.56109798E9,352.0,NaN,NaN
Raw,232389917688061,649194190000000,,,-1265581155251998742,0.6032971739768982,38.047393900342286,-99.91115258766497,10.685016509162377,119,20,0.0,16399,383935359428624,16,29.7,600.4801635742188,0.052400000393390656,25,8327.931046490443,0.0028421844273806814,1.56109798E9,,,,0,,5,0.57,1.56109798E9,352.0,NaN,NaN
Raw,232389917688061,649194190000000,,,-1265581155251998742,0.6032971739768982,38.047393900342286,-99.91115258766497,10.685016509162377,119,19,0.0,16399,383935368599521,19,27.4,151.938232421875,0.037800002843141556,29,1803.5529361593565,0.0032646714781548623,1.56109798E9,,,,0,,5,0.57,1.56109798E9,352.0,NaN,NaN
Raw,232389917688061,649194190000000,,,-1265581155251998742,0.6032971739768982,38.047393900342286,-99.91115258766497,10.685016509162377,119,10,0.0,16399,383935309718402,13,31.3,137.181396484375,0.035600002855062485,25,1634.184547592996,0.0020932304434118673,1.56109798E9,,,,0,,5,0.57,1.56109798E9,352.0,NaN,NaN
Raw,232389917688061,649194190000000,,,-1265581155251998742,0.6032971739768982,38.047393900342286,-99.91115258766497,10.685016509162377,119,5,0.0,17167,383935305942930,17,28.3,-34.221435546875,2.777700185775757,16,0.0,0.0,1.56109798E9,,,,0,,5,0.57,1.56109798E9,352.0,NaN,NaN
Raw,232389917688061,649194190000000,,,-1265581155251998742,0.6032971739768982,38.047393900342286,-99.91115258766497,10.685016509162377,119,1,0.0,23567,383949357820978,5,40.2,348.2243957519531,0.04410000145435333,25,4823.893739119821,0.001617496273834944,1.57542003E9,,,,0,,6,0.47,1.57542003E9,352.0,NaN,NaN
Raw,232389917688061,649194190000000,,,-1265581155251998742,0.6032971739768982,38.047393900342286,-99.91115258766497,10.685016509162377,119,4,0.0,23567,383949355901795,7,37.0,463.9317321777344,0.04190000146627426,25,5357.05661258859,0.0021883771969841777,1.57542003E9,,,,0,,6,0.47,1.57542003E9,352.0,NaN,NaN
Raw,232389917688061,649194190000000,,,-1265581155251998742,0.6032971739768982,38.047393900342286,-99.91115258766497,10.685016509162377,119,5,0.0,23567,383949356627643,14,30.1,-460.259765625,0.04690000042319298,25,-6390.590058337674,0.005233075867304602,1.57542003E9,,,,0,,6,0.47,1.57542003E9,352.0,NaN,NaN
Raw,232389917688061,649194190000000,,,-1265581155251998742,0.6032971739768982,38.047393900342286,-99.91115258766497,10.685016509162377,119,9,0.0,23567,383949370312566,9,35.9,15.23731517791748,0.0471000038087368,25,204.0269874890904,0.0028924638165555576,1.57542003E9,,,,0,,6,0.47,1.57542003E9,352.0,NaN,NaN
Raw,232389917688061,649194190000000,,,-1265581155251998742,0.6032971739768982,38.047393900342286,-99.91115258766497,10.685016509162377,119,31,0.0,23567,383949363140919,6,38.7,-189.34205627441406,0.047600001096725464,25,-2636.448771931553,0.0020551716777868216,1.57542003E9,,,,0,,6,0.47,1.57542003E9,352.0,NaN,NaN
Raw,232389917688061,649194190000000,,,-1265581155251998742,0.6032971739768982,38.047393900342286,-99.91115258766497,10.685016509162377,119,24,0.0,81935,383949366113084,7,24.4,-625.0098876953125,0.041099999099969864,27,-3960.5150348843067,0.25482803839368795,1.17645005E9,,,,0,,1,-3.55,1.17645005E9,352.0,NaN,NaN
Raw,232389917688061,649194190000000,,,-1265581155251998742,0.6032971739768982,38.047393900342286,-99.91115258766497,10.685016509162377,119,30,0.0,81935,383949364344606,2,40.9,555.1071166992188,0.026500001549720764,25,3531.436890911527,9.938293227750238E-4,1.17645005E9,,,,0,,1,-3.55,1.17645005E9,352.0,NaN,NaN
Raw,232389917688061,649194190000000,,,-1265581155251998742,0.6032971739768982,38.047393900342286,-99.91115258766497,10.685016509162377,119,1,0.0,81935,383949357828045,5,28.2,348.5328674316406,0.05860000103712082,25,2566.2444222047293,0.0040262828122019055,1.17645005E9,,,,0,,6,-3.55,1.17645005E9,352.0,NaN,NaN
Raw,232389917688061,649194190000000,,,-1265581155251998742,0.6032971739768982,38.047393900342286,-99.91115258766497,10.685016509162377,119,4,0.0,81935,383949355908879,3,33.0,464.0937805175781,0.04800000041723251,25,3421.986704004347,0.0022170039651624013,1.17645005E9,,,,0,,6,-3.55,1.17645005E9,352.0,NaN,NaN
Raw,232389917688061,649194190000000,,,-1265581155251998742,0.6032971739768982,38.047393900342286,-99.91115258766497,10.685016509162377,119,5,0.0,81935,383949356634736,2,39.0,-460.03021240234375,0.04500000178813934,25,-3393.6931423865667,0.001121243362856653,1.17645005E9,,,,0,,6,-3.55,1.17645005E9,352.0,NaN,NaN
Raw,232389917688061,649194190000000,,,-1265581155251998742,0.6032971739768982,38.047393900342286,-99.91115258766497,10.685016509162377,119,9,0.0,81935,383949370319633,2,36.8,15.463632583618164,0.03790000081062317,25,112.4666648247048,0.0015544510042033504,1.17645005E9,,,,0,,6,-3.55,1.17645005E9,352.0,NaN,NaN
Raw,232389917688061,649194190000000,,,-1265581155251998742,0.6032971739768982,38.047393900342286,-99.91115258766497,10.685016509162377,119,24,0.0,81935,383949359874235,14,17.8,-589.5192260742188,1.7450001239776611,16,0.0,0.0,1.17645005E9,,,,0,,6,-3.55,1.17645005E9,352.0,NaN,NaN
Raw,232389917688061,649194190000000,,,-1265581155251998742,0.6032971739768982,38.047393900342286,-99.91115258766497,10.685016509162377,119,31,0.0,81935,383949363148009,3,31.2,-189.17489624023438,0.03230000287294388,25,-1394.8353724425408,0.0027776256465907277,1.17645005E9,,,,0,,6,-3.55,1.17645005E9,352.0,NaN,NaN
Fix,gps,51.524725,-0.134307,76.632263,0.000000,3.790092,1582195133000,232390904627326
Raw,232390915692223,649195190000000,,,-1265581155251998829,0.9667818397283554,38.99518196703866,-98.73727021620462,11.44870363122244,119,5,0.0,16399,383950361408982,14,30.3,693.0219116210938,0.024400001391768456,17,9511.913220860102,0.002397700231676362,1.57542003E9,,,,0,,1,0.52,1.57542003E9,352.0,NaN,NaN
Raw,232390915692223,649195190000000,,,-1265581155251998829,0.9667818397283554,38.99518196703866,-98.73727021620462,11.44870363122244,119,10,0.0,16399,383950356671686,53,19.2,-675.1334228515625,2.5205001831054688,16,0.0,0.0,1.57542003E9,,,,0,,1,0.52,1.57542003E9,352.0,NaN,NaN
Raw,232390915692223,649195190000000,,,-1265581155251998829,0.9667818397283554,38.99518196703866,-98.73727021620462,11.44870363122244,119,13,0.0,16399,383950374158018,9,35.8,175.9561309814453,0.04110000282526016,25,2614.36184868648,0.0013320557236479321,1.57542003E9,,,,0,,1,0.52,1.57542003E9,352.0,NaN,NaN
Raw,232390915692223,649195190000000,,,-1265581155251998829,0.9667818397283554,38.99518196703866,-98.73727021620462,11.44870363122244,119,15,0.0,16399,383950374244292,31,23.8,-161.0911865234375,0.13220000267028809,19,-2430.4851091606815,0.19029366893311156,1.57542003E9,,,,0,,1,0.52,1.57542003E9,352.0,NaN,NaN
Raw,232390915692223,649195190000000,,,-1265581155251998829,0.9667818397283554,38.99518196703866,-98.73727021620462,11.44870363122244,119,17,0.0,16399,383950359234384,14,30.2,-574.65673828125,0.05140000209212303,17,-7631.9944246326395,0.002397700231676362,1.57542003E9,,,,0,,1,0.52,1.57542003E9,352.0,NaN,NaN
Raw,232390915692223,649195190000000,,,-1265581155251998829,0.9667818397283554,38.99518196703866,-98.73727021620462,11.44870363122244,119,20,0.0,16399,383950365178648,27,24.0,-406.06646728515625,0.04880000278353691,21,-6008.439545691871,0.19029366893311156,1.57542003E9,,,,0,,1,0.52,1.57542003E9,352.0,NaN,NaN
Raw,232390915692223,649195190000000,,,-1265581155251998829,0.9667818397283554,38.99518196703866,-98.73727021620462,11.44870363122244,119,24,0.0,16399,383950366107291,27,24.1,-624.3023071289062,0.02930000051856041,19,-278.5999316802891,0.19029366893311156,1.57542003E9,,,,0,,1,0.52,1.57542003E9,352.0,NaN,NaN
Raw,232390915692223,649195190000000,,,-1265581155251998829,0.9667818397283554,38.99518196703866,-98.73727021620462,11.44870363122244,119,28,0.0,16399,383950370530879,11,33.6,139.0745086669922,0.03620000183582306,25,2027.345821584419,0.001655554942969963,1.57542003E9,,,,0,,1,0.52,1.57542003E9,352.0,NaN,NaN
Raw,232390915692223,649195190000000,,,-1265581155251998829,0.9667818397283554,38.99518196703866,-98.73727021620462,11.44870363122244,119,30,0.0,16399,383950364334913,6,39.2,555.6847534179688,0.024800000712275505,25,8299.521500542518,8.372921387687362E-4,1.57542003E9,,,,0,,1,0.52,1.57542003E9,352.0,NaN,NaN
Raw,232390915692223,649195190000000,,,-1265581155251998829,0.9667818397283554,38.99518196703866,-98.73727021620462,11.44870363122244,119,14,0.0,49359,49132378119038,5,40.3,-84.89836120605469,0.24560000002384186,25,-1259.7811493632373,7.316300713026974E-4,1.59806246E9,,,,0,,3,-1.48,1.59806246E9,352.0,NaN,NaN
Raw,232390915692223,649195190000000,,,-1265581155251998829,0.9667818397283554,38.99518196703866,-98.73727021620462,11.44870363122244,119,22,0.0,49359,49132364380506,46,20.9,-222.76788330078125,1.0525000095367432,16,0.0,0.0,1.60031245E9,,,,0,,3,-1.48,1.60031245E9,352.0,NaN,NaN
Raw,232390915692223,649195190000000,,,-1265581155251998829,0.9667818397283554,38.99518196703866,-98.73727021620462,11.44870363122244,119,13,0.0,49359,49132371380368,27,24.8,600.7200927734375,0.25780001282691956,29,6925.601494525093,0.18726787319550683,1.60087501E9,,,,0,,3,-1.48,1.60087501E9,352.0,NaN,NaN
Raw,232390915692223,649195190000000,,,-1265581155251998829,0.9667818397283554,38.99518196703866,-98.73727021620462,11.44870363122244,119,15,0.0,49359,49132369646276,10,34.8,-702.035888671875,0.23409999907016754,25,-10246.92305322456,0.0014970909974500758,1.602E9,,,,0,,3,-1.48,1.602E9,352.0,NaN,NaN
Raw,232390915692223,649195190000000,,,-1265581155251998829,0.9667818397283554,38.99518196703866,-98.73727021620462,11.44870363122244,119,5,0.0,49359,49132372612076,5,40.1,-606.1045532226562,0.23660001158714294,25,-8850.486389034688,7.295756082573676E-4,1.60256256E9,,,,0,,3,-1.48,1.60256256E9,352.0,NaN,NaN
Raw,232390915692223,649195190000000,,,-1265581155251998829,0.9667818397283554,38.99518196703866,-98.73727021620462,11.44870363122244,119,3,0.0,49359,49132368201817,6,38.4,731.626220703125,0.23110000789165497,25,9898.992129744815,9.153611536216265E-4,1.60481254E9,,,,0,,3,-1.48,1.60481254E9,352.0,NaN,NaN
Raw,232390915692223,649195190000000,,,-1265581155251998829,0.9667818397283554,38.99518196703866,-98.73727021620462,11.44870363122244,119,4,0.0,49359,49132377684595,6,39.4,148.14256286621094,0.2443000078201294,25,2135.596002917465,8.216689731510993E-4,1.60537498E9,,,,0,,3,-1.48,1.60537498E9,352.0,NaN,NaN
Raw,232390915692223,649195190000000,,,-1265581155251998829,0.9667818397283554,38.99518196703866,-98.73727021620462,11.44870363122244,119,37,0.0,16399,383936362720861,8,36.4,441.7397155761719,0.022600000724196434,25,6575.05612807241,0.0011714408558922843,1.56109798E9,,,,0,,5,0.5,1.56109798E9,352.0,NaN,NaN
Raw,232390915692223,649195190000000,,,-1265581155251998829,0.9667818397283554,38.99518196703866,-98.73727021620462,11.44870363122244,119,22,0.0,16399,383936361861226,7,37.6,-447.12353515625,0.020899999886751175,25,-6688.279853855796,0.0010178092579723537,1.56109798E9,,,,0,,5,0.5,1.56109798E9,352.0,NaN,NaN
Raw,232390915692223,649195190000000,,,-1265581155251998829,0.9667818397283554,38.99518196703866,-98.73727021620462,11.44870363122244,119,20,0.0,16399,383936359426627,16,29.4,601.0537109375,0.052400000393390656,25,8928.64433069493,0.0028421844273806814,1.56109798E9,,,,0,,5,0.5,1.56109798E9,352.0,NaN,NaN
Raw,232390915692223,649195190000000,,,-1265581155251998829,0.9667818397283554,38.99518196703866,-98.73727021620462,11.44870363122244,119,19,0.0,16399,383936368598991,14,30.5,152.5679168701172,0.03490000218153,25,1955.7426461485377,0.0024196975554572116,1.56109798E9,,,,0,,5,0.5,1.56109798E9,352.0,NaN,NaN
Raw,232390915692223,649195190000000,,,-1265581155251998829,0.9667818397283554,38.99518196703866,-98.73727021620462,11.44870363122244,119,10,0.0,16399,383936309717958,13,31.0,137.72279357910156,0.035600002855062485,25,1771.5654486692654,0.0020932304434118673,1.56109798E9,,,,0,,5,0.5,1.56109798E9,352.0,NaN,NaN
Raw,232390915692223,649195190000000,,,-1265581155251998829,0.9667818397283554,38.99518196703866,-98.73727021620462,11.44870363122244,119,5,0.0,17167,383936305943039,16,29.6,-35.440887451171875,1.8282999992370605,16,0.0,0.0,1.56109798E9,,,,0,,5,0.5,1.56109798E9,352.0,NaN,NaN
Raw,232390915692223,649195190000000,,,-1265581155251998829,0.9667818397283554,38.99518196703866,-98.73727021620462,11.44870363122244,119,1,0.0,23567,383950357819804,6,38.7,348.7840576171875,0.044600002467632294,25,5172.364139860151,0.0020551716777868216,1.57542003E9,,,,0,,6,0.42,1.57542003E9,352.0,NaN,NaN
Raw,232390915692223,649195190000000,,,-1265581155251998829,0.9667818397283554,38.99518196703866,-98.73727021620462,11.44870363122244,119,4,0.0,23567,383950355900241,7,37.9,464.4607238769531,0.04190000146627426,25,5821.194313633092,0.0021883771969841777,1.57542003E9,,,,0,,6,0.42,1.57542003E9,352.0,NaN,NaN
Raw,232390915692223,649195190000000,,,-1265581155251998829,0.9667818397283554,38.99518196703866,-98.73727021620462,11.44870363122244,119,5,0.0,23567,383950356629201,12,32.5,-459.7691650390625,0.04560000076889992,25,-6850.638519728043,0.003958108324583987,1.57542003E9,,,,0,,6,0.42,1.57542003E9,352.0,NaN,NaN
Raw,232390915692223,649195190000000,,,-1265581155251998829,0.9667818397283554,38.99518196703866,-98.73727021620462,11.44870363122244,119,9,0.0,23567,383950370312513,7,37.3,15.791061401367188,0.046400003135204315,25,219.51617121955945,0.0021883771969841777,1.57542003E9,,,,0,,6,0.42,1.57542003E9,352.0,NaN,NaN
Raw,232390915692223,649195190000000,,,-1265581155251998829,0.9667818397283554,38.99518196703866,-98.73727021620462,11.44870363122244,119,24,0.0,23567,383950359869161,70,17.3,-589.910400390625,2.5989999771118164,16,0.0,0.0,1.57542003E9,,,,0,,6,0.42,1.57542003E9,352.0,NaN,NaN
Raw,232390915692223,649195190000000,,,-1265581155251998829,0.9667818397283554,38.99518196703866,-98.73727021620462,11.44870363122244,119,31,0.0,23567,383950363141553,7,37.9,-188.79391479492188,0.0479000024497509,25,-2825.5503546711425,0.0021883771969841777,1.57542003E9,,,,0,,6,0.42,1.57542003E9,352.0,NaN,NaN
Raw,232390915692223,649195190000000,,,-1265581155251998829,0.9667818397283554,38.99518196703866,-98.73727021620462,11.44870363122244,119,24,0.0,81935,383950366115176,8,22.4,-624.4306640625,0.7354999780654907,16,0.0,0.0,1.17645005E9,,,,0,,1,-2.88,1.17645005E9,352.0,NaN,NaN
Raw,232390915692223,649195190000000,,,-1265581155251998829,0.9667818397283554,38.99518196703866,-98.73727021620462,11.44870363122244,119,30,0.0,81935,383950364342754,2,40.7,555.6665649414062,0.026500001549720764,25,4086.7613404275244,9.938293227750238E-4,1.17645005E9,,,,0,,1,-2.88,1.17645005E9,352.0,NaN,NaN
Raw,232390915692223,649195190000000,,,-1265581155251998829,0.9667818397283554,38.99518196703866,-98.73727021620462,11.44870363122244,119,1,0.0,81935,383950357826906,5,28.7,348.8441162109375,0.05860000103712082,25,2914.7624890678644,0.0040262828122019055,1.17645005E9,,,,0,,6,-2.88,1.17645005E9,352.0,NaN,NaN
Raw,232390915692223,649195190000000,,,-1265581155251998829,0.9667818397283554,38.99518196703866,-98.73727021620462,11.44870363122244,119,4,0.0,81935,383950355907326,3,31.5,464.48779296875,0.050300002098083496,25,3886.1365326064524,0.0027776256465907277,1.17645005E9,,,,0,,6,-2.88,1.17645005E9,352.0,NaN,NaN
Raw,232390915692223,649195190000000,,,-1265581155251998829,0.9667818397283554,38.99518196703866,-98.73727021620462,11.44870363122244,119,5,0.0,81935,383950356636271,2,37.7,-459.7490234375,0.04610000178217888,25,-3853.7270734572917,0.0013505885638054542,1.17645005E9,,,,0,,6,-2.88,1.17645005E9,352.0,NaN,NaN
Raw,232390915692223,649195190000000,,,-1265581155251998829,0.9667818397283554,38.99518196703866,-98.73727021620462,11.44870363122244,119,9,0.0,81935,383950370319582,2,36.6,15.85031509399414,0.03790000081062317,25,127.95687319880676,0.0015544510042033504,1.17645005E9,,,,0,,6,-2.88,1.17645005E9,352.0,NaN,NaN
Raw,232390915692223,649195190000000,,,-1265581155251998829,0.9667818397283554,38.99518196703866,-98.73727021620462,11.44870363122244,119,24,0.0,81935,383950359876101,8,22.5,-590.01611328125,0.7249999642372131,16,0.0,0.0,1.17645005E9,,,,0,,6,-2.88,1.17645005E9,352.0,NaN,NaN
Raw,232390915692223,649195190000000,,,-1265581155251998829,0.9667818397283554,38.99518196703866,-98.73727021620462,11.44870363122244,119,31,0.0,81935,383950363148638,3,31.7,-188.73756408691406,0.03230000287294388,25,-1583.9399360448353,0.0027776256465907277,1.17645005E9,,,,0,,6,-2.88,1.17645005E9,352.0,NaN,NaN
Fix,gps,51.524727,-0.134307,76.296875,0.000000,3.790092,1582195134000,232391896502373
Raw,232391921404407,649196190000000,,,-1265581155251998923,0.4574475362896919,39.39376983908005,-97.03249790715816,11.448628079738704,119,5,0.0,16399,383951361406665,14,30.5,693.4144897460938,0.024400001391768456,17,10205.414297484433,0.002397700231676362,1.57542003E9,,,,0,,1,0.31,1.57542003E9,352.0,NaN,NaN
Raw,232391921404407,649196190000000,,,-1265581155251998923,0.4574475362896919,39.39376983908005,-97.03249790715816,11.448628079738704,119,13,0.0,16399,383951374157429,8,36.1,176.4453582763672,0.0406000018119812,25,2790.8409784997484,0.001160791358090767,1.57542003E9,,,,0,,1,0.31,1.57542003E9,352.0,NaN,NaN
Raw,232391921404407,649196190000000,,,-1265581155251998923,0.4574475362896919,39.39376983908005,-97.03249790715816,11.448628079738704,119,15,0.0,16399,383951374244781,14,30.5,-160.489501953125,0.04390000179409981,17,-2590.974515310389,0.002397700231676362,1.57542003E9,,,,0,,1,0.31,1.57542003E9,352.0,NaN,NaN
Raw,232391921404407,649196190000000,,,-1265581155251998923,0.4574475362896919,39.39376983908005,-97.03249790715816,11.448628079738704,119,17,0.0,16399,383951359236404,21,26.6,-574.216796875,0.0552000030875206,21,-8206.141297472235,0.005442398901996786,1.57542003E9,,,,0,,1,0.31,1.57542003E9,352.0,NaN,NaN
Raw,232391921404407,649196190000000,,,-1265581155251998923,0.4574475362896919,39.39376983908005,-97.03249790715816,11.448628079738704,119,28,0.0,16399,383951370530379,11,33.7,139.56875610351562,0.03620000183582306,25,2166.938146988043,0.001655554942969963,1.57542003E9,,,,0,,1,0.31,1.57542003E9,352.0,NaN,NaN
Raw,232391921404407,649196190000000,,,-1265581155251998923,0.4574475362896919,39.39376983908005,-97.03249790715816,11.448628079738704,119,30,0.0,16399,383951364333079,6,39.0,556.0763549804688,0.024800000712275505,25,8855.663555558724,8.372921387687362E-4,1.57542003E9,,,,0,,1,0.31,1.57542003E9,352.0,NaN,NaN
Raw,232391921404407,649196190000000,,,-1265581155251998923,0.4574475362896919,39.39376983908005,-97.03249790715816,11.448628079738704,119,14,0.0,49359,49133378119306,6,39.8,-84.335693359375,0.24580000340938568,25,-1344.128414131171,8.254288163121457E-4,1.59806246E9,,,,0,,3,-1.65,1.59806246E9,352.0,NaN,NaN
Raw,232391921404407,649196190000000,,,-1265581155251998923,0.4574475362896919,39.39376983908005,-97.03249790715816,11.448628079738704,119,22,0.0,49359,49133364380892,27,24.0,-222.2400665283203,0.24729999899864197,19,-1910.6931033412266,0.18733370372433672,1.60031245E9,,,,0,,3,-1.65,1.60031245E9,352.0,NaN,NaN
Raw,232391921404407,649196190000000,,,-1265581155251998923,0.4574475362896919,39.39376983908005,-97.03249790715816,11.448628079738704,119,13,0.0,49359,49133371378234,61,18.3,601.5886840820312,1.2130000591278076,16,0.0,0.0,1.60087501E9,,,,0,,3,-1.65,1.60087501E9,352.0,NaN,NaN
Raw,232391921404407,649196190000000,,,-1265581155251998923,0.4574475362896919,39.39376983908005,-97.03249790715816,11.448628079738704,119,15,0.0,49359,49133369648692,16,29.7,-701.5470581054688,0.23739999532699585,25,-10948.451093249467,0.002769618214569399,1.602E9,,,,0,,3,-1.65,1.602E9,352.0,NaN,NaN
Raw,232391921404407,649196190000000,,,-1265581155251998923,0.4574475362896919,39.39376983908005,-97.03249790715816,11.448628079738704,119,5,0.0,49359,49133372614134,6,39.5,-605.6172485351562,0.23680000007152557,25,-9456.096189909193,8.23110960518378E-4,1.60256256E9,,,,0,,3,-1.65,1.60256256E9,352.0,NaN,NaN
Raw,232391921404407,649196190000000,,,-1265581155251998923,0.4574475362896919,39.39376983908005,-97.03249790715816,11.448628079738704,119,3,0.0,49359,49133368199360,6,38.5,732.0707397460938,0.23110000789165497,25,10631.104332665276,9.153611536216265E-4,1.60481254E9,,,,0,,3,-1.65,1.60481254E9,352.0,NaN,NaN
Raw,232391921404407,649196190000000,,,-1265581155251998923,0.4574475362896919,39.39376983908005,-97.03249790715816,11.448628079738704,119,4,0.0,49359,49133377684126,7,37.6,148.70556640625,0.24490000307559967,25,2284.2777018879415,9.897376030341073E-4,1.60537498E9,,,,0,,3,-1.65,1.60537498E9,352.0,NaN,NaN
Raw,232391921404407,649196190000000,,,-1265581155251998923,0.4574475362896919,39.39376983908005,-97.03249790715816,11.448628079738704,119,37,0.0,16399,383937362719381,7,37.1,442.14324951171875,0.02240000106394291,25,7017.262634065509,0.0010178092579723537,1.56109798E9,,,,0,,5,0.25,1.56109798E9,352.0,NaN,NaN
Raw,232391921404407,649196190000000,,,-1265581155251998923,0.4574475362896919,39.39376983908005,-97.03249790715816,11.448628079738704,119,22,0.0,16399,383937361862732,7,37.2,-446.6678771972656,0.020899999886751175,25,-7134.923945646564,0.0010178092579723537,1.56109798E9,,,,0,,5,0.25,1.56109798E9,352.0,NaN,NaN
Raw,232391921404407,649196190000000,,,-1265581155251998923,0.4574475362896919,39.39376983908005,-97.03249790715816,11.448628079738704,119,20,0.0,16399,383937359424601,14,30.8,601.505859375,0.05140000209212303,25,9530.199155294184,0.0024196975554572116,1.56109798E9,,,,0,,5,0.25,1.56109798E9,352.0,NaN,NaN
Raw,232391921404407,649196190000000,,,-1265581155251998923,0.4574475362896919,39.39376983908005,-97.03249790715816,11.448628079738704,119,19,0.0,16399,383937368598491,16,29.3,153.0709228515625,0.03590000048279762,25,2108.82702021949,0.0028421844273806814,1.56109798E9,,,,0,,5,0.25,1.56109798E9,352.0,NaN,NaN
Raw,232391921404407,649196190000000,,,-1265581155251998923,0.4574475362896919,39.39376983908005,-97.03249790715816,11.448628079738704,119,10,0.0,16399,383937309717483,14,30.3,138.12400817871094,0.036400001496076584,25,1909.748589418441,0.0024196975554572116,1.56109798E9,,,,0,,5,0.25,1.56109798E9,352.0,NaN,NaN
Raw,232391921404407,649196190000000,,,-1265581155251998923,0.4574475362896919,39.39376983908005,-97.03249790715816,11.448628079738704,119,1,0.0,23567,383951357818635,6,38.0,349.3214416503906,0.044600002467632294,25,5521.69973312414,0.0020551716777868216,1.57542003E9,,,,0,,6,0.23,1.57542003E9,352.0,NaN,NaN
Raw,232391921404407,649196190000000,,,-1265581155251998923,0.4574475362896919,39.39376983908005,-97.03249790715816,11.448628079738704,119,4,0.0,23567,383951355898701,8,36.8,464.97784423828125,0.042100001126527786,25,6286.193059091205,0.0025499350854412276,1.57542003E9,,,,0,,6,0.23,1.57542003E9,352.0,NaN,NaN
Raw,232391921404407,649196190000000,,,-1265581155251998923,0.4574475362896919,39.39376983908005,-97.03249790715816,11.448628079738704,119,5,0.0,23567,383951356630755,11,33.4,-459.2006530761719,0.04520000144839287,25,-7309.860988702845,0.003596550258902148,1.57542003E9,,,,0,,6,0.23,1.57542003E9,352.0,NaN,NaN
Raw,232391921404407,649196190000000,,,-1265581155251998923,0.4574475362896919,39.39376983908005,-97.03249790715816,11.448628079738704,119,9,0.0,23567,383951370312454,8,36.9,16.37839698791504,0.04660000279545784,25,235.87942823794566,0.0025499350854412276,1.57542003E9,,,,0,,6,0.23,1.57542003E9,352.0,NaN,NaN
Raw,232391921404407,649196190000000,,,-1265581155251998923,0.4574475362896919,39.39376983908005,-97.03249790715816,11.448628079738704,119,24,0.0,23567,383951359871163,53,19.8,-588.5973510742188,0.9389999508857727,16,0.0,0.0,1.57542003E9,,,,0,,6,0.23,1.57542003E9,352.0,NaN,NaN
Raw,232391921404407,649196190000000,,,-1265581155251998923,0.4574475362896919,39.39376983908005,-97.03249790715816,11.448628079738704,119,31,0.0,23567,383951363142191,7,37.4,-188.19285583496094,0.0479000024497509,25,-3013.7581832496335,0.0021883771969841777,1.57542003E9,,,,0,,6,0.23,1.57542003E9,352.0,NaN,NaN
Raw,232391921404407,649196190000000,,,-1265581155251998923,0.4574475362896919,39.39376983908005,-97.03249790715816,11.448628079738704,119,24,0.0,81935,383951366117259,8,22.6,-623.984619140625,0.04569999873638153,27,-5209.23911144361,0.25482803839368795,1.17645005E9,,,,0,,1,-9.27,1.17645005E9,352.0,NaN,NaN
Raw,232391921404407,649196190000000,,,-1265581155251998923,0.4574475362896919,39.39376983908005,-97.03249790715816,11.448628079738704,119,30,0.0,81935,383951364340901,2,37.5,556.0592651367188,0.02810000069439411,25,4642.904069209247,0.0013505885638054542,1.17645005E9,,,,0,,1,-9.27,1.17645005E9,352.0,NaN,NaN
Raw,232391921404407,649196190000000,,,-1265581155251998923,0.4574475362896919,39.39376983908005,-97.03249790715816,11.448628079738704,119,1,0.0,81935,383951357825745,4,29.4,349.0354919433594,0.05650000274181366,25,3264.0693579098934,0.0037714549693657518,1.17645005E9,,,,0,,6,-9.27,1.17645005E9,352.0,NaN,NaN
Raw,232391921404407,649196190000000,,,-1265581155251998923,0.4574475362896919,39.39376983908005,-97.03249790715816,11.448628079738704,119,4,0.0,81935,383951355905782,4,30.3,464.85308837890625,0.05170000344514847,25,4351.1262755391,0.0032108332879374254,1.17645005E9,,,,0,,6,-9.27,1.17645005E9,352.0,NaN,NaN
Raw,232391921404407,649196190000000,,,-1265581155251998923,0.4574475362896919,39.39376983908005,-97.03249790715816,11.448628079738704,119,5,0.0,81935,383951356637804,2,34.2,-459.36846923828125,0.048500001430511475,25,-4312.9670200857945,0.0020386244039789624,1.17645005E9,,,,0,,6,-9.27,1.17645005E9,352.0,NaN,NaN
Raw,232391921404407,649196190000000,,,-1265581155251998923,0.4574475362896919,39.39376983908005,-97.03249790715816,11.448628079738704,119,9,0.0,81935,383951370319533,3,33.2,16.191944122314453,0.04050000011920929,25,144.3044734172702,0.0022170039651624013,1.17645005E9,,,,0,,6,-9.27,1.17645005E9,352.0,NaN,NaN
Raw,232391921404407,649196190000000,,,-1265581155251998923,0.4574475362896919,39.39376983908005,-97.03249790715816,11.448628079738704,119,24,0.0,81935,383951359878088,12,18.4,-588.66552734375,0.9950000047683716,16,0.0,0.0,1.17645005E9,,,,0,,6,-9.27,1.17645005E9,352.0,NaN,NaN
Raw,232391921404407,649196190000000,,,-1265581155251998923,0.4574475362896919,39.39376983908005,-97.03249790715816,11.448628079738704,119,31,0.0,81935,383951363149264,4,29.4,-188.37986755371094,0.03550000116229057,25,-1772.1714290285854,0.0037714549693657518,1.17645005E9,,,,0,,6,-9.27,1.17645005E9,352.0,NaN,NaN
Fix,gps,51.524730,-0.134308,76.637939,0.000000,3.790092,1582195135000,232392901479348
Raw,232392917679714,649197190000000,,,-1265581155251999025,0.7780353538691998,39.537793782074004,-95.74911519156528,10.489415308328411,119,5,0.0,16399,383952361404361,16,29.1,692.290283203125,0.02540000155568123,25,10898.406887000223,0.00281634630106073,1.57542003E9,,,,0,,1,0.34,1.57542003E9,352.0,NaN,NaN
Raw,232392917679714,649197190000000,,,-1265581155251999025,0.7780353538691998,39.537793782074004,-95.74911519156528,10.489415308328411,119,13,0.0,16399,383952374156833,9,35.1,175.3727569580078,0.04110000282526016,25,2966.7870660131857,0.0013320557236479321,1.57542003E9,,,,0,,1,0.34,1.57542003E9,352.0,NaN,NaN
Raw,232392917679714,649197190000000,,,-1265581155251999025,0.7780353538691998,39.537793782074004,-95.74911519156528,10.489415308328411,119,15,0.0,16399,383952374245331,19,27.7,-161.5075225830078,0.046800002455711365,25,-2751.9320184145545,0.003234992547669888,1.57542003E9,,,,0,,1,0.34,1.57542003E9,352.0,NaN,NaN
Raw,232392917679714,649197190000000,,,-1265581155251999025,0.7780353538691998,39.537793782074004,-95.74911519156528,10.489415308328411,119,17,0.0,16399,383952359238336,19,27.4,-575.4039306640625,0.05430000275373459,25,-8780.92822017298,0.003234992547669888,1.57542003E9,,,,0,,1,0.34,1.57542003E9,352.0,NaN,NaN
Raw,232392917679714,649197190000000,,,-1265581155251999025,0.7780353538691998,39.537793782074004,-95.74911519156528,10.489415308328411,119,20,0.0,16399,383952365181429,27,24.4,-406.6224365234375,0.030800001695752144,27,-180.97915732075373,0.19029366893311156,1.57542003E9,,,,0,,1,0.34,1.57542003E9,352.0,NaN,NaN
Raw,232392917679714,649197190000000,,,-1265581155251999025,0.7780353538691998,39.537793782074004,-95.74911519156528,10.489415308328411,119,28,0.0,16399,383952370529908,11,33.6,138.51016235351562,0.03620000183582306,25,2306.0188977525963,0.001655554942969963,1.57542003E9,,,,0,,1,0.34,1.57542003E9,352.0,NaN,NaN
Raw,232392917679714,649197190000000,,,-1265581155251999025,0.7780353538691998,39.537793782074004,-95.74911519156528,10.489415308328411,119,30,0.0,16399,383952364331213,6,39.0,554.9429321289062,0.024800000712275505,25,9411.214122231328,8.372921387687362E-4,1.57542003E9,,,,0,,1,0.34,1.57542003E9,352.0,NaN,NaN
Raw,232392917679714,649197190000000,,,-1265581155251999025,0.7780353538691998,39.537793782074004,-95.74911519156528,10.489415308328411,119,14,0.0,49359,49134378119598,6,39.1,-85.35201263427734,0.24580000340938568,25,-1428.9416360287,8.254288163121457E-4,1.59806246E9,,,,0,,3,-1.64,1.59806246E9,352.0,NaN,NaN
Raw,232392917679714,649197190000000,,,-1265581155251999025,0.7780353538691998,39.537793782074004,-95.74911519156528,10.489415308328411,119,22,0.0,49359,49134364381837,31,23.1,-223.1499786376953,0.3172000050544739,29,-2133.2589813832833,0.18733370372433672,1.60031245E9,,,,0,,3,-1.64,1.60031245E9,352.0,NaN,NaN
Raw,232392917679714,649197190000000,,,-1265581155251999025,0.7780353538691998,39.537793782074004,-95.74911519156528,10.489415308328411,119,13,0.0,49359,49134371376301,40,21.5,599.6223754882812,1.003000020980835,16,0.0,0.0,1.60087501E9,,,,0,,3,-1.64,1.60087501E9,352.0,NaN,NaN
Raw,232392917679714,649197190000000,,,-1265581155251999025,0.7780353538691998,39.537793782074004,-95.74911519156528,10.489415308328411,119,15,0.0,49359,49134369651018,14,30.6,-702.670166015625,0.23640000820159912,25,-11650.542092123264,0.0023579182120561683,1.602E9,,,,0,,3,-1.64,1.602E9,352.0,NaN,NaN
Raw,232392917679714,649197190000000,,,-1265581155251999025,0.7780353538691998,39.537793782074004,-95.74911519156528,10.489415308328411,119,5,0.0,49359,49134372616140,6,39.9,-606.645263671875,0.23680000007152557,25,-10062.189412412163,8.23110960518378E-4,1.60256256E9,,,,0,,3,-1.64,1.60256256E9,352.0,NaN,NaN
Raw,232392917679714,649197190000000,,,-1265581155251999025,0.7780353538691998,39.537793782074004,-95.74911519156528,10.489415308328411,119,21,0.0,49359,49134362006787,181,10.9,401.3023376464844,9.479499816894531,16,0.0,0.0,1.60424998E9,,,,0,,3,-1.64,1.60424998E9,352.0,NaN,NaN
Raw,232392917679714,649197190000000,,,-1265581155251999025,0.7780353538691998,39.537793782074004,-95.74911519156528,10.489415308328411,119,3,0.0,49359,49134368196926,6,39.0,730.968505859375,0.23080000281333923,25,11362.664094107742,8.219569400701237E-4,1.60481254E9,,,,0,,3,-1.64,1.60481254E9,352.0,NaN,NaN
Raw,232392917679714,649197190000000,,,-1265581155251999025,0.7780353538691998,39.537793782074004,-95.74911519156528,10.489415308328411,119,4,0.0,49359,49134377683658,6,38.4,147.7141571044922,0.24459999799728394,25,2432.5194295410774,9.150404631835356E-4,1.60537498E9,,,,0,,3,-1.64,1.60537498E9,352.0,NaN,NaN
Raw,232392917679714,649197190000000,,,-1265581155251999025,0.7780353538691998,39.537793782074004,-95.74911519156528,10.489415308328411,119,37,0.0,16399,383938362717908,8,36.1,441.0334167480469,0.022600000724196434,25,7458.902294536023,0.0011714408558922843,1.56109798E9,,,,0,,5,0.3,1.56109798E9,352.0,NaN,NaN
Raw,232392917679714,649197190000000,,,-1265581155251999025,0.7780353538691998,39.537793782074004,-95.74911519156528,10.489415308328411,119,22,0.0,16399,383938361864220,7,37.5,-447.7243957519531,0.020899999886751175,25,-7582.075112806574,0.0010178092579723537,1.56109798E9,,,,0,,5,0.3,1.56109798E9,352.0,NaN,NaN
Raw,232392917679714,649197190000000,,,-1265581155251999025,0.7780353538691998,39.537793782074004,-95.74911519156528,10.489415308328411,119,20,0.0,16399,383938359422589,12,32.6,600.366943359375,0.05010000243782997,25,10131.142554468146,0.0018243750799829725,1.56109798E9,,,,0,,5,0.3,1.56109798E9,352.0,NaN,NaN
Raw,232392917679714,649197190000000,,,-1265581155251999025,0.7780353538691998,39.537793782074004,-95.74911519156528,10.489415308328411,119,19,0.0,16399,383938368597973,16,29.7,151.99758911132812,0.03590000048279762,25,2261.402914409172,0.0028421844273806814,1.56109798E9,,,,0,,5,0.3,1.56109798E9,352.0,NaN,NaN
Raw,232392917679714,649197190000000,,,-1265581155251999025,0.7780353538691998,39.537793782074004,-95.74911519156528,10.489415308328411,119,10,0.0,16399,383938309717029,16,29.7,136.9799041748047,0.03739999979734421,25,2047.3226581202282,0.0028421844273806814,1.56109798E9,,,,0,,5,0.3,1.56109798E9,352.0,NaN,NaN
Raw,232392917679714,649197190000000,,,-1265581155251999025,0.7780353538691998,39.537793782074004,-95.74911519156528,10.489415308328411,119,5,0.0,17167,383938305943266,24,25.8,-33.2324333190918,3.327200174331665,16,0.0,0.0,1.56109798E9,,,,0,,5,0.3,1.56109798E9,352.0,NaN,NaN
Raw,232392917679714,649197190000000,,,-1265581155251999025,0.7780353538691998,39.537793782074004,-95.74911519156528,10.489415308328411,119,1,0.0,23567,383952357817485,7,37.9,348.22125244140625,0.04490000009536743,25,5870.458364905167,0.0021883771969841777,1.57542003E9,,,,0,,6,0.28,1.57542003E9,352.0,NaN,NaN
Raw,232392917679714,649197190000000,,,-1265581155251999025,0.7780353538691998,39.537793782074004,-95.74911519156528,10.489415308328411,119,4,0.0,23567,383952355897144,7,37.8,463.8644714355469,0.04190000146627426,25,6750.589204443274,0.0021883771969841777,1.57542003E9,,,,0,,6,0.28,1.57542003E9,352.0,NaN,NaN
Raw,232392917679714,649197190000000,,,-1265581155251999025,0.7780353538691998,39.537793782074004,-95.74911519156528,10.489415308328411,119,5,0.0,23567,383952356632284,12,32.7,-460.2975158691406,0.04560000076889992,25,-7769.638139230154,0.003958108324583987,1.57542003E9,,,,0,,6,0.28,1.57542003E9,352.0,NaN,NaN
Raw,232392917679714,649197190000000,,,-1265581155251999025,0.7780353538691998,39.537793782074004,-95.74911519156528,10.489415308328411,119,9,0.0,23567,383952370312392,7,37.6,15.291933059692383,0.046400003135204315,25,251.696138324956,0.0021883771969841777,1.57542003E9,,,,0,,6,0.28,1.57542003E9,352.0,NaN,NaN
Raw,232392917679714,649197190000000,,,-1265581155251999025,0.7780353538691998,39.537793782074004,-95.74911519156528,10.489415308328411,119,24,0.0,23567,383952359873053,35,22.7,-589.2348022460938,0.7489999532699585,16,0.0,0.0,1.57542003E9,,,,0,,6,0.28,1.57542003E9,352.0,NaN,NaN
Raw,232392917679714,649197190000000,,,-1265581155251999025,0.7780353538691998,39.537793782074004,-95.74911519156528,10.489415308328411,119,31,0.0,23567,383952363142813,7,37.5,-189.26377868652344,0.0479000024497509,25,-3202.511044798526,0.0021883771969841777,1.57542003E9,,,,0,,6,0.28,1.57542003E9,352.0,NaN,NaN
Raw,232392917679714,649197190000000,,,-1265581155251999025,0.7780353538691998,39.537793782074004,-95.74911519156528,10.489415308328411,119,24,0.0,81935,383952366119336,8,23.9,-624.9530029296875,0.6754999756813049,16,0.0,0.0,1.17645005E9,,,,0,,1,-4.46,1.17645005E9,352.0,NaN,NaN
Raw,232392917679714,649197190000000,,,-1265581155251999025,0.7780353538691998,39.537793782074004,-95.74911519156528,10.489415308328411,119,30,0.0,81935,383952364339048,2,38.6,554.958740234375,0.027500001713633537,25,5198.462687745178,0.0012486574029382824,1.17645005E9,,,,0,,1,-4.46,1.17645005E9,352.0,NaN,NaN
Raw,232392917679714,649197190000000,,,-1265581155251999025,0.7780353538691998,39.537793782074004,-95.74911519156528,10.489415308328411,119,1,0.0,81935,383952357824583,5,27.3,348.1866760253906,0.061500001698732376,25,3612.851225207132,0.004332076888121183,1.17645005E9,,,,0,,6,-4.46,1.17645005E9,352.0,NaN,NaN
Raw,232392917679714,649197190000000,,,-1265581155251999025,0.7780353538691998,39.537793782074004,-95.74911519156528,10.489415308328411,119,4,0.0,81935,383952355904231,4,30.0,463.77099609375,0.05170000344514847,25,4815.51671547679,0.0032108332879374254,1.17645005E9,,,,0,,6,-4.46,1.17645005E9,352.0,NaN,NaN
Raw,232392917679714,649197190000000,,,-1265581155251999025,0.7780353538691998,39.537793782074004,-95.74911519156528,10.489415308328411,119,5,0.0,81935,383952356639337,2,35.3,-460.39483642578125,0.047600001096725464,25,-4772.7326903933645,0.0017837963238157039,1.17645005E9,,,,0,,6,-4.46,1.17645005E9,352.0,NaN,NaN
Raw,232392917679714,649197190000000,,,-1265581155251999025,0.7780353538691998,39.537793782074004,-95.74911519156528,10.489415308328411,119,9,0.0,81935,383952370319477,2,34.4,15.196642875671387,0.039500001817941666,25,160.12992171405014,0.0020386244039789624,1.17645005E9,,,,0,,6,-4.46,1.17645005E9,352.0,NaN,NaN
Raw,232392917679714,649197190000000,,,-1265581155251999025,0.7780353538691998,39.537793782074004,-95.74911519156528,10.489415308328411,119,24,0.0,81935,383952359880039,12,18.5,-590.9462280273438,0.9950000047683716,16,0.0,0.0,1.17645005E9,,,,0,,6,-4.46,1.17645005E9,352.0,NaN,NaN
Raw,232392917679714,649197190000000,,,-1265581155251999025,0.7780353538691998,39.537793782074004,-95.74911519156528,10.489415308328411,119,31,0.0,81935,383952363149893,4,30.7,-189.43685913085938,0.03370000049471855,25,-1960.9166818354001,0.0032108332879374254,1.17645005E9,,,,0,,6,-4.46,1.17645005E9,352.0,NaN,NaN
Fix,gps,51.524732,-0.134305,77.278870,0.000000,3.790092,1582195136000,232393898009187
Raw,232393913183563,649198190000000,,,-1265581155251999124,0.17314420640468597,38.890215364517644,-99.53861219775852,10.579152179594475,119,5,0.0,16399,383953361402059,14,30.1,692.3387451171875,0.009399999864399433,25,11590.526168070752,0.002397700231676362,1.57542003E9,,,,0,,1,0.34,1.57542003E9,352.0,NaN,NaN
Raw,232393913183563,649198190000000,,,-1265581155251999124,0.17314420640468597,38.890215364517644,-99.53861219775852,10.579152179594475,119,10,0.0,16399,383953356678434,61,18.1,-675.000244140625,2.6005001068115234,16,0.0,0.0,1.57542003E9,,,,0,,1,0.34,1.57542003E9,352.0,NaN,NaN
Raw,232393913183563,649198190000000,,,-1265581155251999124,0.17314420640468597,38.890215364517644,-99.53861219775852,10.579152179594475,119,13,0.0,16399,383953374156274,16,29.9,175.53021240234375,0.04490000009536743,25,3142.025668764484,0.00281634630106073,1.57542003E9,,,,0,,1,0.34,1.57542003E9,352.0,NaN,NaN
Raw,232393913183563,649198190000000,,,-1265581155251999124,0.17314420640468597,38.890215364517644,-99.53861219775852,10.579152179594475,119,15,0.0,16399,383953374245934,21,26.7,-161.3685302734375,0.047700002789497375,21,-2913.5970531606795,0.005442398901996786,1.57542003E9,,,,0,,1,0.34,1.57542003E9,352.0,NaN,NaN
Raw,232393913183563,649198190000000,,,-1265581155251999124,0.17314420640468597,38.890215364517644,-99.53861219775852,10.579152179594475,119,17,0.0,16399,383953359240181,19,27.9,-575.3150634765625,0.05430000275373459,25,-9356.484818118503,0.003234992547669888,1.57542003E9,,,,0,,1,0.34,1.57542003E9,352.0,NaN,NaN
Raw,232393913183563,649198190000000,,,-1265581155251999124,0.17314420640468597,38.890215364517644,-99.53861219775852,10.579152179594475,119,20,0.0,16399,383953365182760,16,29.0,-406.39178466796875,0.03140000253915787,25,-587.6554190689512,0.00281634630106073,1.57542003E9,,,,0,,1,0.34,1.57542003E9,352.0,NaN,NaN
Raw,232393913183563,649198190000000,,,-1265581155251999124,0.17314420640468597,38.890215364517644,-99.53861219775852,10.579152179594475,119,24,0.0,16399,383953366113522,40,21.0,-625.2860107421875,0.8344999551773071,16,0.0,0.0,1.57542003E9,,,,0,,1,0.34,1.57542003E9,352.0,NaN,NaN
Raw,232393913183563,649198190000000,,,-1265581155251999124,0.17314420640468597,38.890215364517644,-99.53861219775852,10.579152179594475,119,28,0.0,16399,383953370529489,10,34.4,138.64808654785156,0.035600002855062485,25,2444.390950881142,0.0015223494237726067,1.57542003E9,,,,0,,1,0.34,1.57542003E9,352.0,NaN,NaN
Raw,232393913183563,649198190000000,,,-1265581155251999124,0.17314420640468597,38.890215364517644,-99.53861219775852,10.579152179594475,119,30,0.0,16399,383953364329376,9,35.4,555.0068359375,0.026100000366568565,25,9965.989408709136,0.0013320557236479321,1.57542003E9,,,,0,,1,0.34,1.57542003E9,352.0,NaN,NaN
Raw,232393913183563,649198190000000,,,-1265581155251999124,0.17314420640468597,38.890215364517644,-99.53861219775852,10.579152179594475,119,14,0.0,49359,49135378119919,6,38.4,-85.17247772216797,0.24610000848770142,25,-1514.4103259538333,9.192275613215939E-4,1.59806246E9,,,,0,,3,-1.68,1.59806246E9,352.0,NaN,NaN
Raw,232393913183563,649198190000000,,,-1265581155251999124,0.17314420640468597,38.890215364517644,-99.53861219775852,10.579152179594475,119,22,0.0,49359,49135364382425,40,21.3,-221.81248474121094,0.9924999475479126,16,0.0,0.0,1.60031245E9,,,,0,,3,-1.68,1.60031245E9,352.0,NaN,NaN
Raw,232393913183563,649198190000000,,,-1265581155251999124,0.17314420640468597,38.890215364517644,-99.53861219775852,10.579152179594475,119,13,0.0,49359,49135371374402,17,28.1,600.2071533203125,0.24170000851154327,19,8726.523664808015,0.002958832253614959,1.60087501E9,,,,0,,3,-1.68,1.60087501E9,352.0,NaN,NaN
Raw,232393913183563,649198190000000,,,-1265581155251999124,0.17314420640468597,38.890215364517644,-99.53861219775852,10.579152179594475,119,15,0.0,49359,49135369653255,11,33.0,-702.5673217773438,0.234700009226799,25,-12353.359710139446,0.0016280864052631069,1.602E9,,,,0,,3,-1.68,1.602E9,352.0,NaN,NaN
Raw,232393913183563,649198190000000,,,-1265581155251999124,0.17314420640468597,38.890215364517644,-99.53861219775852,10.579152179594475,119,5,0.0,49359,49135372618116,5,41.2,-606.5151977539062,0.2363000065088272,25,-10668.970666082403,6.734544143230755E-4,1.60256256E9,,,,0,,3,-1.68,1.60256256E9,352.0,NaN,NaN
Raw,232393913183563,649198190000000,,,-1265581155251999124,0.17314420640468597,38.890215364517644,-99.53861219775852,10.579152179594475,119,3,0.0,49359,49135368194517,6,39.1,731.0682983398438,0.23080000281333923,25,12093.480182557629,8.219569400701237E-4,1.60481254E9,,,,0,,3,-1.68,1.60481254E9,352.0,NaN,NaN
Raw,232393913183563,649198190000000,,,-1265581155251999124,0.17314420640468597,38.890215364517644,-99.53861219775852,10.579152179594475,119,4,0.0,49359,49135377683124,6,39.4,147.87962341308594,0.2443000078201294,25,2580.1171555846468,8.216689731510993E-4,1.60537498E9,,,,0,,3,-1.68,1.60537498E9,352.0,NaN,NaN
Raw,232393913183563,649198190000000,,,-1265581155251999124,0.17314420640468597,38.890215364517644,-99.53861219775852,10.579152179594475,119,37,0.0,16399,383939362716441,13,31.7,441.109130859375,0.025100000202655792,25,7899.780217334043,0.0020932304434118673,1.56109798E9,,,,0,,5,0.2,1.56109798E9,352.0,NaN,NaN
Raw,232393913183563,649198190000000,,,-1265581155251999124,0.17314420640468597,38.890215364517644,-99.53861219775852,10.579152179594475,119,22,0.0,16399,383939361865692,7,37.5,-447.5965881347656,0.005900000222027302,25,-8029.933570316284,0.0010178092579723537,1.56109798E9,,,,0,,5,0.2,1.56109798E9,352.0,NaN,NaN
Raw,232393913183563,649198190000000,,,-1265581155251999124,0.17314420640468597,38.890215364517644,-99.53861219775852,10.579152179594475,119,20,0.0,16399,383939359420594,12,32.3,600.4114379882812,0.05010000243782997,25,10731.314051750685,0.0018243750799829725,1.56109798E9,,,,0,,5,0.2,1.56109798E9,352.0,NaN,NaN
Raw,232393913183563,649198190000000,,,-1265581155251999124,0.17314420640468597,38.890215364517644,-99.53861219775852,10.579152179594475,119,19,0.0,16399,383939368597468,14,30.5,152.16964721679688,0.03490000218153,25,2413.2944529333113,0.0024196975554572116,1.56109798E9,,,,0,,5,0.2,1.56109798E9,352.0,NaN,NaN
Raw,232393913183563,649198190000000,,,-1265581155251999124,0.17314420640468597,38.890215364517644,-99.53861219775852,10.579152179594475,119,10,0.0,16399,383939309716575,13,31.6,137.0059051513672,0.035600002855062485,25,2184.0999573757954,0.0020932304434118673,1.56109798E9,,,,0,,5,0.2,1.56109798E9,352.0,NaN,NaN
Raw,232393913183563,649198190000000,,,-1265581155251999124,0.17314420640468597,38.890215364517644,-99.53861219775852,10.579152179594475,119,5,0.0,17167,383939305943378,16,29.5,-34.067806243896484,1.8133000135421753,16,0.0,0.0,1.56109798E9,,,,0,,5,0.2,1.56109798E9,352.0,NaN,NaN
Raw,232393913183563,649198190000000,,,-1265581155251999124,0.17314420640468597,38.890215364517644,-99.53861219775852,10.579152179594475,119,1,0.0,23567,383953357816328,6,39.7,348.2332458496094,0.04430000111460686,25,6218.460683380605,0.0018458486430946374,1.57542003E9,,,,0,,6,0.23,1.57542003E9,352.0,NaN,NaN
Raw,232393913183563,649198190000000,,,-1265581155251999124,0.17314420640468597,38.890215364517644,-99.53861219775852,10.579152179594475,119,4,0.0,23567,383953355895611,6,38.1,463.8448486328125,0.041600000113248825,25,7214.205855864825,0.0020551716777868216,1.57542003E9,,,,0,,6,0.23,1.57542003E9,352.0,NaN,NaN
