# 
# Header Description:
# 
# Version: v2.0.0.1 Platform: 10 Manufacturer: Google Model: Pixel 4
# 
# Raw,ElapsedRealtimeNanos,TimeNanos,LeapSecond,TimeUncertaintyNanos,FullBiasNanos,BiasNanos,BiasUncertaintyNanos,DriftNanosPerSecond,DriftUncertaintyNanosPerSecond,HardwareClockDiscontinuityCount,Svid,TimeOffsetNanos,State,ReceivedSvTimeNanos,ReceivedSvTimeUncertaintyNanos,Cn0DbHz,PseudorangeRateMetersPerSecond,PseudorangeRateUncertaintyMetersPerSecond,AccumulatedDeltaRangeState,AccumulatedDeltaRangeMeters,AccumulatedDeltaRangeUncertaintyMeters,CarrierFrequencyHz,CarrierCycles,CarrierPhase,CarrierPhaseUncertainty,MultipathIndicator,SnrInDb,ConstellationType,AgcDb,CarrierFrequencyHz,UserLatitude,UserLongitude,UserAltitude
# 
# Fix,Provider,Latitude,Longitude,Altitude,Speed,Accuracy,(UTC)TimeInMs,ElapsedRealtimeNanos
# 
# Nav,Svid,Type,Status,MessageId,Sub-messageId,Data(Bytes)
# 
Fix,gps,51.524530,-0.134137,70.879578,0.000000,3.790092,1582194736000,231993897976892
Raw,231993923993144,648798159000000,,,-1265581155275718775,0.4130840301513672,38.12908107647672,19.70892469520482,10.705705686524295,74,13,0.0,16399,383553367124849,6,38.6,175.28721618652344,0.029600001871585846,25,2763.657884009702,9.324389888310735E-4,1.57542003E9,,,,0,,1,0.32,1.57542003E9,304.0,NaN,NaN
Raw,231993923993144,648798159000000,,,-1265581155275718775,0.4130840301513672,38.12908107647672,19.70892469520482,10.705705686524295,74,15,0.0,16399,383553366761726,14,30.0,-166.10545349121094,0.03189999982714653,17,-2535.1478806477517,0.002397700231676362,1.57542003E9,,,,0,,1,0.32,1.57542003E9,304.0,NaN,NaN
Raw,231993923993144,648798159000000,,,-1265581155275718775,0.4130840301513672,38.12908107647672,19.70892469520482,10.705705686524295,74,20,0.0,16399,383553357371851,4,45.2,-410.8483581542969,0.04200000315904617,25,-6456.898520976439,4.186460693843681E-4,1.57542003E9,,,,0,,1,0.32,1.57542003E9,304.0,NaN,NaN
Raw,231993923993144,648798159000000,,,-1265581155275718775,0.4130840301513672,38.12908107647672,19.70892469520482,10.705705686524295,74,28,0.0,16399,383553363443921,7,37.7,130.9601287841797,0.023900000378489494,25,2030.5160157604407,0.0010085564157135064,1.57542003E9,,,,0,,1,0.32,1.57542003E9,304.0,NaN,NaN
Raw,231993923993144,648798159000000,,,-1265581155275718775,0.4130840301513672,38.12908107647672,19.70892469520482,10.705705686524295,74,30,0.0,16399,383553357821180,16,29.3,579.8587036132812,0.049400001764297485,25,9079.043600629446,0.00281634630106073,1.57542003E9,,,,0,,1,0.32,1.57542003E9,304.0,NaN,NaN
Raw,231993923993144,648798159000000,,,-1265581155275718775,0.4130840301513672,38.12908107647672,19.70892469520482,10.705705686524295,74,14,0.0,49359,48735370728923,31,23.3,-102.73136138916016,0.326200008392334,21,-1515.7147795079395,0.18759745926927673,1.59806246E9,,,,0,,3,-0.73,1.59806246E9,304.0,NaN,NaN
Raw,231993923993144,648798159000000,,,-1265581155275718775,0.4130840301513672,38.12908107647672,19.70892469520482,10.705705686524295,74,22,0.0,49359,48735356802815,61,18.1,-248.17031860351562,1.970500111579895,16,0.0,0.0,1.60031245E9,,,,0,,3,-0.73,1.60031245E9,304.0,NaN,NaN
Raw,231993923993144,648798159000000,,,-1265581155275718775,0.4130840301513672,38.12908107647672,19.70892469520482,10.705705686524295,74,15,0.0,49359,48735361456603,9,35.1,-692.6229858398438,0.2215999960899353,25,-10721.80788539161,0.001309954600983276,1.602E9,,,,0,,3,-0.73,1.602E9,304.0,NaN,NaN
Raw,231993923993144,648798159000000,,,-1265581155275718775,0.4130840301513672,38.12908107647672,19.70892469520482,10.705705686524295,74,5,0.0,49359,48735364543410,7,37.7,-605.6054077148438,0.22540000081062317,25,-9379.908087782509,9.91474542321254E-4,1.60256256E9,,,,0,,3,-0.73,1.60256256E9,304.0,NaN,NaN
Raw,231993923993144,648798159000000,,,-1265581155275718775,0.4130840301513672,38.12908107647672,19.70892469520482,10.705705686524295,74,3,0.0,49359,48735361911740,31,23.8,741.596923828125,0.3127000033855438,21,11453.957948735168,0.1868083964827234,1.60481254E9,,,,0,,3,-0.73,1.60481254E9,304.0,NaN,NaN
Raw,231993923993144,648798159000000,,,-1265581155275718775,0.4130840301513672,38.12908107647672,19.70892469520482,10.705705686524295,74,4,0.0,49359,48735370598902,13,31.3,123.79969787597656,0.2371000051498413,25,1892.4939056577073,0.002035498169654846,1.60537498E9,,,,0,,3,-0.73,1.60537498E9,304.0,NaN,NaN
Raw,231993923993144,648798159000000,,,-1265581155275718775,0.4130840301513672,38.12908107647672,19.70892469520482,10.705705686524295,74,37,0.0,16399,383539356052534,21,26.8,460.2813415527344,0.050700001418590546,29,6531.038833393275,0.005492329335005111,1.56109798E9,,,,0,,5,0.51,1.56109798E9,304.0,NaN,NaN
Raw,231993923993144,648798159000000,,,-1265581155275718775,0.4130840301513672,38.12908107647672,19.70892469520482,10.705705686524295,74,22,0.0,16399,383539354008043,4,43.7,-439.46624755859375,0.039000000804662704,25,-6257.342097216169,5.185066318015961E-4,1.56109798E9,,,,0,,5,0.51,1.56109798E9,304.0,NaN,NaN
Raw,231993923993144,648798159000000,,,-1265581155275718775,0.4130840301513672,38.12908107647672,19.70892469520482,10.705705686524295,74,19,0.0,16399,383539361532183,31,23.5,148.0402069091797,0.11270000040531158,19,1970.1486992057035,0.1920394882785269,1.56109798E9,,,,0,,5,0.51,1.56109798E9,304.0,NaN,NaN
Raw,231993923993144,648798159000000,,,-1265581155275718775,0.4130840301513672,38.12908107647672,19.70892469520482,10.705705686524295,74,10,0.0,16399,383539302655237,11,33.3,168.97804260253906,0.02420000173151493,25,2398.171718213456,0.0016707435714883973,1.56109798E9,,,,0,,5,0.51,1.56109798E9,304.0,NaN,NaN
Raw,231993923993144,648798159000000,,,-1265581155275718775,0.4130840301513672,38.12908107647672,19.70892469520482,10.705705686524295,74,1,0.0,23567,383553351025303,6,39.1,362.63653564453125,0.062300004065036774,25,5708.350618853529,0.0018458486430946374,1.57542003E9,,,,0,,6,0.41,1.57542003E9,304.0,NaN,NaN
Raw,231993923993144,648798159000000,,,-1265581155275718775,0.4130840301513672,38.12908107647672,19.70892469520482,10.705705686524295,74,4,0.0,23567,383553349263137,12,32.4,484.85076904296875,0.0471000038087368,25,7637.323633776907,0.003958108324583987,1.57542003E9,,,,0,,6,0.41,1.57542003E9,304.0,NaN,NaN
Raw,231993923993144,648798159000000,,,-1265581155275718775,0.4130840301513672,38.12908107647672,19.70892469520482,10.705705686524295,74,5,0.0,23567,383553348769031,9,35.7,-437.5570068359375,0.04410000145435333,25,-6911.021931282933,0.0028924638165555576,1.57542003E9,,,,0,,6,0.41,1.57542003E9,304.0,NaN,NaN
Raw,231993923993144,648798159000000,,,-1265581155275718775,0.4130840301513672,38.12908107647672,19.70892469520482,10.705705686524295,74,9,0.0,23567,383553363072565,14,30.5,23.275630950927734,0.06640000641345978,25,232.78700350125007,0.005233075867304602,1.57542003E9,,,,0,,6,0.41,1.57542003E9,304.0,NaN,NaN
Raw,231993923993144,648798159000000,,,-1265581155275718775,0.4130840301513672,38.12908107647672,19.70892469520482,10.705705686524295,74,24,0.0,23567,383553351838689,27,24.1,-565.0675048828125,0.6889999508857727,16,0.0,0.0,1.57542003E9,,,,0,,6,0.41,1.57542003E9,304.0,NaN,NaN
Raw,231993923993144,648798159000000,,,-1265581155275718775,0.4130840301513672,38.12908107647672,19.70892469520482,10.705705686524295,74,31,0.0,23567,383553355628920,9,35.3,-184.0244140625,0.04260000213980675,25,-2918.3526026136237,0.0028924638165555576,1.57542003E9,,,,0,,6,0.41,1.57542003E9,304.0,NaN,NaN
Raw,231993923993144,648798159000000,,,-1265581155275718775,0.4130840301513672,38.12908107647672,19.70892469520482,10.705705686524295,74,30,0.0,81935,383553357828968,7,24.3,579.8749389648438,0.057600002735853195,27,5411.34075929191,0.25482803839368795,1.17645005E9,,,,0,,1,-10.1,1.17645005E9,304.0,NaN,NaN
Raw,231993923993144,648798159000000,,,-1265581155275718775,0.4130840301513672,38.12908107647672,19.70892469520482,10.705705686524295,74,1,0.0,81935,383553351032390,6,25.2,362.7645263671875,0.07100000232458115,29,3371.2761025775208,0.010753742989341824,1.17645005E9,,,,0,,6,-10.1,1.17645005E9,304.0,NaN,NaN
Raw,231993923993144,648798159000000,,,-1265581155275718775,0.4130840301513672,38.12908107647672,19.70892469520482,10.705705686524295,74,4,0.0,81935,383553349270251,8,22.4,484.6956787109375,0.7400000095367432,16,0.0,0.0,1.17645005E9,,,,0,,6,-10.1,1.17645005E9,304.0,NaN,NaN
Raw,231993923993144,648798159000000,,,-1265581155275718775,0.4130840301513672,38.12908107647672,19.70892469520482,10.705705686524295,74,5,0.0,81935,383553348776119,4,30.8,-437.5043640136719,0.041200000792741776,25,-4104.825217247578,0.0032108332879374254,1.17645005E9,,,,0,,6,-10.1,1.17645005E9,304.0,NaN,NaN
Raw,231993923993144,648798159000000,,,-1265581155275718775,0.4130840301513672,38.12908107647672,19.70892469520482,10.705705686524295,74,9,0.0,81935,383553363079629,4,30.1,23.403696060180664,0.03370000049471855,25,195.43355406795447,0.0032108332879374254,1.17645005E9,,,,0,,6,-10.1,1.17645005E9,304.0,NaN,NaN
Raw,231993923993144,648798159000000,,,-1265581155275718775,0.4130840301513672,38.12908107647672,19.70892469520482,10.705705686524295,74,24,0.0,81935,383553351845968,6,26.4,-565.0569458007812,0.05860000103712082,25,-5293.2069627933215,0.25482803839368795,1.17645005E9,,,,0,,6,-10.1,1.17645005E9,304.0,NaN,NaN
Raw,231993923993144,648798159000000,,,-1265581155275718775,0.4130840301513672,38.12908107647672,19.70892469520482,10.705705686524295,74,31,0.0,81935,383553355635994,3,33.0,-183.95143127441406,0.04800000041723251,25,-1737.0513000375993,0.0022170039651624013,1.17645005E9,,,,0,,6,-10.1,1.17645005E9,304.0,NaN,NaN
Fix,gps,51.524533,-0.134136,71.422729,0.000000,3.790092,1582194737000,231994904079648
Raw,231994924190796,648799159000000,,,-1265581155275718748,0.8014183044433594,39.66495569329709,25.39288072302016,11.662725874348702,74,5,0.0,16399,383554355077718,80,16.4,719.9095458984375,2.0290000438690186,16,0.0,0.0,1.57542003E9,,,,0,,1,0.38,1.57542003E9,304.0,NaN,NaN
Raw,231994924190796,648799159000000,,,-1265581155275718748,0.8014183044433594,39.66495569329709,25.39288072302016,11.662725874348702,74,13,0.0,16399,383554367124281,6,38.1,173.6717987060547,0.029600001871585846,25,2937.71223363952,9.324389888310735E-4,1.57542003E9,,,,0,,1,0.38,1.57542003E9,304.0,NaN,NaN
Raw,231994924190796,648799159000000,,,-1265581155275718748,0.8014183044433594,39.66495569329709,25.39288072302016,11.662725874348702,74,15,0.0,16399,383554366762329,17,28.6,-167.69866943359375,0.03420000150799751,17,-2702.483603858766,0.0030066398239606148,1.57542003E9,,,,0,,1,0.38,1.57542003E9,304.0,NaN,NaN
Raw,231994924190796,648799159000000,,,-1265581155275718748,0.8014183044433594,39.66495569329709,25.39288072302016,11.662725874348702,74,20,0.0,16399,383554357373219,4,44.3,-412.4459533691406,0.04330000281333923,25,-6868.959833550379,4.947635405729984E-4,1.57542003E9,,,,0,,1,0.38,1.57542003E9,304.0,NaN,NaN
Raw,231994924190796,648799159000000,,,-1265581155275718748,0.8014183044433594,39.66495569329709,25.39288072302016,11.662725874348702,74,28,0.0,16399,383554363443508,7,37.7,129.40390014648438,0.023900000378489494,25,2160.266208118353,0.0010085564157135064,1.57542003E9,,,,0,,1,0.38,1.57542003E9,304.0,NaN,NaN
Raw,231994924190796,648799159000000,,,-1265581155275718748,0.8014183044433594,39.66495569329709,25.39288072302016,11.662725874348702,74,30,0.0,16399,383554357819209,13,31.7,578.1746826171875,0.047600001096725464,25,9657.644561857534,0.002074201012354331,1.57542003E9,,,,0,,1,0.38,1.57542003E9,304.0,NaN,NaN
Raw,231994924190796,648799159000000,,,-1265581155275718748,0.8014183044433594,39.66495569329709,25.39288072302016,11.662725874348702,74,14,0.0,49359,48736370729266,35,22.8,-104.82945251464844,0.9414999485015869,16,0.0,0.0,1.59806246E9,,,,0,,3,-0.72,1.59806246E9,304.0,NaN,NaN
Raw,231994924190796,648799159000000,,,-1265581155275718748,0.8014183044433594,39.66495569329709,25.39288072302016,11.662725874348702,74,22,0.0,49359,48736356803657,40,21.9,-249.78138732910156,1.0104999542236328,16,0.0,0.0,1.60031245E9,,,,0,,3,-0.72,1.60031245E9,304.0,NaN,NaN
Raw,231994924190796,648799159000000,,,-1265581155275718748,0.8014183044433594,39.66495569329709,25.39288072302016,11.662725874348702,74,15,0.0,49359,48736361458944,10,34.8,-694.232177734375,0.22210000455379486,25,-11415.67498420039,0.0014970909974500758,1.602E9,,,,0,,3,-0.72,1.602E9,304.0,NaN,NaN
Raw,231994924190796,648799159000000,,,-1265581155275718748,0.8014183044433594,39.66495569329709,25.39288072302016,11.662725874348702,74,5,0.0,49359,48736364545422,6,39.5,-607.205078125,0.2248000055551529,25,-9986.747398956693,8.23110960518378E-4,1.60256256E9,,,,0,,3,-0.72,1.60256256E9,304.0,NaN,NaN
Raw,231994924190796,648799159000000,,,-1265581155275718748,0.8014183044433594,39.66495569329709,25.39288072302016,11.662725874348702,74,3,0.0,49359,48736361909140,46,20.8,739.5651245117188,1.0479999780654907,16,0.0,0.0,1.60481254E9,,,,0,,3,-0.72,1.60481254E9,304.0,NaN,NaN
Raw,231994924190796,648799159000000,,,-1265581155275718748,0.8014183044433594,39.66495569329709,25.39288072302016,11.662725874348702,74,4,0.0,49359,48736370598457,11,33.4,122.25965118408203,0.2362000048160553,25,2015.1055785113729,0.0016246636830792964,1.60537498E9,,,,0,,3,-0.72,1.60537498E9,304.0,NaN,NaN
Raw,231994924190796,648799159000000,,,-1265581155275718748,0.8014183044433594,39.66495569329709,25.39288072302016,11.662725874348702,74,37,0.0,16399,383540356051000,24,25.1,459.28167724609375,0.640500009059906,16,0.0,0.0,1.56109798E9,,,,0,,5,0.68,1.56109798E9,304.0,NaN,NaN
Raw,231994924190796,648799159000000,,,-1265581155275718748,0.8014183044433594,39.66495569329709,25.39288072302016,11.662725874348702,74,22,0.0,16399,383540354009510,4,43.2,-441.09613037109375,0.039000000804662704,25,-6698.040192572112,5.185066318015961E-4,1.56109798E9,,,,0,,5,0.68,1.56109798E9,304.0,NaN,NaN
Raw,231994924190796,648799159000000,,,-1265581155275718748,0.8014183044433594,39.66495569329709,25.39288072302016,11.662725874348702,74,19,0.0,16399,383540361531660,27,24.1,146.6605682373047,0.6679999828338623,16,0.0,0.0,1.56109798E9,,,,0,,5,0.68,1.56109798E9,304.0,NaN,NaN
Raw,231994924190796,648799159000000,,,-1265581155275718748,0.8014183044433594,39.66495569329709,25.39288072302016,11.662725874348702,74,10,0.0,16399,383540302654670,12,32.1,167.31634521484375,0.02460000105202198,25,2565.870538797996,0.0018243750799829725,1.56109798E9,,,,0,,5,0.68,1.56109798E9,304.0,NaN,NaN
Raw,231994924190796,648799159000000,,,-1265581155275718748,0.8014183044433594,39.66495569329709,25.39288072302016,11.662725874348702,74,1,0.0,23567,383554351024099,6,39.7,361.19622802734375,0.062300004065036774,25,6069.811455194946,0.0018458486430946374,1.57542003E9,,,,0,,6,0.48,1.57542003E9,304.0,NaN,NaN
Raw,231994924190796,648799159000000,,,-1265581155275718748,0.8014183044433594,39.66495569329709,25.39288072302016,11.662725874348702,74,4,0.0,23567,383554349261522,12,32.0,483.2609558105469,0.0471000038087368,25,8120.884923908043,0.003958108324583987,1.57542003E9,,,,0,,6,0.48,1.57542003E9,304.0,NaN,NaN
Raw,231994924190796,648799159000000,,,-1265581155275718748,0.8014183044433594,39.66495569329709,25.39288072302016,11.662725874348702,74,5,0.0,23567,383554348770509,8,36.2,-439.144775390625,0.04360000044107437,25,-7349.844980508945,0.0025499350854412276,1.57542003E9,,,,0,,6,0.48,1.57542003E9,304.0,NaN,NaN
Raw,231994924190796,648799159000000,,,-1265581155275718748,0.8014183044433594,39.66495569329709,25.39288072302016,11.662725874348702,74,9,0.0,23567,383554363072511,14,30.0,21.828330993652344,0.06640000641345978,25,254.8799998565,0.005233075867304602,1.57542003E9,,,,0,,6,0.48,1.57542003E9,304.0,NaN,NaN
Raw,231994924190796,648799159000000,,,-1265581155275718748,0.8014183044433594,39.66495569329709,25.39288072302016,11.662725874348702,74,24,0.0,23567,383554351840693,21,26.8,-566.6262817382812,0.04920000210404396,19,-9500.008391136384,0.011874324619302384,1.57542003E9,,,,0,,6,0.48,1.57542003E9,304.0,NaN,NaN
Raw,231994924190796,648799159000000,,,-1265581155275718748,0.8014183044433594,39.66495569329709,25.39288072302016,11.662725874348702,74,31,0.0,23567,383554355629533,9,35.5,-185.56228637695312,0.04260000213980675,25,-3103.623322645848,0.0028924638165555576,1.57542003E9,,,,0,,6,0.48,1.57542003E9,304.0,NaN,NaN
Raw,231994924190796,648799159000000,,,-1265581155275718748,0.8014183044433594,39.66495569329709,25.39288072302016,11.662725874348702,74,24,0.0,81935,383554358036638,11,19.4,-606.2486572265625,1.69350004196167,16,0.0,0.0,1.17645005E9,,,,0,,1,-7.42,1.17645005E9,304.0,NaN,NaN
Raw,231994924190796,648799159000000,,,-1265581155275718748,0.8014183044433594,39.66495569329709,25.39288072302016,11.662725874348702,74,30,0.0,81935,383554357827046,8,23.9,578.3577270507812,0.7069999575614929,16,0.0,0.0,1.17645005E9,,,,0,,1,-7.42,1.17645005E9,304.0,NaN,NaN
Raw,231994924190796,648799159000000,,,-1265581155275718748,0.8014183044433594,39.66495569329709,25.39288072302016,11.662725874348702,74,1,0.0,81935,383554351031186,7,24.6,360.3612365722656,0.09160000085830688,29,3732.667868345906,0.0411037634920868,1.17645005E9,,,,0,,6,-7.42,1.17645005E9,304.0,NaN,NaN
Raw,231994924190796,648799159000000,,,-1265581155275718748,0.8014183044433594,39.66495569329709,25.39288072302016,11.662725874348702,74,4,0.0,81935,383554349268638,8,22.0,483.1412353515625,0.7400000095367432,16,0.0,0.0,1.17645005E9,,,,0,,6,-7.42,1.17645005E9,304.0,NaN,NaN
Raw,231994924190796,648799159000000,,,-1265581155275718748,0.8014183044433594,39.66495569329709,25.39288072302016,11.662725874348702,74,5,0.0,81935,383554348777581,4,30.1,-439.8804931640625,0.041200000792741776,25,-4543.65261021445,0.0032108332879374254,1.17645005E9,,,,0,,6,-7.42,1.17645005E9,304.0,NaN,NaN
Raw,231994924190796,648799159000000,,,-1265581155275718748,0.8014183044433594,39.66495569329709,25.39288072302016,11.662725874348702,74,9,0.0,81935,383554363079561,4,30.8,21.08072853088379,0.03370000049471855,29,217.49031585179557,0.0032108332879374254,1.17645005E9,,,,0,,6,-7.42,1.17645005E9,304.0,NaN,NaN
Raw,231994924190796,648799159000000,,,-1265581155275718748,0.8014183044433594,39.66495569329709,25.39288072302016,11.662725874348702,74,24,0.0,81935,383554351847861,5,28.0,-567.6348266601562,0.04960000142455101,29,-5859.673105776974,0.0040262828122019055,1.17645005E9,,,,0,,6,-7.42,1.17645005E9,304.0,NaN,NaN
Raw,231994924190796,648799159000000,,,-1265581155275718748,0.8014183044433594,39.66495569329709,25.39288072302016,11.662725874348702,74,31,0.0,81935,383554355636616,3,33.8,-186.36505126953125,0.04800000041723251,25,-1922.3262676320223,0.0022170039651624013,1.17645005E9,,,,0,,6,-7.42,1.17645005E9,304.0,NaN,NaN
Fix,gps,51.524535,-0.134134,71.384583,0.000000,3.790092,1582194738000,231995893549955
Raw,231995913645009,648800159000000,,,-1265581155275718732,0.17941665649414062,37.306825106497854,19.74230095488289,9.713547696532613,74,13,0.0,16399,383555367123672,6,39.0,176.04940795898438,0.02930000051856041,25,3113.390417345702,8.372921387687362E-4,1.57542003E9,,,,0,,1,0.16,1.57542003E9,304.0,NaN,NaN
Raw,231995913645009,648800159000000,,,-1265581155275718732,0.17941665649414062,37.306825106497854,19.74230095488289,9.713547696532613,74,15,0.0,16399,383555366762906,14,30.0,-165.34266662597656,0.03189999982714653,17,-2868.204025759831,0.002397700231676362,1.57542003E9,,,,0,,1,0.16,1.57542003E9,304.0,NaN,NaN
Raw,231995913645009,648800159000000,,,-1265581155275718732,0.17941665649414062,37.306825106497854,19.74230095488289,9.713547696532613,74,20,0.0,16399,383555357374581,4,45.0,-410.0751953125,0.04200000315904617,25,-7279.4123215297805,4.186460693843681E-4,1.57542003E9,,,,0,,1,0.16,1.57542003E9,304.0,NaN,NaN
Raw,231995913645009,648800159000000,,,-1265581155275718732,0.17941665649414062,37.306825106497854,19.74230095488289,9.713547696532613,74,28,0.0,16399,383555363443071,6,39.6,131.75550842285156,0.02330000139772892,25,2291.652144201564,8.372921387687362E-4,1.57542003E9,,,,0,,1,0.16,1.57542003E9,304.0,NaN,NaN
Raw,231995913645009,648800159000000,,,-1265581155275718732,0.17941665649414062,37.306825106497854,19.74230095488289,9.713547696532613,74,30,0.0,16399,383555357817275,12,32.1,580.495849609375,0.0471000038087368,25,10237.79044850184,0.001807789796734829,1.57542003E9,,,,0,,1,0.16,1.57542003E9,304.0,NaN,NaN
Raw,231995913645009,648800159000000,,,-1265581155275718732,0.17941665649414062,37.306825106497854,19.74230095488289,9.713547696532613,74,14,0.0,49359,48737370729703,31,23.1,-102.4239730834961,0.326200008392334,19,-1721.074182442745,0.18759745926927673,1.59806246E9,,,,0,,3,-0.84,1.59806246E9,304.0,NaN,NaN
Raw,231995913645009,648800159000000,,,-1265581155275718732,0.17941665649414062,37.306825106497854,19.74230095488289,9.713547696532613,74,22,0.0,49359,48737356804307,40,21.0,-247.6364288330078,1.0104999542236328,16,0.0,0.0,1.60031245E9,,,,0,,3,-0.84,1.60031245E9,304.0,NaN,NaN
Raw,231995913645009,648800159000000,,,-1265581155275718732,0.17941665649414062,37.306825106497854,19.74230095488289,9.713547696532613,74,15,0.0,49359,48737361461264,8,36.1,-691.9388427734375,0.22110000252723694,25,-12107.957357760662,0.001141531809306292,1.602E9,,,,0,,3,-0.84,1.602E9,304.0,NaN,NaN
Raw,231995913645009,648800159000000,,,-1265581155275718732,0.17941665649414062,37.306825106497854,19.74230095488289,9.713547696532613,74,5,0.0,49359,48737364547468,5,40.0,-604.866455078125,0.22460000216960907,25,-10591.985026090688,7.295756082573676E-4,1.60256256E9,,,,0,,3,-0.84,1.60256256E9,304.0,NaN,NaN
Raw,231995913645009,648800159000000,,,-1265581155275718732,0.17941665649414062,37.306825106497854,19.74230095488289,9.713547696532613,74,4,0.0,49359,48737370598000,8,36.5,124.67937469482422,0.2346000075340271,25,2139.3938905877426,0.0011391319696942128,1.60537498E9,,,,0,,3,-0.84,1.60537498E9,304.0,NaN,NaN
Raw,231995913645009,648800159000000,,,-1265581155275718732,0.17941665649414062,37.306825106497854,19.74230095488289,9.713547696532613,74,37,0.0,16399,383541356049457,16,29.8,461.0196228027344,0.44050002098083496,16,0.0,0.0,1.56109798E9,,,,0,,5,0.43,1.56109798E9,304.0,NaN,NaN
Raw,231995913645009,648800159000000,,,-1265581155275718732,0.17941665649414062,37.306825106497854,19.74230095488289,9.713547696532613,74,22,0.0,16399,383541354010973,4,43.1,-438.7516784667969,0.039000000804662704,25,-7137.160569533159,5.185066318015961E-4,1.56109798E9,,,,0,,5,0.43,1.56109798E9,304.0,NaN,NaN
Raw,231995913645009,648800159000000,,,-1265581155275718732,0.17941665649414062,37.306825106497854,19.74230095488289,9.713547696532613,74,19,0.0,16399,383541361531199,35,22.3,148.83059692382812,0.7879999876022339,16,0.0,0.0,1.56109798E9,,,,0,,5,0.43,1.56109798E9,304.0,NaN,NaN
Raw,231995913645009,648800159000000,,,-1265581155275718732,0.17941665649414062,37.306825106497854,19.74230095488289,9.713547696532613,74,10,0.0,16399,383541302654110,11,33.1,169.5590362548828,0.02420000173151493,25,2735.1080076516064,0.0016707435714883973,1.56109798E9,,,,0,,5,0.43,1.56109798E9,304.0,NaN,NaN
Raw,231995913645009,648800159000000,,,-1265581155275718732,0.17941665649414062,37.306825106497854,19.74230095488289,9.713547696532613,74,1,0.0,23567,383555351022886,5,40.2,363.4107666015625,0.0471000038087368,25,6432.793686597958,0.001617496273834944,1.57542003E9,,,,0,,6,0.25,1.57542003E9,304.0,NaN,NaN
Raw,231995913645009,648800159000000,,,-1265581155275718732,0.17941665649414062,37.306825106497854,19.74230095488289,9.713547696532613,74,4,0.0,23567,383555349259898,12,32.7,485.5384826660156,0.0471000038087368,25,8606.006494462546,0.003958108324583987,1.57542003E9,,,,0,,6,0.25,1.57542003E9,304.0,NaN,NaN
Raw,231995913645009,648800159000000,,,-1265581155275718732,0.17941665649414062,37.306825106497854,19.74230095488289,9.713547696532613,74,5,0.0,23567,383555348771969,8,36.0,-436.9051208496094,0.04360000044107437,25,-7787.131648137478,0.0025499350854412276,1.57542003E9,,,,0,,6,0.25,1.57542003E9,304.0,NaN,NaN
Raw,231995913645009,648800159000000,,,-1265581155275718732,0.17941665649414062,37.306825106497854,19.74230095488289,9.713547696532613,74,9,0.0,23567,383555363072412,14,30.7,24.041358947753906,0.06640000641345978,25,278.5158743794605,0.005233075867304602,1.57542003E9,,,,0,,6,0.25,1.57542003E9,304.0,NaN,NaN
Raw,231995913645009,648800159000000,,,-1265581155275718732,0.17941665649414062,37.306825106497854,19.74230095488289,9.713547696532613,74,24,0.0,23567,383555351842800,24,25.2,-564.979736328125,0.055800002068281174,21,-10065.109360388935,0.017526047264890512,1.57542003E9,,,,0,,6,0.25,1.57542003E9,304.0,NaN,NaN
Raw,231995913645009,648800159000000,,,-1265581155275718732,0.17941665649414062,37.306825106497854,19.74230095488289,9.713547696532613,74,31,0.0,23567,383555355630139,7,37.3,-183.29095458984375,0.04190000146627426,25,-3287.306770708071,0.0021883771969841777,1.57542003E9,,,,0,,6,0.25,1.57542003E9,304.0,NaN,NaN
Raw,231995913645009,648800159000000,,,-1265581155275718732,0.17941665649414062,37.306825106497854,19.74230095488289,9.713547696532613,74,24,0.0,81935,383555358038670,11,19.6,-603.3436279296875,0.9434999823570251,16,0.0,0.0,1.17645005E9,,,,0,,1,-12.1,1.17645005E9,304.0,NaN,NaN
Raw,231995913645009,648800159000000,,,-1265581155275718732,0.17941665649414062,37.306825106497854,19.74230095488289,9.713547696532613,74,30,0.0,81935,383555357825114,9,21.3,580.5206298828125,0.07090000063180923,27,6572.115617935887,0.25482803839368795,1.17645005E9,,,,0,,1,-12.1,1.17645005E9,304.0,NaN,NaN
Raw,231995913645009,648800159000000,,,-1265581155275718732,0.17941665649414062,37.306825106497854,19.74230095488289,9.713547696532613,74,1,0.0,81935,383555351029975,8,23.2,363.4186706542969,0.050700001418590546,25,4095.6746918608624,0.34557229348499413,1.17645005E9,,,,0,,6,-12.1,1.17645005E9,304.0,NaN,NaN
Raw,231995913645009,648800159000000,,,-1265581155275718732,0.17941665649414062,37.306825106497854,19.74230095488289,9.713547696532613,74,4,0.0,81935,383555349267022,9,21.8,486.0335388183594,0.7400000095367432,16,0.0,0.0,1.17645005E9,,,,0,,6,-12.1,1.17645005E9,304.0,NaN,NaN
Raw,231995913645009,648800159000000,,,-1265581155275718732,0.17941665649414062,37.306825106497854,19.74230095488289,9.713547696532613,74,5,0.0,81935,383555348779040,4,29.0,-436.9971923828125,0.0430000014603138,25,-4980.925717974594,0.0037714549693657518,1.17645005E9,,,,0,,6,-12.1,1.17645005E9,304.0,NaN,NaN
Raw,231995913645009,648800159000000,,,-1265581155275718732,0.17941665649414062,37.306825106497854,19.74230095488289,9.713547696532613,74,9,0.0,81935,383555363079482,4,29.4,24.005767822265625,0.03550000116229057,29,241.15080921413622,0.0037714549693657518,1.17645005E9,,,,0,,6,-12.1,1.17645005E9,304.0,NaN,NaN
Raw,231995913645009,648800159000000,,,-1265581155275718732,0.17941665649414062,37.306825106497854,19.74230095488289,9.713547696532613,74,24,0.0,81935,383555351849747,6,26.7,-564.5863647460938,0.05860000103712082,25,-6424.587658837648,0.007288081858568245,1.17645005E9,,,,0,,6,-12.1,1.17645005E9,304.0,NaN,NaN
Raw,231995913645009,648800159000000,,,-1265581155275718732,0.17941665649414062,37.306825106497854,19.74230095488289,9.713547696532613,74,31,0.0,81935,383555355637225,3,33.5,-183.2654266357422,0.04800000041723251,25,-2105.982399706537,0.0022170039651624013,1.17645005E9,,,,0,,6,-12.1,1.17645005E9,304.0,NaN,NaN
Fix,gps,51.524538,-0.134134,71.587952,0.000000,3.790092,1582194739000,231996897866513
Raw,231996935118496,648801159000000,,,-1265581155275718697,0.3759593963623047,36.55681575764902,27.32528249505306,9.690925991744617,74,13,0.0,16399,383556367123109,6,38.8,174.11595153808594,0.029600001871585846,25,3288.0787857342775,9.324389888310735E-4,1.57542003E9,,,,0,,1,-0.05,1.57542003E9,304.0,NaN,NaN
Raw,231996935118496,648801159000000,,,-1265581155275718697,0.3759593963623047,36.55681575764902,27.32528249505306,9.690925991744617,74,15,0.0,16399,383556366763462,14,30.0,-167.24635314941406,0.03189999982714653,25,-3034.80871646296,0.002397700231676362,1.57542003E9,,,,0,,1,-0.05,1.57542003E9,304.0,NaN,NaN
Raw,231996935118496,648801159000000,,,-1265581155275718697,0.3759593963623047,36.55681575764902,27.32528249505306,9.690925991744617,74,20,0.0,16399,383556357375959,4,43.3,-411.9728698730469,0.04350000247359276,25,-7690.840729529547,5.137929194467054E-4,1.57542003E9,,,,0,,1,-0.05,1.57542003E9,304.0,NaN,NaN
Raw,231996935118496,648801159000000,,,-1265581155275718697,0.3759593963623047,36.55681575764902,27.32528249505306,9.690925991744617,74,28,0.0,16399,383556363442640,5,40.6,129.8686981201172,0.023100001737475395,25,2422.0757162985037,7.42145288706399E-4,1.57542003E9,,,,0,,1,-0.05,1.57542003E9,304.0,NaN,NaN
Raw,231996935118496,648801159000000,,,-1265581155275718697,0.3759593963623047,36.55681575764902,27.32528249505306,9.690925991744617,74,30,0.0,16399,383556357815324,12,32.0,578.5081176757812,0.0471000038087368,25,10816.87438355106,0.001807789796734829,1.57542003E9,,,,0,,1,-0.05,1.57542003E9,304.0,NaN,NaN
Raw,231996935118496,648801159000000,,,-1265581155275718697,0.3759593963623047,36.55681575764902,27.32528249505306,9.690925991744617,74,22,0.0,49359,48738356804996,53,19.5,-248.45132446289062,1.1404999494552612,16,0.0,0.0,1.60031245E9,,,,0,,3,-1.18,1.60031245E9,304.0,NaN,NaN
Raw,231996935118496,648801159000000,,,-1265581155275718697,0.3759593963623047,36.55681575764902,27.32528249505306,9.690925991744617,74,13,0.0,49359,48738364910687,122,13.2,610.5213623046875,5.432499885559082,16,0.0,0.0,1.60087501E9,,,,0,,3,-1.18,1.60087501E9,304.0,NaN,NaN
Raw,231996935118496,648801159000000,,,-1265581155275718697,0.3759593963623047,36.55681575764902,27.32528249505306,9.690925991744617,74,15,0.0,49359,48738361463608,7,37.6,-693.872314453125,0.22089999914169312,25,-12801.251724140995,9.918227095612844E-4,1.602E9,,,,0,,3,-1.18,1.602E9,304.0,NaN,NaN
Raw,231996935118496,648801159000000,,,-1265581155275718697,0.3759593963623047,36.55681575764902,27.32528249505306,9.690925991744617,74,5,0.0,49359,48738364549517,6,39.5,-606.7875366210938,0.2248000055551529,25,-11198.201527397048,8.23110960518378E-4,1.60256256E9,,,,0,,3,-1.18,1.60256256E9,304.0,NaN,NaN
Raw,231996935118496,648801159000000,,,-1265581155275718697,0.3759593963623047,36.55681575764902,27.32528249505306,9.690925991744617,74,3,0.0,49359,48738361904325,35,22.5,740.5739135742188,1.6779999732971191,16,0.0,0.0,1.60481254E9,,,,0,,3,-1.18,1.60481254E9,304.0,NaN,NaN
Raw,231996935118496,648801159000000,,,-1265581155275718697,0.3759593963623047,36.55681575764902,27.32528249505306,9.690925991744617,74,4,0.0,49359,48738370597570,8,36.5,122.82686614990234,0.2346000075340271,25,2262.7518046507425,0.0011391319696942128,1.60537498E9,,,,0,,3,-1.18,1.60537498E9,304.0,NaN,NaN
Raw,231996935118496,648801159000000,,,-1265581155275718697,0.3759593963623047,36.55681575764902,27.32528249505306,9.690925991744617,74,37,0.0,16399,383542356047940,13,31.3,458.9790344238281,0.04610000178217888,19,7916.71590475875,0.0020932304434118673,1.56109798E9,,,,0,,5,0.27,1.56109798E9,304.0,NaN,NaN
Raw,231996935118496,648801159000000,,,-1265581155275718697,0.3759593963623047,36.55681575764902,27.32528249505306,9.690925991744617,74,22,0.0,16399,383542354012443,5,41.8,-440.6940612792969,0.03930000215768814,25,-7577.28877715889,6.913421459270097E-4,1.56109798E9,,,,0,,5,0.27,1.56109798E9,304.0,NaN,NaN
Raw,231996935118496,648801159000000,,,-1265581155275718697,0.3759593963623047,36.55681575764902,27.32528249505306,9.690925991744617,74,19,0.0,16399,383542361530728,46,20.1,146.4877166748047,0.9179999828338623,16,0.0,0.0,1.56109798E9,,,,0,,5,0.27,1.56109798E9,304.0,NaN,NaN
Raw,231996935118496,648801159000000,,,-1265581155275718697,0.3759593963623047,36.55681575764902,27.32528249505306,9.690925991744617,74,10,0.0,16399,383542302653568,12,32.6,167.58682250976562,0.02460000105202198,25,2903.287408246314,0.0018243750799829725,1.56109798E9,,,,0,,5,0.27,1.56109798E9,304.0,NaN,NaN
Raw,231996935118496,648801159000000,,,-1265581155275718697,0.3759593963623047,36.55681575764902,27.32528249505306,9.690925991744617,74,1,0.0,23567,383556351021677,5,40.3,361.538330078125,0.06210000440478325,25,6794.789518881936,0.001617496273834944,1.57542003E9,,,,0,,6,0.03,1.57542003E9,304.0,NaN,NaN
Raw,231996935118496,648801159000000,,,-1265581155275718697,0.3759593963623047,36.55681575764902,27.32528249505306,9.690925991744617,74,4,0.0,23567,383556349258286,13,31.7,483.5479736328125,0.047600001096725464,25,9090.09056107521,0.004528989424958011,1.57542003E9,,,,0,,6,0.03,1.57542003E9,304.0,NaN,NaN
Raw,231996935118496,648801159000000,,,-1265581155275718697,0.3759593963623047,36.55681575764902,27.32528249505306,9.690925991744617,74,5,0.0,23567,383556348773429,8,36.1,-438.8133850097656,0.04360000044107437,25,-8225.445458596107,0.0025499350854412276,1.57542003E9,,,,0,,6,0.03,1.57542003E9,304.0,NaN,NaN
Raw,231996935118496,648801159000000,,,-1265581155275718697,0.3759593963623047,36.55681575764902,27.32528249505306,9.690925991744617,74,9,0.0,23567,383556363072341,16,29.8,22.204362869262695,0.0674000009894371,25,301.1525578642829,0.006146485344343376,1.57542003E9,,,,0,,6,0.03,1.57542003E9,304.0,NaN,NaN
Raw,231996935118496,648801159000000,,,-1265581155275718697,0.3759593963623047,36.55681575764902,27.32528249505306,9.690925991744617,74,24,0.0,23567,383556351844369,27,24.7,-566.4186401367188,0.6389999985694885,16,0.0,0.0,1.57542003E9,,,,0,,6,0.03,1.57542003E9,304.0,NaN,NaN
Raw,231996935118496,648801159000000,,,-1265581155275718697,0.3759593963623047,36.55681575764902,27.32528249505306,9.690925991744617,74,31,0.0,23567,383556355630755,7,37.8,-185.16281127929688,0.04190000146627426,25,-3471.9734364546434,0.0021883771969841777,1.57542003E9,,,,0,,6,0.03,1.57542003E9,304.0,NaN,NaN
Raw,231996935118496,648801159000000,,,-1265581155275718697,0.3759593963623047,36.55681575764902,27.32528249505306,9.690925991744617,74,1,0.0,81935,383556351028780,10,20.9,361.2060241699219,0.8029999732971191,16,0.0,0.0,1.17645005E9,,,,0,,6,-13.47,1.17645005E9,304.0,NaN,NaN
Raw,231996935118496,648801159000000,,,-1265581155275718697,0.3759593963623047,36.55681575764902,27.32528249505306,9.690925991744617,74,4,0.0,81935,383556349265392,12,18.7,484.59375,1.0099999904632568,16,0.0,0.0,1.17645005E9,,,,0,,6,-13.47,1.17645005E9,304.0,NaN,NaN
Raw,231996935118496,648801159000000,,,-1265581155275718697,0.3759593963623047,36.55681575764902,27.32528249505306,9.690925991744617,74,5,0.0,81935,383556348780497,7,24.6,-438.6166687011719,0.08709999918937683,29,-5419.271505529865,0.0411037634920868,1.17645005E9,,,,0,,6,-13.47,1.17645005E9,304.0,NaN,NaN
Raw,231996935118496,648801159000000,,,-1265581155275718697,0.3759593963623047,36.55681575764902,27.32528249505306,9.690925991744617,74,9,0.0,81935,383556363079407,6,25.7,22.34687042236328,0.05900000035762787,29,263.8029651082752,0.010753742989341824,1.17645005E9,,,,0,,6,-13.47,1.17645005E9,304.0,NaN,NaN
Raw,231996935118496,648801159000000,,,-1265581155275718697,0.3759593963623047,36.55681575764902,27.32528249505306,9.690925991744617,74,24,0.0,81935,383556351851640,8,22.0,-566.8395385742188,0.7429999709129333,16,0.0,0.0,1.17645005E9,,,,0,,6,-13.47,1.17645005E9,304.0,NaN,NaN
Raw,231996935118496,648801159000000,,,-1265581155275718697,0.3759593963623047,36.55681575764902,27.32528249505306,9.690925991744617,74,31,0.0,81935,383556355637842,4,30.6,-184.97537231445312,0.05170000344514847,25,-2290.643219754421,0.0032108332879374254,1.17645005E9,,,,0,,6,-13.47,1.17645005E9,304.0,NaN,NaN
Fix,gps,51.524541,-0.134133,71.464844,0.000000,3.790092,1582194740000,231997897559894
Raw,231997924437553,648802159000000,,,-1265581155275718683,0.8896903991699219,37.257701478665695,20.630231299028015,10.66018233881909,74,5,0.0,16399,383557355070431,46,20.9,719.2625122070312,0.8389999866485596,16,0.0,0.0,1.57542003E9,,,,0,,1,-1.06,1.57542003E9,304.0,NaN,NaN
Raw,231997924437553,648802159000000,,,-1265581155275718683,0.8896903991699219,37.257701478665695,20.630231299028015,10.66018233881909,74,13,0.0,16399,383557367122513,6,39.7,174.34967041015625,0.02930000051856041,25,3462.822887758038,8.372921387687362E-4,1.57542003E9,,,,0,,1,-1.06,1.57542003E9,304.0,NaN,NaN
Raw,231997924437553,648802159000000,,,-1265581155275718683,0.8896903991699219,37.257701478665695,20.630231299028015,10.66018233881909,74,15,0.0,16399,383557366763988,11,33.3,-166.99842834472656,0.03020000085234642,25,-3201.432566531717,0.001655554942969963,1.57542003E9,,,,0,,1,-1.06,1.57542003E9,304.0,NaN,NaN
Raw,231997924437553,648802159000000,,,-1265581155275718683,0.8896903991699219,37.257701478665695,20.630231299028015,10.66018233881909,74,20,0.0,16399,383557357377348,5,40.5,-411.7021789550781,0.04410000145435333,25,-8102.183635879402,7.42145288706399E-4,1.57542003E9,,,,0,,1,-1.06,1.57542003E9,304.0,NaN,NaN
Raw,231997924437553,648802159000000,,,-1265581155275718683,0.8896903991699219,37.257701478665695,20.630231299028015,10.66018233881909,74,28,0.0,16399,383557363442211,5,41.3,130.1202392578125,0.02280000038444996,25,2552.5785852038402,6.850571963914755E-4,1.57542003E9,,,,0,,1,-1.06,1.57542003E9,304.0,NaN,NaN
Raw,231997924437553,648802159000000,,,-1265581155275718683,0.8896903991699219,37.257701478665695,20.630231299028015,10.66018233881909,74,30,0.0,16399,383557357813368,12,32.8,578.706787109375,0.0471000038087368,25,11395.965255864692,0.001807789796734829,1.57542003E9,,,,0,,1,-1.06,1.57542003E9,304.0,NaN,NaN
Raw,231997924437553,648802159000000,,,-1265581155275718683,0.8896903991699219,37.257701478665695,20.630231299028015,10.66018233881909,74,14,0.0,49359,48739370730504,80,16.3,-103.65696716308594,2.131500005722046,16,0.0,0.0,1.59806246E9,,,,0,,3,-2.31,1.59806246E9,304.0,NaN,NaN
Raw,231997924437553,648802159000000,,,-1265581155275718683,0.8896903991699219,37.257701478665695,20.630231299028015,10.66018233881909,74,22,0.0,49359,48739356806083,27,24.9,-248.64804077148438,0.840499997138977,16,0.0,0.0,1.60031245E9,,,,0,,3,-2.31,1.60031245E9,304.0,NaN,NaN
Raw,231997924437553,648802159000000,,,-1265581155275718683,0.8896903991699219,37.257701478665695,20.630231299028015,10.66018233881909,74,13,0.0,49359,48739364908641,40,21.2,610.081298828125,0.9924999475479126,16,0.0,0.0,1.60087501E9,,,,0,,3,-2.31,1.60087501E9,304.0,NaN,NaN
Raw,231997924437553,648802159000000,,,-1265581155275718683,0.8896903991699219,37.257701478665695,20.630231299028015,10.66018233881909,74,15,0.0,49359,48739361465928,7,37.5,-693.6715087890625,0.22089999914169312,25,-13494.50990543565,9.918227095612844E-4,1.602E9,,,,0,,3,-2.31,1.602E9,304.0,NaN,NaN
Raw,231997924437553,648802159000000,,,-1265581155275718683,0.8896903991699219,37.257701478665695,20.630231299028015,10.66018233881909,74,5,0.0,49359,48739364551535,5,41.1,-606.556640625,0.22429999709129333,25,-11804.34973981725,6.734544143230755E-4,1.60256256E9,,,,0,,3,-2.31,1.60256256E9,304.0,NaN,NaN
Raw,231997924437553,648802159000000,,,-1265581155275718683,0.8896903991699219,37.257701478665695,20.630231299028015,10.66018233881909,74,3,0.0,49359,48739361901960,21,26.3,740.6903076171875,0.2282000035047531,19,14418.774081142688,0.005342720110455805,1.60481254E9,,,,0,,3,-2.31,1.60481254E9,304.0,NaN,NaN
Raw,231997924437553,648802159000000,,,-1265581155275718683,0.8896903991699219,37.257701478665695,20.630231299028015,10.66018233881909,74,4,0.0,49359,48739370597214,9,35.8,123.13567352294922,0.23510000109672546,25,2386.244178934738,0.0013072006865361828,1.60537498E9,,,,0,,3,-2.31,1.60537498E9,304.0,NaN,NaN
Raw,231997924437553,648802159000000,,,-1265581155275718683,0.8896903991699219,37.257701478665695,20.630231299028015,10.66018233881909,74,37,0.0,16399,383543356046383,8,36.0,459.21044921875,0.04360000044107437,17,8376.312201247072,0.0011714408558922843,1.56109798E9,,,,0,,5,-0.9,1.56109798E9,304.0,NaN,NaN
Raw,231997924437553,648802159000000,,,-1265581155275718683,0.8896903991699219,37.257701478665695,20.630231299028015,10.66018233881909,74,22,0.0,16399,383543354013932,6,39.2,-440.44317626953125,0.0398000031709671,25,-8017.350147834468,8.449737438469402E-4,1.56109798E9,,,,0,,5,-0.9,1.56109798E9,304.0,NaN,NaN
Raw,231997924437553,648802159000000,,,-1265581155275718683,0.8896903991699219,37.257701478665695,20.630231299028015,10.66018233881909,74,10,0.0,16399,383543302653008,11,33.6,167.7367706298828,0.02420000173151493,25,3071.4534853676623,0.0016707435714883973,1.56109798E9,,,,0,,5,-0.9,1.56109798E9,304.0,NaN,NaN
Raw,231997924437553,648802159000000,,,-1265581155275718683,0.8896903991699219,37.257701478665695,20.630231299028015,10.66018233881909,74,1,0.0,23567,383557351020465,5,40.8,361.6446228027344,0.0471000038087368,25,7156.805159724741,0.001617496273834944,1.57542003E9,,,,0,,6,-0.99,1.57542003E9,304.0,NaN,NaN
Raw,231997924437553,648802159000000,,,-1265581155275718683,0.8896903991699219,37.257701478665695,20.630231299028015,10.66018233881909,74,4,0.0,23567,383557349256726,16,29.8,483.6934814453125,0.049400001764297485,25,9574.15609936414,0.006146485344343376,1.57542003E9,,,,0,,6,-0.99,1.57542003E9,304.0,NaN,NaN
Raw,231997924437553,648802159000000,,,-1265581155275718683,0.8896903991699219,37.257701478665695,20.630231299028015,10.66018233881909,74,5,0.0,23567,383557348774875,8,36.4,-438.7250671386719,0.04360000044107437,25,-8663.768610625963,0.0025499350854412276,1.57542003E9,,,,0,,6,-0.99,1.57542003E9,304.0,NaN,NaN
Raw,231997924437553,648802159000000,,,-1265581155275718683,0.8896903991699219,37.257701478665695,20.630231299028015,10.66018233881909,74,9,0.0,23567,383557363072252,16,29.9,22.349853515625,0.0674000009894371,25,323.8245117092546,0.006146485344343376,1.57542003E9,,,,0,,6,-0.99,1.57542003E9,304.0,NaN,NaN
Raw,231997924437553,648802159000000,,,-1265581155275718683,0.8896903991699219,37.257701478665695,20.630231299028015,10.66018233881909,74,24,0.0,23567,383557351846293,24,25.6,-566.0856323242188,0.5989999771118164,16,0.0,0.0,1.57542003E9,,,,0,,6,-0.99,1.57542003E9,304.0,NaN,NaN
Raw,231997924437553,648802159000000,,,-1265581155275718683,0.8896903991699219,37.257701478665695,20.630231299028015,10.66018233881909,74,31,0.0,23567,383557355631352,6,38.9,-184.9955596923828,0.041600000113248825,25,-3656.607613429229,0.0020551716777868216,1.57542003E9,,,,0,,6,-0.99,1.57542003E9,304.0,NaN,NaN
Raw,231997924437553,648802159000000,,,-1265581155275718683,0.8896903991699219,37.257701478665695,20.630231299028015,10.66018233881909,74,24,0.0,81935,383557358042900,14,17.8,-606.4525146484375,1.8535000085830688,16,0.0,0.0,1.17645005E9,,,,0,,1,-13.71,1.17645005E9,304.0,NaN,NaN
Raw,231997924437553,648802159000000,,,-1265581155275718683,0.8896903991699219,37.257701478665695,20.630231299028015,10.66018233881909,74,30,0.0,81935,383557357821253,12,18.9,579.0457763671875,1.7720000743865967,16,0.0,0.0,1.17645005E9,,,,0,,1,-13.71,1.17645005E9,304.0,NaN,NaN
Raw,231997924437553,648802159000000,,,-1265581155275718683,0.8896903991699219,37.257701478665695,20.630231299028015,10.66018233881909,74,1,0.0,81935,383557351027561,6,26.6,362.66705322265625,0.05860000103712082,27,4820.940077406428,0.007288081858568245,1.17645005E9,,,,0,,6,-13.71,1.17645005E9,304.0,NaN,NaN
Raw,231997924437553,648802159000000,,,-1265581155275718683,0.8896903991699219,37.257701478665695,20.630231299028015,10.66018233881909,74,4,0.0,81935,383557349263784,6,26.4,484.68292236328125,0.05560000240802765,27,6447.260469713452,0.007288081858568245,1.17645005E9,,,,0,,6,-13.71,1.17645005E9,304.0,NaN,NaN
Raw,231997924437553,648802159000000,,,-1265581155275718683,0.8896903991699219,37.257701478665695,20.630231299028015,10.66018233881909,74,5,0.0,81935,383557348781960,4,29.3,-437.8303527832031,0.0430000014603138,29,-5857.52974961679,0.0037714549693657518,1.17645005E9,,,,0,,6,-13.71,1.17645005E9,304.0,NaN,NaN
Raw,231997924437553,648802159000000,,,-1265581155275718683,0.8896903991699219,37.257701478665695,20.630231299028015,10.66018233881909,74,9,0.0,81935,383557363079330,4,29.7,23.18228530883789,0.03550000116229057,25,286.4876796526366,0.0037714549693657518,1.17645005E9,,,,0,,6,-13.71,1.17645005E9,304.0,NaN,NaN
Raw,231997924437553,648802159000000,,,-1265581155275718683,0.8896903991699219,37.257701478665695,20.630231299028015,10.66018233881909,74,24,0.0,81935,383557351853521,7,24.0,-566.062255859375,0.6330000162124634,16,0.0,0.0,1.17645005E9,,,,0,,6,-13.71,1.17645005E9,304.0,NaN,NaN
Raw,231997924437553,648802159000000,,,-1265581155275718683,0.8896903991699219,37.257701478665695,20.630231299028015,10.66018233881909,74,31,0.0,81935,383557355638457,3,32.7,-184.05825805664062,0.04910000041127205,25,-2475.257818151481,0.0024208662868967453,1.17645005E9,,,,0,,6,-13.71,1.17645005E9,304.0,NaN,NaN
Fix,gps,51.524542,-0.134133,71.447266,0.000000,3.790092,1582194741000,231998897891192
Raw,231998947480207,648803159000000,,,-1265581155275718662,0.6619091033935547,50.06928404327482,21.049174614966116,22.734613696964022,74,5,0.0,16399,383558355068104,53,19.3,715.7135620117188,1.0190000534057617,16,0.0,0.0,1.57542003E9,,,,0,,1,-1.94,1.57542003E9,304.0,NaN,NaN
Raw,231998947480207,648803159000000,,,-1265581155275718662,0.6619091033935547,50.06928404327482,21.049174614966116,22.734613696964022,74,13,0.0,16399,383558367121948,7,37.2,169.26980590820312,0.029900001361966133,25,3634.3345525643995,0.0010085564157135064,1.57542003E9,,,,0,,1,-1.94,1.57542003E9,304.0,NaN,NaN
Raw,231998947480207,648803159000000,,,-1265581155275718662,0.6619091033935547,50.06928404327482,21.049174614966116,22.734613696964022,74,15,0.0,16399,383558366764551,11,33.2,-172.07113647460938,0.03020000085234642,25,-3371.2677632791506,0.001655554942969963,1.57542003E9,,,,0,,1,-1.94,1.57542003E9,304.0,NaN,NaN
Raw,231998947480207,648803159000000,,,-1265581155275718662,0.6619091033935547,50.06928404327482,21.049174614966116,22.734613696964022,74,20,0.0,16399,383558357378725,11,33.1,-416.73681640625,0.04670000076293945,21,-8516.813626485431,0.001655554942969963,1.57542003E9,,,,0,,1,-1.94,1.57542003E9,304.0,NaN,NaN
Raw,231998947480207,648803159000000,,,-1265581155275718662,0.6619091033935547,50.06928404327482,21.049174614966116,22.734613696964022,74,24,0.0,16399,383558358037000,40,21.0,-612.15576171875,0.8434999585151672,16,0.0,0.0,1.57542003E9,,,,0,,1,-1.94,1.57542003E9,304.0,NaN,NaN
Raw,231998947480207,648803159000000,,,-1265581155275718662,0.6619091033935547,50.06928404327482,21.049174614966116,22.734613696964022,74,28,0.0,16399,383558363441769,6,39.6,125.10294342041016,0.02330000139772892,25,2679.861813469006,8.372921387687362E-4,1.57542003E9,,,,0,,1,-1.94,1.57542003E9,304.0,NaN,NaN
Raw,231998947480207,648803159000000,,,-1265581155275718662,0.6619091033935547,50.06928404327482,21.049174614966116,22.734613696964022,74,30,0.0,16399,383558357811489,16,29.8,573.6459350585938,0.049400001764297485,21,11971.827752139681,0.00281634630106073,1.57542003E9,,,,0,,1,-1.94,1.57542003E9,304.0,NaN,NaN
Raw,231998947480207,648803159000000,,,-1265581155275718662,0.6619091033935547,50.06928404327482,21.049174614966116,22.734613696964022,74,14,0.0,49359,48740370730691,17,28.0,-108.68729400634766,0.240200012922287,27,-2034.3323918212393,0.0029640397133290693,1.59806246E9,,,,0,,3,-4.8,1.59806246E9,304.0,NaN,NaN
Raw,231998947480207,648803159000000,,,-1265581155275718662,0.6619091033935547,50.06928404327482,21.049174614966116,22.734613696964022,74,22,0.0,49359,48740356806812,27,24.1,-253.0972137451172,0.840499997138977,16,0.0,0.0,1.60031245E9,,,,0,,3,-4.8,1.60031245E9,304.0,NaN,NaN
Raw,231998947480207,648803159000000,,,-1265581155275718662,0.6619091033935547,50.06928404327482,21.049174614966116,22.734613696964022,74,15,0.0,49359,48740361468252,14,30.0,-698.7530517578125,0.22439999878406525,29,-14191.044565887629,0.0023579182120561683,1.602E9,,,,0,,3,-4.8,1.602E9,304.0,NaN,NaN
Raw,231998947480207,648803159000000,,,-1265581155275718662,0.6619091033935547,50.06928404327482,21.049174614966116,22.734613696964022,74,5,0.0,49359,48740364553558,10,34.3,-611.6295166015625,0.22660000622272491,29,-12413.741670673251,0.0014965654619530243,1.60256256E9,,,,0,,3,-4.8,1.60256256E9,304.0,NaN,NaN
Raw,231998947480207,648803159000000,,,-1265581155275718662,0.6619091033935547,50.06928404327482,21.049174614966116,22.734613696964022,74,3,0.0,49359,48740361899594,14,30.5,735.4730834960938,0.22439999878406525,29,15156.729532192827,0.002353785798744343,1.60481254E9,,,,0,,3,-4.8,1.60481254E9,304.0,NaN,NaN
Raw,231998947480207,648803159000000,,,-1265581155275718662,0.6619091033935547,50.06928404327482,21.049174614966116,22.734613696964022,74,4,0.0,49359,48740370596821,13,31.1,118.06375122070312,0.2371000051498413,25,2506.5302264813263,0.002035498169654846,1.60537498E9,,,,0,,3,-4.8,1.60537498E9,304.0,NaN,NaN
Raw,231998947480207,648803159000000,,,-1265581155275718662,0.6619091033935547,50.06928404327482,21.049174614966116,22.734613696964022,74,37,0.0,16399,383544356044850,16,29.9,454.10076904296875,0.0479000024497509,21,8832.632406692639,0.0028421844273806814,1.56109798E9,,,,0,,5,-3.95,1.56109798E9,304.0,NaN,NaN
Raw,231998947480207,648803159000000,,,-1265581155275718662,0.6619091033935547,50.06928404327482,21.049174614966116,22.734613696964022,74,22,0.0,16399,383544354015411,13,31.1,-445.4198913574219,0.04310000315308571,21,-8460.662129806455,0.0020932304434118673,1.56109798E9,,,,0,,5,-3.95,1.56109798E9,304.0,NaN,NaN
Raw,231998947480207,648803159000000,,,-1265581155275718662,0.6619091033935547,50.06928404327482,21.049174614966116,22.734613696964022,74,10,0.0,16399,383544302652444,27,24.1,161.8160858154297,0.04430000111460686,21,3236.238411769404,0.1920394882785269,1.56109798E9,,,,0,,5,-3.95,1.56109798E9,304.0,NaN,NaN
Raw,231998947480207,648803159000000,,,-1265581155275718662,0.6619091033935547,50.06928404327482,21.049174614966116,22.734613696964022,74,1,0.0,23567,383558351019259,7,37.5,356.7347106933594,0.06289999932050705,25,7515.5999251220765,0.0021883771969841777,1.57542003E9,,,,0,,6,-2.18,1.57542003E9,304.0,NaN,NaN
Raw,231998947480207,648803159000000,,,-1265581155275718662,0.6619091033935547,50.06928404327482,21.049174614966116,22.734613696964022,74,4,0.0,23567,383558349255085,11,33.7,478.58453369140625,0.04670000076293945,25,10054.92399109219,0.003596550258902148,1.57542003E9,,,,0,,6,-2.18,1.57542003E9,304.0,NaN,NaN
Raw,231998947480207,648803159000000,,,-1265581155275718662,0.6619091033935547,50.06928404327482,21.049174614966116,22.734613696964022,74,5,0.0,23567,383558348776354,14,30.0,-443.9338684082031,0.04690000042319298,21,-9105.597827416641,0.005233075867304602,1.57542003E9,,,,0,,6,-2.18,1.57542003E9,304.0,NaN,NaN
Raw,231998947480207,648803159000000,,,-1265581155275718662,0.6619091033935547,50.06928404327482,21.049174614966116,22.734613696964022,74,9,0.0,23567,383558363072171,16,29.0,17.270931243896484,0.0674000009894371,25,343.2512269878419,0.006146485344343376,1.57542003E9,,,,0,,6,-2.18,1.57542003E9,304.0,NaN,NaN
Raw,231998947480207,648803159000000,,,-1265581155275718662,0.6619091033935547,50.06928404327482,21.049174614966116,22.734613696964022,74,24,0.0,23567,383558351848288,21,26.6,-571.4429931640625,0.04920000210404396,19,-11759.443158414653,0.011874324619302384,1.57542003E9,,,,0,,6,-2.18,1.57542003E9,304.0,NaN,NaN
Raw,231998947480207,648803159000000,,,-1265581155275718662,0.6619091033935547,50.06928404327482,21.049174614966116,22.734613696964022,74,31,0.0,23567,383558355632000,10,34.3,-190.08938598632812,0.04310000315308571,25,-3844.517038938907,0.003311109885939926,1.57542003E9,,,,0,,6,-2.18,1.57542003E9,304.0,NaN,NaN
Raw,231998947480207,648803159000000,,,-1265581155275718662,0.6619091033935547,50.06928404327482,21.049174614966116,22.734613696964022,74,1,0.0,81935,383558351026360,9,21.3,358.4058837890625,0.061900001019239426,29,5181.380510243345,0.34557229348499413,1.17645005E9,,,,0,,6,-16.01,1.17645005E9,304.0,NaN,NaN
Raw,231998947480207,648803159000000,,,-1265581155275718662,0.6619091033935547,50.06928404327482,21.049174614966116,22.734613696964022,74,4,0.0,81935,383558349262188,8,23.8,479.127685546875,0.6299999952316284,16,0.0,0.0,1.17645005E9,,,,0,,6,-16.01,1.17645005E9,304.0,NaN,NaN
Raw,231998947480207,648803159000000,,,-1265581155275718662,0.6619091033935547,50.06928404327482,21.049174614966116,22.734613696964022,74,5,0.0,81935,383558348783431,11,19.7,-442.4605712890625,0.16189999878406525,29,-6297.783801531636,0.34557229348499413,1.17645005E9,,,,0,,6,-16.01,1.17645005E9,304.0,NaN,NaN
Raw,231998947480207,648803159000000,,,-1265581155275718662,0.6619091033935547,50.06928404327482,21.049174614966116,22.734613696964022,74,9,0.0,81935,383558363079272,10,20.2,15.739387512207031,0.08020000159740448,29,306.35192556006507,0.34557229348499413,1.17645005E9,,,,0,,6,-16.01,1.17645005E9,304.0,NaN,NaN
Raw,231998947480207,648803159000000,,,-1265581155275718662,0.6619091033935547,50.06928404327482,21.049174614966116,22.734613696964022,74,24,0.0,81935,383558351855426,11,19.7,-573.1337890625,0.9329999685287476,16,0.0,0.0,1.17645005E9,,,,0,,6,-16.01,1.17645005E9,304.0,NaN,NaN
Raw,231998947480207,648803159000000,,,-1265581155275718662,0.6619091033935547,50.06928404327482,21.049174614966116,22.734613696964022,74,31,0.0,81935,383558355639087,4,29.4,-190.57330322265625,0.05350000038743019,25,-2663.161827258107,0.0037714549693657518,1.17645005E9,,,,0,,6,-16.01,1.17645005E9,304.0,NaN,NaN
Fix,gps,51.524541,-0.134133,71.517334,0.160000,3.790092,1582194742000,231999895194260
Raw,231999967125465,648804159000000,,,-1265581155275718656,0.7713851928710938,49.94510891265236,9.909459056089284,21.74380768089182,74,5,0.0,16399,383559355065622,53,19.1,722.2120361328125,1.0190000534057617,16,0.0,0.0,1.57542003E9,,,,0,,1,-1.97,1.57542003E9,304.0,NaN,NaN
Raw,231999967125465,648804159000000,,,-1265581155275718656,0.7713851928710938,49.94510891265236,9.909459056089284,21.74380768089182,74,13,0.0,16399,383559367121358,10,34.4,175.3831024169922,0.03110000118613243,25,3806.5044598625436,0.0015223494237726067,1.57542003E9,,,,0,,1,-1.97,1.57542003E9,304.0,NaN,NaN
Raw,231999967125465,648804159000000,,,-1265581155275718656,0.7713851928710938,49.94510891265236,9.909459056089284,21.74380768089182,74,15,0.0,16399,383559366765102,11,33.3,-166.04849243164062,0.03020000085234642,25,-3540.5648654323027,0.001655554942969963,1.57542003E9,,,,0,,1,-1.97,1.57542003E9,304.0,NaN,NaN
Raw,231999967125465,648804159000000,,,-1265581155275718656,0.7713851928710938,49.94510891265236,9.909459056089284,21.74380768089182,74,20,0.0,16399,383559357380061,21,26.9,-410.8035583496094,0.05220000073313713,21,-8930.685144412151,0.005442398901996786,1.57542003E9,,,,0,,1,-1.97,1.57542003E9,304.0,NaN,NaN
Raw,231999967125465,648804159000000,,,-1265581155275718656,0.7713851928710938,49.94510891265236,9.909459056089284,21.74380768089182,74,24,0.0,16399,383559358039008,46,20.2,-605.1624145507812,0.9434999823570251,16,0.0,0.0,1.57542003E9,,,,0,,1,-1.97,1.57542003E9,304.0,NaN,NaN
Raw,231999967125465,648804159000000,,,-1265581155275718656,0.7713851928710938,49.94510891265236,9.909459056089284,21.74380768089182,74,28,0.0,16399,383559363441357,6,39.3,131.25173950195312,0.02330000139772892,25,2807.8740972454975,8.372921387687362E-4,1.57542003E9,,,,0,,1,-1.97,1.57542003E9,304.0,NaN,NaN
Raw,231999967125465,648804159000000,,,-1265581155275718656,0.7713851928710938,49.94510891265236,9.909459056089284,21.74380768089182,74,30,0.0,16399,383559357809514,14,30.5,579.6246337890625,0.04840000346302986,21,12548.32840568612,0.002397700231676362,1.57542003E9,,,,0,,1,-1.97,1.57542003E9,304.0,NaN,NaN
Raw,231999967125465,648804159000000,,,-1265581155275718656,0.7713851928710938,49.94510891265236,9.909459056089284,21.74380768089182,74,14,0.0,49359,48741370731063,11,33.2,-102.47642517089844,0.2362000048160553,21,-2140.1553184958707,0.0016320979185651513,1.59806246E9,,,,0,,3,-4.81,1.59806246E9,304.0,NaN,NaN
Raw,231999967125465,648804159000000,,,-1265581155275718656,0.7713851928710938,49.94510891265236,9.909459056089284,21.74380768089182,74,22,0.0,49359,48741356807601,14,30.4,-247.63357543945312,0.24690000712871552,19,-5353.912801920245,0.002360404669997281,1.60031245E9,,,,0,,3,-4.81,1.60031245E9,304.0,NaN,NaN
Raw,231999967125465,648804159000000,,,-1265581155275718656,0.7713851928710938,49.94510891265236,9.909459056089284,21.74380768089182,74,13,0.0,49359,48741364904681,31,23.0,610.8397216796875,1.6225000619888306,16,0.0,0.0,1.60087501E9,,,,0,,3,-4.81,1.60087501E9,304.0,NaN,NaN
Raw,231999967125465,648804159000000,,,-1265581155275718656,0.7713851928710938,49.94510891265236,9.909459056089284,21.74380768089182,74,15,0.0,49359,48741361470734,16,29.0,-692.8409423828125,0.22540000081062317,21,-14887.02005664556,0.002769618214569399,1.602E9,,,,0,,3,-4.81,1.602E9,304.0,NaN,NaN
Raw,231999967125465,648804159000000,,,-1265581155275718656,0.7713851928710938,49.94510891265236,9.909459056089284,21.74380768089182,74,5,0.0,49359,48741364555506,14,30.9,-605.5162963867188,0.2289000004529953,21,-13022.658094115386,0.0023570904936865496,1.60256256E9,,,,0,,3,-4.81,1.60256256E9,304.0,NaN,NaN
Raw,231999967125465,648804159000000,,,-1265581155275718656,0.7713851928710938,49.94510891265236,9.909459056089284,21.74380768089182,74,3,0.0,49359,48741361897114,12,32.0,741.583251953125,0.22310000658035278,25,15895.128908821682,0.0017746797095208008,1.60481254E9,,,,0,,3,-4.81,1.60481254E9,304.0,NaN,NaN
Raw,231999967125465,648804159000000,,,-1265581155275718656,0.7713851928710938,49.94510891265236,9.909459056089284,21.74380768089182,74,4,0.0,49359,48741370596466,13,31.7,124.1839370727539,0.2371000051498413,25,2627.481857197501,0.002035498169654846,1.60537498E9,,,,0,,3,-4.81,1.60537498E9,304.0,NaN,NaN
Raw,231999967125465,648804159000000,,,-1265581155275718656,0.7713851928710938,49.94510891265236,9.909459056089284,21.74380768089182,74,37,0.0,16399,383545356043317,14,30.3,460.76995849609375,0.44050002098083496,16,0.0,0.0,1.56109798E9,,,,0,,5,-4.09,1.56109798E9,304.0,NaN,NaN
Raw,231999967125465,648804159000000,,,-1265581155275718656,0.7713851928710938,49.94510891265236,9.909459056089284,21.74380768089182,74,22,0.0,16399,383545354016834,13,31.5,-439.5640563964844,0.04310000315308571,21,-8903.222845220354,0.0020932304434118673,1.56109798E9,,,,0,,5,-4.09,1.56109798E9,304.0,NaN,NaN
Raw,231999967125465,648804159000000,,,-1265581155275718656,0.7713851928710938,49.94510891265236,9.909459056089284,21.74380768089182,74,10,0.0,16399,383545302651878,27,24.5,169.1099853515625,0.6694999933242798,16,0.0,0.0,1.56109798E9,,,,0,,5,-4.09,1.56109798E9,304.0,NaN,NaN
Raw,231999967125465,648804159000000,,,-1265581155275718656,0.7713851928710938,49.94510891265236,9.909459056089284,21.74380768089182,74,1,0.0,23567,383559351018058,8,36.0,362.2998046875,0.048100002110004425,25,7875.027637172669,0.0025499350854412276,1.57542003E9,,,,0,,6,-2.21,1.57542003E9,304.0,NaN,NaN
Raw,231999967125465,648804159000000,,,-1265581155275718656,0.7713851928710938,49.94510891265236,9.909459056089284,21.74380768089182,74,4,0.0,23567,383559349253473,10,34.6,484.32745361328125,0.04610000178217888,25,10536.369134047045,0.003311109885939926,1.57542003E9,,,,0,,6,-2.21,1.57542003E9,304.0,NaN,NaN
Raw,231999967125465,648804159000000,,,-1265581155275718656,0.7713851928710938,49.94510891265236,9.909459056089284,21.74380768089182,74,5,0.0,23567,383559348777781,11,33.0,-438.2829284667969,0.04520000144839287,25,-9546.62704228009,0.003596550258902148,1.57542003E9,,,,0,,6,-2.21,1.57542003E9,304.0,NaN,NaN
Raw,231999967125465,648804159000000,,,-1265581155275718656,0.7713851928710938,49.94510891265236,9.909459056089284,21.74380768089182,74,9,0.0,23567,383559363072115,14,30.5,22.833391189575195,0.06640000641345978,25,363.18275589978356,0.005233075867304602,1.57542003E9,,,,0,,6,-2.21,1.57542003E9,304.0,NaN,NaN
Raw,231999967125465,648804159000000,,,-1265581155275718656,0.7713851928710938,49.94510891265236,9.909459056089284,21.74380768089182,74,24,0.0,23567,383559351850258,13,31.3,-565.9537353515625,0.044600002467632294,21,-12328.20265199888,0.004528989424958011,1.57542003E9,,,,0,,6,-2.21,1.57542003E9,304.0,NaN,NaN
Raw,231999967125465,648804159000000,,,-1265581155275718656,0.7713851928710938,49.94510891265236,9.909459056089284,21.74380768089182,74,31,0.0,23567,383559355632616,9,35.1,-184.36502075195312,0.04260000213980675,25,-4031.792815235782,0.0028924638165555576,1.57542003E9,,,,0,,6,-2.21,1.57542003E9,304.0,NaN,NaN
Raw,231999967125465,648804159000000,,,-1265581155275718656,0.7713851928710938,49.94510891265236,9.909459056089284,21.74380768089182,74,30,0.0,81935,383559357817399,14,17.2,577.6951293945312,1.8519999980926514,16,0.0,0.0,1.17645005E9,,,,0,,1,-15.59,1.17645005E9,304.0,NaN,NaN
