# 
# Header Description:
# 
# Version: v2.0.0.1 Platform: 10 Manufacturer: samsung Model: SM-G973F
# 
# Raw,ElapsedRealtimeNanos,TimeNanos,LeapSecond,TimeUncertaintyNanos,FullBiasNanos,BiasNanos,BiasUncertaintyNanos,DriftNanosPerSecond,DriftUncertaintyNanosPerSecond,HardwareClockDiscontinuityCount,Svid,TimeOffsetNanos,State,ReceivedSvTimeNanos,ReceivedSvTimeUncertaintyNanos,Cn0DbHz,PseudorangeRateMetersPerSecond,PseudorangeRateUncertaintyMetersPerSecond,AccumulatedDeltaRangeState,AccumulatedDeltaRangeMeters,AccumulatedDeltaRangeUncertaintyMeters,CarrierFrequencyHz,CarrierCycles,CarrierPhase,CarrierPhaseUncertainty,MultipathIndicator,SnrInDb,ConstellationType,AgcDb,CarrierFrequencyHz,UserLatitude,UserLongitude,UserAltitude
# 
# Fix,Provider,Latitude,Longitude,Altitude,Speed,Accuracy,(UTC)TimeInMs,ElapsedRealtimeNanos
# 
# Nav,Svid,Type,Status,MessageId,Sub-messageId,Data(Bytes)
# 
Fix,gps,51.524313,-0.134559,108.886641,0.029618,3.000000,1581596928999,121084103563489
Raw,121084127776873,1620410000000,,,-1265630526589981788,0.0,7.186581991699999,,,16,1,0.0,16384,390546914813881,1000000000,12.0,-286.83277356258077,2.99792458E8,16,-4297.552095061491,3.4028234663852886E38,1.57542003E9,,,,1,,1,36.164798736572266,1.57542003E9,201.0,NaN,NaN
Raw,121084127776873,1620410000000,,,-1265630526589981788,0.0,7.186581991699999,,,16,10,0.0,16431,390546922267355,62,24.890663146972656,-240.46829484229738,1.0545981417068058,16,-545975.510841765,3.4028234663852886E38,1.57542003E9,,,,0,,1,36.164798736572266,1.57542003E9,201.0,NaN,NaN
Raw,121084127776873,1620410000000,,,-1265630526589981788,0.0,7.186581991699999,,,16,12,0.0,16431,390546923277608,45,28.740293502807617,-725.3990757717133,0.8816663534346838,16,-1231458.6268308794,3.4028234663852886E38,1.57542003E9,,,,0,,1,36.164798736572266,1.57542003E9,201.0,NaN,NaN
Raw,121084127776873,1620410000000,,,-1265630526589981788,0.0,7.186581991699999,,,16,13,0.0,16431,390546925377024,31,33.506805419921875,581.6179385407158,0.6676994872109918,16,853022.8614514745,3.4028234663852886E38,1.57542003E9,,,,1,,1,36.164798736572266,1.57542003E9,201.0,NaN,NaN
Raw,121084127776873,1620410000000,,,-1265630526589981788,0.0,7.186581991699999,,,16,15,0.0,16431,390546929978646,17,40.678707122802734,384.17257087881444,0.002988549182191491,25,483465.9974475455,0.0014942745910957456,1.57542003E9,,,,0,,1,36.164798736572266,1.57542003E9,201.0,NaN,NaN
Raw,121084127776873,1620410000000,,,-1265630526589981788,0.0,7.186581991699999,,,16,17,0.0,16431,390546923602649,31,33.431175231933594,-189.31475382616782,0.6707812868343903,16,-450582.60115052195,3.4028234663852886E38,1.57542003E9,,,,1,,1,36.164798736572266,1.57542003E9,201.0,NaN,NaN
Raw,121084127776873,1620410000000,,,-1265630526589981788,0.0,7.186581991699999,,,16,19,0.0,16431,390546922934922,21,38.13705062866211,-528.9909709179774,0.003775434568524361,25,-958249.798721766,0.0018877172842621803,1.57542003E9,,,,0,,1,36.164798736572266,1.57542003E9,201.0,NaN,NaN
Raw,121084127776873,1620410000000,,,-1265630526589981788,0.0,7.186581991699999,,,16,20,0.0,16431,390546924476554,39,30.587236404418945,203.77659477494308,0.009004458785057068,25,166750.41014963837,0.004502229392528534,1.57542003E9,,,,0,,1,36.164798736572266,1.57542003E9,201.0,NaN,NaN
Raw,121084127776873,1620410000000,,,-1265630526589981788,0.0,7.186581991699999,,,16,24,0.0,16431,390546931447647,10,49.36005401611328,-300.457123003318,0.001159502542577684,25,-590771.7017169546,5.79751271288842E-4,1.57542003E9,,,,0,,1,36.164798736572266,1.57542003E9,201.0,NaN,NaN
Raw,121084127776873,1620410000000,,,-1265630526589981788,0.0,7.186581991699999,,,16,28,0.0,16431,390546922144185,32,33.131961822509766,541.3771911137119,0.6839741930371233,16,803908.2485305642,3.4028234663852886E38,1.57542003E9,,,,0,,1,36.164798736572266,1.57542003E9,201.0,NaN,NaN
Raw,121084127776873,1620410000000,,,-1265630526589981788,0.0,7.186581991699999,,,16,6,0.0,32995,55728934667699,36,40.03904342651367,38.29031053534709,0.003168019000440836,25,-157502.46100864714,0.001584009500220418,1.59975002E9,,,,0,,3,50.585201263427734,1.59975002E9,201.0,NaN,NaN
Raw,121084127776873,1620410000000,,,-1265630526589981788,0.0,7.186581991699999,,,16,9,0.0,32803,55728920086548,205,18.712148666381836,-720.9014866440502,1.335644208347433,16,-300162.59624929796,3.4028234663852886E38,1.60087501E9,,,,1,,3,50.585201263427734,1.60087501E9,201.0,NaN,NaN
Raw,121084127776873,1620410000000,,,-1265630526589981788,0.0,7.186581991699999,,,16,16,0.0,32995,55728934961855,35,40.569847106933594,-244.54592995683197,0.002977074822410941,25,-538839.1833225619,0.0014885374112054706,1.60143744E9,,,,0,,3,50.585201263427734,1.60143744E9,201.0,NaN,NaN
Raw,121084127776873,1620410000000,,,-1265630526589981788,0.0,7.186581991699999,,,16,15,0.0,32995,55728932101812,35,40.64185333251953,463.7750630225055,0.002951459726318717,25,646306.853598062,0.0014757298631593585,1.602E9,,,,0,,3,50.585201263427734,1.602E9,201.0,NaN,NaN
Raw,121084127776873,1620410000000,,,-1265630526589981788,0.0,7.186581991699999,,,16,5,0.0,32995,55728927121612,76,30.973342895507812,768.5283113890255,0.7819400871394722,16,1132024.6138275892,3.4028234663852886E38,1.60256256E9,,,,0,,3,50.585201263427734,1.60256256E9,201.0,NaN,NaN
Raw,121084127776873,1620410000000,,,-1265630526589981788,0.0,7.186581991699999,,,16,23,0.0,32995,55728920697103,113,26.104862213134766,457.0374599339523,1.0033120327157237,16,553839.5543991588,3.4028234663852886E38,1.60368755E9,,,,0,,3,50.585201263427734,1.60368755E9,201.0,NaN,NaN
Raw,121084127776873,1620410000000,,,-1265630526589981788,0.0,7.186581991699999,,,16,17,0.0,32995,55728923322895,81,30.122159957885742,-600.3613810106963,0.9712608107209153,16,-1070512.006802111,3.4028234663852886E38,1.60424998E9,,,,0,,3,50.585201263427734,1.60424998E9,201.0,NaN,NaN
Raw,121084127776873,1620410000000,,,-1265630526589981788,0.0,7.186581991699999,,,16,7,0.0,32995,55728926669481,33,41.78118896484375,-666.765489832731,0.002584093948826194,25,-1184584.5387357522,0.001292046974413097,1.60481254E9,,,,0,,3,50.585201263427734,1.60481254E9,201.0,NaN,NaN
Raw,121084127776873,1620410000000,,,-1265630526589981788,0.0,7.186581991699999,,,16,195,0.0,16384,390546850626321,1000000000,17.508567810058594,6.868991601066785,2.99792458E8,16,-3.917744704038027,3.4028234663852886E38,1.57542003E9,,,,0,,4,,1.57542003E9,201.0,NaN,NaN
Raw,121084127776873,1620410000000,,,-1265630526589981788,0.0,7.186581991699999,,,16,5,0.0,16904,390532864079213,1000000000,12.0,-24.729606317966145,2.99792458E8,16,-42401.01146307876,3.4028234663852886E38,1.56109798E9,,,,0,,5,50.053245544433594,1.56109798E9,201.0,NaN,NaN
Raw,121084127776873,1620410000000,,,-1265630526589981788,0.0,7.186581991699999,,,16,10,0.0,81967,390532864683150,19,30.678686141967773,183.22189885820262,0.00899189617484808,17,284722.56673173,0.10051569124256228,1.56109798E9,,,,0,,5,50.053245544433594,1.56109798E9,201.0,NaN,NaN
Raw,121084127776873,1620410000000,,,-1265630526589981788,0.0,7.186581991699999,,,16,19,0.0,16396,390532919950285,1000000000,28.503629684448242,567.9052370657848,2.99792458E8,16,836331.2106748733,3.4028234663852886E38,1.56109798E9,,,,0,,5,50.053245544433594,1.56109798E9,201.0,NaN,NaN
Raw,121084127776873,1620410000000,,,-1265630526589981788,0.0,7.186581991699999,,,16,21,0.0,81967,390532915725264,6,46.52239990234375,-483.0675537553616,0.0016222610138356686,17,-525270.4340432512,0.09683087366205607,1.56109798E9,,,,0,,5,50.053245544433594,1.56109798E9,201.0,NaN,NaN
Raw,121084127776873,1620410000000,,,-1265630526589981788,0.0,7.186581991699999,,,16,22,0.0,81967,390532922960766,8,41.65694808959961,55.26288556645159,0.002694725524634123,17,-59805.24380787621,0.0973671059174553,1.56109798E9,,,,0,,5,50.053245544433594,1.56109798E9,201.0,NaN,NaN
Raw,121084127776873,1620410000000,,,-1265630526589981788,0.0,7.186581991699999,,,16,27,0.0,81967,390532915829018,14,34.378021240234375,-459.2422973199282,0.005873334128409624,17,-818033.7918160098,0.09895641021934305,1.56109798E9,,,,0,,5,50.053245544433594,1.56109798E9,201.0,NaN,NaN
Raw,121084127776873,1620410000000,,,-1265630526589981788,0.0,7.186581991699999,,,16,28,0.0,81967,390532915200777,25,27.49118423461914,7.881398723694055,0.9399821022181913,16,-130560.60018245163,3.4028234663852886E38,1.56109798E9,,,,0,,5,50.053245544433594,1.56109798E9,201.0,NaN,NaN
Raw,121084127776873,1620410000000,,,-1265630526589981788,0.0,7.186581991699999,,,16,36,0.0,81967,390532925112676,6,43.57898712158203,-299.88580324710347,0.0021597950253635645,17,-566563.325287988,0.09709964066782002,1.56109798E9,,,,0,,5,50.053245544433594,1.56109798E9,201.0,NaN,NaN
Raw,121084127776873,1620410000000,,,-1265630526589981788,0.0,7.186581991699999,,,16,37,0.0,16396,390532911871307,1000000000,22.08849334716797,558.2533921206336,2.99792458E8,16,647384.711500372,3.4028234663852886E38,1.56109798E9,,,,1,,5,50.053245544433594,1.56109798E9,201.0,NaN,NaN
Raw,121084127776873,1620410000000,,,-1265630526589981788,0.0,7.186581991699999,,,16,3,0.0,21546,390546918127622,14,45.75898361206055,-256.18428614299046,0.0017551949713379145,25,-499538.40618011315,8.775974856689572E-4,1.57542003E9,,,,0,,6,36.164798736572266,1.57542003E9,201.0,NaN,NaN
Raw,121084127776873,1620410000000,,,-1265630526589981788,0.0,7.186581991699999,,,16,5,0.0,21546,390546919429105,16,41.455177307128906,297.89667044591624,0.0027329823933541775,25,377039.9167782577,0.0013664911966770887,1.57542003E9,,,,0,,6,36.164798736572266,1.57542003E9,201.0,NaN,NaN
Raw,121084127776873,1620410000000,,,-1265630526589981788,0.0,7.186581991699999,,,16,8,0.0,85026,390546911474410,79,21.86907386779785,-576.2790580562437,1.1914123114575395,16,-11996.144199037595,3.4028234663852886E38,1.57542003E9,,,,1,,6,36.164798736572266,1.57542003E9,201.0,NaN,NaN
Raw,121084127776873,1620410000000,,,-1265630526589981788,0.0,7.186581991699999,,,16,9,0.0,85026,390546914572173,22,37.25395202636719,584.3264081673697,0.004179476294666529,25,722026.1393857768,0.0020897381473332644,1.57542003E9,,,,0,,6,36.164798736572266,1.57542003E9,201.0,NaN,NaN
Raw,121084127776873,1620410000000,,,-1265630526589981788,0.0,7.186581991699999,,,16,24,0.0,21546,390546927730292,19,39.4747314453125,81.10763013106043,0.003432884579524398,25,37595.149881573794,0.001716442289762199,1.57542003E9,,,,0,,6,36.164798736572266,1.57542003E9,201.0,NaN,NaN
Raw,121084127776873,1620410000000,,,-1265630526589981788,0.0,7.186581991699999,,,16,25,0.0,85026,390546916902710,12,46.999855041503906,-418.370631136233,0.001521534170024097,25,-729933.4993002038,7.607670850120485E-4,1.57542003E9,,,,0,,6,36.164798736572266,1.57542003E9,201.0,NaN,NaN
Raw,121084127776873,1620410000000,,,-1265630526589981788,0.0,7.186581991699999,,,16,26,0.0,16384,390546909388214,1000000000,12.0,54.21043914473108,2.99792458E8,16,-111.29810874476854,3.4028234663852886E38,1.57542003E9,,,,0,,6,36.164798736572266,1.57542003E9,201.0,NaN,NaN
Raw,121084127776873,1620410000000,,,-1265630526589981788,0.0,7.186581991699999,,,16,31,0.0,85026,390546911573283,33,32.74249267578125,477.3924572781573,0.7017451985853635,16,729059.1553169766,3.4028234663852886E38,1.57542003E9,,,,0,,6,36.164798736572266,1.57542003E9,201.0,NaN,NaN
Raw,121084127776873,1620410000000,,,-1265630526589981788,0.0,7.186581991699999,,,16,33,0.0,85026,390546905933231,122,16.46524429321289,-356.43071757515963,1.4341391793334601,16,-1824.7034870368225,3.4028234663852886E38,1.57542003E9,,,,0,,6,36.164798736572266,1.57542003E9,201.0,NaN,NaN
Fix,gps,51.524310,-0.134560,108.880666,0.093697,3.000000,1581596929999,121085133929526
Raw,121085147801873,1621410000000,,,-1265630526589981847,0.0,7.270877565579547,,,16,1,0.0,16384,390547914814840,1000000000,12.487314224243164,-286.647126421901,2.99792458E8,16,-4584.09569761986,3.4028234663852886E38,1.57542003E9,,,,1,,1,36.164798736572266,1.57542003E9,201.0,NaN,NaN
Raw,121085147801873,1621410000000,,,-1265630526589981847,0.0,7.270877565579547,,,16,10,0.0,16431,390547922268151,73,22.881589889526367,-240.60868048071484,1.1449439440843907,16,-546217.6944445064,3.4028234663852886E38,1.57542003E9,,,,0,,1,36.164798736572266,1.57542003E9,201.0,NaN,NaN
Raw,121085147801873,1621410000000,,,-1265630526589981847,0.0,7.270877565579547,,,16,12,0.0,16431,390547923280059,45,28.840953826904297,-725.5281239233445,0.01100960560142994,17,-1232184.1549548027,0.1006516391998974,1.57542003E9,,,,0,,1,36.164798736572266,1.57542003E9,201.0,NaN,NaN
Raw,121085147801873,1621410000000,,,-1265630526589981847,0.0,7.270877565579547,,,16,13,0.0,16431,390547925375065,31,33.189247131347656,582.3955638687403,0.6819792376864746,16,853603.8997508495,3.4028234663852886E38,1.57542003E9,,,,0,,1,36.164798736572266,1.57542003E9,201.0,NaN,NaN
Raw,121085147801873,1621410000000,,,-1265630526589981847,0.0,7.270877565579547,,,16,15,0.0,16431,390547929977388,17,40.62665557861328,384.2651610354078,0.003006512299180031,25,483850.26260858093,0.0015032561495900154,1.57542003E9,,,,0,,1,36.164798736572266,1.57542003E9,201.0,NaN,NaN
Raw,121085147801873,1621410000000,,,-1265630526589981847,0.0,7.270877565579547,,,16,17,0.0,16431,390547923603374,23,37.183135986328125,-189.0151922191726,0.004469293635338545,17,-450771.6163427411,0.09738148321685171,1.57542003E9,,,,1,,1,36.164798736572266,1.57542003E9,201.0,NaN,NaN
Raw,121085147801873,1621410000000,,,-1265630526589981847,0.0,7.270877565579547,,,16,19,0.0,16431,390547922936548,14,42.74709701538086,-528.8758154086536,0.0023552707862108946,25,-958778.6745371746,0.0011776353931054473,1.57542003E9,,,,1,,1,36.164798736572266,1.57542003E9,201.0,NaN,NaN
Raw,121085147801873,1621410000000,,,-1265630526589981847,0.0,7.270877565579547,,,16,20,0.0,16431,390547924475873,35,32.002960205078125,203.82443062073435,0.007650177460163832,25,166954.2345802591,0.003825088730081916,1.57542003E9,,,,0,,1,36.164798736572266,1.57542003E9,201.0,NaN,NaN
Raw,121085147801873,1621410000000,,,-1265630526589981847,0.0,7.270877565579547,,,16,24,0.0,16431,390547931448648,11,48.21410369873047,-300.41879261075513,0.0013230290496721864,25,-591072.1205095653,6.615145248360932E-4,1.57542003E9,,,,0,,1,36.164798736572266,1.57542003E9,201.0,NaN,NaN
Raw,121085147801873,1621410000000,,,-1265630526589981847,0.0,7.270877565579547,,,16,28,0.0,16431,390547922142338,32,32.853172302246094,540.6970756937992,0.6965106125480047,16,804450.7125851656,3.4028234663852886E38,1.57542003E9,,,,1,,1,36.164798736572266,1.57542003E9,201.0,NaN,NaN
Raw,121085147801873,1621410000000,,,-1265630526589981847,0.0,7.270877565579547,,,16,6,0.0,32995,55729934667561,40,38.85667419433594,38.40519821137423,0.003629997605457902,25,-157464.05581043576,0.001814998802728951,1.59975002E9,,,,0,,3,51.1672477722168,1.59975002E9,201.0,NaN,NaN
Raw,121085147801873,1621410000000,,,-1265630526589981847,0.0,7.270877565579547,,,16,9,0.0,32803,55729920088972,212,18.247947692871094,-721.0423835193155,1.356519313563867,16,-300883.5506586289,3.4028234663852886E38,1.60087501E9,,,,1,,3,51.1672477722168,1.60087501E9,201.0,NaN,NaN
Raw,121085147801873,1621410000000,,,-1265630526589981847,0.0,7.270877565579547,,,16,16,0.0,32995,55729934962652,40,38.73401641845703,-244.4670211164048,0.0036777423229068518,25,-539083.6503436783,0.0018388711614534259,1.60143744E9,,,,0,,3,51.1672477722168,1.60143744E9,201.0,NaN,NaN
Raw,121085147801873,1621410000000,,,-1265630526589981847,0.0,7.270877565579547,,,16,15,0.0,32995,55729932100275,35,40.54285430908203,463.8704077148577,0.0029852916486561303,25,646770.7240057768,0.001492645824328065,1.602E9,,,,0,,3,51.1672477722168,1.602E9,201.0,NaN,NaN
Raw,121085147801873,1621410000000,,,-1265630526589981847,0.0,7.270877565579547,,,16,5,0.0,32995,55729927119433,85,29.5980224609375,768.5118836449815,0.843786299134198,16,1132792.8110239212,3.4028234663852886E38,1.60256256E9,,,,0,,3,51.1672477722168,1.60256256E9,201.0,NaN,NaN
Raw,121085147801873,1621410000000,,,-1265630526589981847,0.0,7.270877565579547,,,16,23,0.0,32995,55729920695556,114,25.90279769897461,456.97662274905906,1.0123984023112453,16,554296.9778266428,3.4028234663852886E38,1.60368755E9,,,,0,,3,51.1672477722168,1.60368755E9,201.0,NaN,NaN
Raw,121085147801873,1621410000000,,,-1265630526589981847,0.0,7.270877565579547,,,16,17,0.0,32995,55729923324953,66,32.74903869628906,-600.6525815192272,0.7014061713371786,16,-1071111.9702307566,3.4028234663852886E38,1.60424998E9,,,,0,,3,51.1672477722168,1.60424998E9,201.0,NaN,NaN
Raw,121085147801873,1621410000000,,,-1265630526589981847,0.0,7.270877565579547,,,16,7,0.0,32995,55729926671728,33,41.561222076416016,-666.6779130136129,0.002650371054187417,25,-1185251.2166487658,0.0013251855270937085,1.60481254E9,,,,0,,3,51.1672477722168,1.60481254E9,201.0,NaN,NaN
Raw,121085147801873,1621410000000,,,-1265630526589981847,0.0,7.270877565579547,,,16,195,0.0,16385,390547850626143,274,16.912643432617188,7.080740578059174,1.414864218823853,16,2.4884431465136814,3.4028234663852886E38,1.57542003E9,,,,0,,4,,1.57542003E9,201.0,NaN,NaN
Raw,121085147801873,1621410000000,,,-1265630526589981847,0.0,7.270877565579547,,,16,5,0.0,16904,390533864079296,1000000000,12.0,-24.729606317966145,2.99792458E8,16,-42426.040119520934,3.4028234663852886E38,1.56109798E9,,,,0,,5,53.040870666503906,1.56109798E9,201.0,NaN,NaN
Raw,121085147801873,1621410000000,,,-1265630526589981847,0.0,7.270877565579547,,,16,10,0.0,81967,390533864682529,22,29.166261672973633,183.1380110393511,0.01070218626409769,17,284905.70474276936,0.10137083628718709,1.56109798E9,,,,0,,5,53.040870666503906,1.56109798E9,201.0,NaN,NaN
Raw,121085147801873,1621410000000,,,-1265630526589981847,0.0,7.270877565579547,,,16,19,0.0,81967,390533919948387,25,27.347736358642578,567.4400115342485,1.0165569945454114,16,836898.1906080522,3.4028234663852886E38,1.56109798E9,,,,0,,5,53.040870666503906,1.56109798E9,201.0,NaN,NaN
Raw,121085147801873,1621410000000,,,-1265630526589981847,0.0,7.270877565579547,,,16,21,0.0,81967,390533915726868,6,44.000484466552734,-483.0214029190829,0.002057489473372698,17,-525753.4554461703,0.09704848789182459,1.56109798E9,,,,0,,5,53.040870666503906,1.56109798E9,201.0,NaN,NaN
Raw,121085147801873,1621410000000,,,-1265630526589981847,0.0,7.270877565579547,,,16,22,0.0,81967,390533922960571,7,43.070831298828125,55.293910073341976,0.00228992011398077,17,-59749.94989780287,0.09716470321212863,1.56109798E9,,,,0,,5,53.040870666503906,1.56109798E9,201.0,NaN,NaN
Raw,121085147801873,1621410000000,,,-1265630526589981847,0.0,7.270877565579547,,,16,27,0.0,81967,390533915830633,12,36.267677307128906,-459.24652129027527,0.0047250003553926945,17,-818493.0383373001,0.09838224333283459,1.56109798E9,,,,1,,5,53.040870666503906,1.56109798E9,201.0,NaN,NaN
Raw,121085147801873,1621410000000,,,-1265630526589981847,0.0,7.270877565579547,,,16,28,0.0,81967,390533915200790,24,27.630844116210938,7.950352858623532,0.9337017439308846,16,-130552.00621287285,3.4028234663852886E38,1.56109798E9,,,,0,,5,53.040870666503906,1.56109798E9,201.0,NaN,NaN
Raw,121085147801873,1621410000000,,,-1265630526589981847,0.0,7.270877565579547,,,16,36,0.0,81967,390533925113692,6,43.44066619873047,-299.8415181204909,0.0021944644395262003,17,-566863.1668061084,0.09711697537490134,1.56109798E9,,,,0,,5,53.040870666503906,1.56109798E9,201.0,NaN,NaN
Raw,121085147801873,1621410000000,,,-1265630526589981847,0.0,7.270877565579547,,,16,37,0.0,16396,390533911869426,1000000000,20.791738510131836,558.19422497611,2.99792458E8,16,647942.799322406,3.4028234663852886E38,1.56109798E9,,,,1,,5,53.040870666503906,1.56109798E9,201.0,NaN,NaN
Raw,121085147801873,1621410000000,,,-1265630526589981847,0.0,7.270877565579547,,,16,3,0.0,21546,390547918128484,15,42.058815002441406,-256.155559309409,0.0025494995061308146,25,-499794.56173942256,0.0012747497530654073,1.57542003E9,,,,0,,6,36.164798736572266,1.57542003E9,201.0,NaN,NaN
Raw,121085147801873,1621410000000,,,-1265630526589981847,0.0,7.270877565579547,,,16,5,0.0,21546,390547919428131,19,39.41920471191406,297.9555636746227,0.0034548998810350895,25,377337.8723419323,0.0017274499405175447,1.57542003E9,,,,0,,6,36.164798736572266,1.57542003E9,201.0,NaN,NaN
Raw,121085147801873,1621410000000,,,-1265630526589981847,0.0,7.270877565579547,,,16,8,0.0,85026,390547911476355,70,23.393962860107422,-576.2781719123741,1.1228400065487945,16,-12572.464416608866,3.4028234663852886E38,1.57542003E9,,,,1,,6,36.164798736572266,1.57542003E9,201.0,NaN,NaN
Raw,121085147801873,1621410000000,,,-1265630526589981847,0.0,7.270877565579547,,,16,9,0.0,85026,390547914570199,22,37.258155822753906,584.3556371170562,0.0041774543933570385,25,722610.4950228939,0.0020887271966785192,1.57542003E9,,,,0,,6,36.164798736572266,1.57542003E9,201.0,NaN,NaN
Raw,121085147801873,1621410000000,,,-1265630526589981847,0.0,7.270877565579547,,,16,24,0.0,21546,390547927730004,21,37.99057388305664,81.16677487665584,0.004072555340826511,25,37676.31665645045,0.0020362776704132557,1.57542003E9,,,,0,,6,36.164798736572266,1.57542003E9,201.0,NaN,NaN
Raw,121085147801873,1621410000000,,,-1265630526589981847,0.0,7.270877565579547,,,16,25,0.0,85026,390547916904119,11,48.08245086669922,-418.3743754778989,0.0013432346750050783,25,-730351.8736756817,6.716173375025392E-4,1.57542003E9,,,,0,,6,36.164798736572266,1.57542003E9,201.0,NaN,NaN
Raw,121085147801873,1621410000000,,,-1265630526589981847,0.0,7.270877565579547,,,16,26,0.0,16384,390547909388031,1000000000,12.0,54.024783483437204,2.99792458E8,16,-111.29757414249586,3.4028234663852886E38,1.57542003E9,,,,0,,6,36.164798736572266,1.57542003E9,201.0,NaN,NaN
Raw,121085147801873,1621410000000,,,-1265630526589981847,0.0,7.270877565579547,,,16,31,0.0,85026,390547911571747,37,31.022533416748047,476.76128426581135,0.7790894757416669,16,729536.0334399956,3.4028234663852886E38,1.57542003E9,,,,0,,6,36.164798736572266,1.57542003E9,201.0,NaN,NaN
Raw,121085147801873,1621410000000,,,-1265630526589981847,0.0,7.270877565579547,,,16,33,0.0,85026,390547905934400,107,18.114700317382812,-356.24905808189305,1.3599652363067571,16,-2181.655135413579,3.4028234663852886E38,1.57542003E9,,,,1,,6,36.164798736572266,1.57542003E9,201.0,NaN,NaN
Fix,gps,51.524311,-0.134557,108.726206,0.085879,2.000000,1581596930999,121086128250679
Raw,121086149355487,1622410000000,,,-1265630526589981907,0.0,7.33938287935835,,,16,1,0.0,16384,390548914815794,1000000000,13.012825012207031,-286.83277356258077,2.99792458E8,16,-4871.100130489364,3.4028234663852886E38,1.57542003E9,,,,0,,1,36.164798736572266,1.57542003E9,201.0,NaN,NaN
Raw,121086149355487,1622410000000,,,-1265630526589981907,0.0,7.33938287935835,,,16,10,0.0,16431,390548922268961,67,23.93668556213379,-240.62297807122616,1.0974978362397438,16,-546459.4579590282,3.4028234663852886E38,1.57542003E9,,,,0,,1,36.164798736572266,1.57542003E9,201.0,NaN,NaN
Raw,121086149355487,1622410000000,,,-1265630526589981907,0.0,7.33938287935835,,,16,12,0.0,16431,390548923282392,53,26.84661102294922,-725.3197999778413,0.9668239671815435,16,-1232910.482079789,3.4028234663852886E38,1.57542003E9,,,,1,,1,36.164798736572266,1.57542003E9,201.0,NaN,NaN
Raw,121086149355487,1622410000000,,,-1265630526589981907,0.0,7.33938287935835,,,16,13,0.0,16431,390548925373154,22,37.263526916503906,582.3992767001037,0.00417487183585763,17,854186.2990275496,0.09723427231711125,1.57542003E9,,,,0,,1,36.164798736572266,1.57542003E9,201.0,NaN,NaN
Raw,121086149355487,1622410000000,,,-1265630526589981907,0.0,7.33938287935835,,,16,15,0.0,16431,390548929976092,11,48.28388977050781,384.3595726492931,0.0013124413089826703,25,484234.6221812302,6.562206544913352E-4,1.57542003E9,,,,0,,1,36.164798736572266,1.57542003E9,201.0,NaN,NaN
Raw,121086149355487,1622410000000,,,-1265630526589981907,0.0,7.33938287935835,,,16,17,0.0,16431,390548923603959,22,37.42153549194336,-189.0508653280558,0.004099610727280378,17,-450960.6672080692,0.09719664176282262,1.57542003E9,,,,1,,1,36.164798736572266,1.57542003E9,201.0,NaN,NaN
Raw,121086149355487,1622410000000,,,-1265630526589981907,0.0,7.33938287935835,,,16,19,0.0,16431,390548922938334,15,42.48955535888672,-528.7925244763028,0.0024261518847197294,25,-959307.4670616509,0.0012130759423598647,1.57542003E9,,,,0,,1,36.164798736572266,1.57542003E9,201.0,NaN,NaN
Raw,121086149355487,1622410000000,,,-1265630526589981907,0.0,7.33938287935835,,,16,20,0.0,16431,390548924475200,44,28.95770263671875,204.45644749695896,0.8721051593032692,16,167159.36551945112,3.4028234663852886E38,1.57542003E9,,,,0,,1,36.164798736572266,1.57542003E9,201.0,NaN,NaN
Raw,121086149355487,1622410000000,,,-1265630526589981907,0.0,7.33938287935835,,,16,24,0.0,16431,390548931449645,13,46.439483642578125,-300.2780176724773,0.0016229314496740699,25,-591372.3985272378,8.114657248370349E-4,1.57542003E9,,,,0,,1,36.164798736572266,1.57542003E9,201.0,NaN,NaN
Raw,121086149355487,1622410000000,,,-1265630526589981907,0.0,7.33938287935835,,,16,28,0.0,16431,390548922140564,20,38.94051742553711,540.365044402354,0.4227692750583587,16,804992.1237666294,3.4028234663852886E38,1.57542003E9,,,,0,,1,36.164798736572266,1.57542003E9,201.0,NaN,NaN
Raw,121086149355487,1622410000000,,,-1265630526589981907,0.0,7.33938287935835,,,16,6,0.0,32995,55730934667441,33,41.03498840332031,38.623914193041855,0.0028248182497918606,25,-157425.43189624272,0.0014124091248959303,1.59975002E9,,,,0,,3,51.326629638671875,1.59975002E9,201.0,NaN,NaN
Raw,121086149355487,1622410000000,,,-1265630526589981907,0.0,7.33938287935835,,,16,9,0.0,32802,55730920091731,1000000000,17.937950134277344,-721.4707318328942,2.99792458E8,16,-301604.972246369,3.4028234663852886E38,1.60087501E9,,,,1,,3,51.326629638671875,1.60087501E9,201.0,NaN,NaN
Raw,121086149355487,1622410000000,,,-1265630526589981907,0.0,7.33938287935835,,,16,16,0.0,32995,55730934963474,33,43.17933654785156,-244.3386075607268,0.002204526448622346,25,-539327.988951239,0.001102263224311173,1.60143744E9,,,,0,,3,51.326629638671875,1.60143744E9,201.0,NaN,NaN
Raw,121086149355487,1622410000000,,,-1265630526589981907,0.0,7.33938287935835,,,16,15,0.0,32995,55730932098772,33,42.944725036621094,463.76408716349397,0.0022640882525593042,25,647234.4880929403,0.0011320441262796521,1.602E9,,,,0,,3,51.326629638671875,1.602E9,201.0,NaN,NaN
Raw,121086149355487,1622410000000,,,-1265630526589981907,0.0,7.33938287935835,,,16,5,0.0,32995,55730927116536,70,31.914222717285156,767.8189873038727,0.7396289140872336,16,1133560.9056488595,3.4028234663852886E38,1.60256256E9,,,,0,,3,51.326629638671875,1.60256256E9,201.0,NaN,NaN
Raw,121086149355487,1622410000000,,,-1265630526589981907,0.0,7.33938287935835,,,16,23,0.0,32995,55730920694068,80,30.308719635009766,457.4312342412304,0.009133980609476566,25,554754.409060884,0.004566990304738283,1.60368755E9,,,,0,,3,51.326629638671875,1.60368755E9,201.0,NaN,NaN
Raw,121086149355487,1622410000000,,,-1265630526589981907,0.0,7.33938287935835,,,16,17,0.0,32995,55730923326937,57,34.41826629638672,-600.6276331610525,0.626343222047073,16,-1071712.8545160128,3.4028234663852886E38,1.60424998E9,,,,0,,3,51.326629638671875,1.60424998E9,201.0,NaN,NaN
Raw,121086149355487,1622410000000,,,-1265630526589981907,0.0,7.33938287935835,,,16,7,0.0,32995,55730926673983,33,47.01800537109375,-666.6006365092471,0.0014905493007972836,25,-1185917.817285275,7.452746503986418E-4,1.60481254E9,,,,0,,3,51.326629638671875,1.60481254E9,201.0,NaN,NaN
Raw,121086149355487,1622410000000,,,-1265630526589981907,0.0,7.33938287935835,,,16,195,0.0,16385,390548850626121,122,16.481409072875977,6.173059258635604,1.434256470912353,16,8.921706137765046,3.4028234663852886E38,1.57542003E9,,,,1,,4,,1.57542003E9,201.0,NaN,NaN
Raw,121086149355487,1622410000000,,,-1265630526589981907,0.0,7.33938287935835,,,16,5,0.0,16904,390534864079382,1000000000,12.0,-25.10431523543852,2.99792458E8,16,-42451.22009562925,3.4028234663852886E38,1.56109798E9,,,,0,,5,51.483131408691406,1.56109798E9,201.0,NaN,NaN
Raw,121086149355487,1622410000000,,,-1265630526589981907,0.0,7.33938287935835,,,16,10,0.0,81967,390534864681930,22,28.86830711364746,182.98550532005584,0.8761622364081436,16,285089.0415243909,3.4028234663852886E38,1.56109798E9,,,,0,,5,51.483131408691406,1.56109798E9,201.0,NaN,NaN
Raw,121086149355487,1622410000000,,,-1265630526589981907,0.0,7.33938287935835,,,16,19,0.0,81967,390534919946465,24,27.721887588500977,567.6857119633214,0.9304611813020038,16,837466.0140949646,3.4028234663852886E38,1.56109798E9,,,,0,,5,51.483131408691406,1.56109798E9,201.0,NaN,NaN
Raw,121086149355487,1622410000000,,,-1265630526589981907,0.0,7.33938287935835,,,16,21,0.0,81967,390534915728468,6,47.99726867675781,-483.0197217937093,0.0013689170591533186,25,-526236.475167964,6.844585295766592E-4,1.56109798E9,,,,0,,5,51.483131408691406,1.56109798E9,201.0,NaN,NaN
Raw,121086149355487,1622410000000,,,-1265630526589981907,0.0,7.33938287935835,,,16,22,0.0,81967,390534922960375,6,46.57529067993164,55.390904936859435,0.0016124126268550754,25,-59694.55899286601,8.062063134275377E-4,1.56109798E9,,,,0,,5,51.483131408691406,1.56109798E9,201.0,NaN,NaN
Raw,121086149355487,1622410000000,,,-1265630526589981907,0.0,7.33938287935835,,,16,27,0.0,81967,390534915832147,10,38.233299255371094,-459.1918829558417,0.00399665767326951,25,-818952.2302202559,0.001998328836634755,1.56109798E9,,,,0,,5,51.483131408691406,1.56109798E9,201.0,NaN,NaN
Raw,121086149355487,1622410000000,,,-1265630526589981907,0.0,7.33938287935835,,,16,28,0.0,81967,390534915200771,19,30.59007453918457,7.398778358409864,0.8006285231873167,16,-130544.56145726534,3.4028234663852886E38,1.56109798E9,,,,0,,5,51.483131408691406,1.56109798E9,201.0,NaN,NaN
Raw,121086149355487,1622410000000,,,-1265630526589981907,0.0,7.33938287935835,,,16,36,0.0,81967,390534925114684,7,42.448524475097656,-299.69886218279134,0.0024600028991699214,25,-567162.8656682912,0.001230001449584961,1.56109798E9,,,,0,,5,51.483131408691406,1.56109798E9,201.0,NaN,NaN
Raw,121086149355487,1622410000000,,,-1265630526589981907,0.0,7.33938287935835,,,16,37,0.0,16396,390534911867569,1000000000,20.31991958618164,558.015666986387,2.99792458E8,16,648500.8430777531,3.4028234663852886E38,1.56109798E9,,,,1,,5,51.483131408691406,1.56109798E9,201.0,NaN,NaN
Raw,121086149355487,1622410000000,,,-1265630526589981907,0.0,7.33938287935835,,,16,3,0.0,21546,390548918129341,14,42.899139404296875,-256.04620212252485,0.002314402023330331,25,-500050.6079415451,0.0011572010116651654,1.57542003E9,,,,0,,6,36.164798736572266,1.57542003E9,201.0,NaN,NaN
Raw,121086149355487,1622410000000,,,-1265630526589981907,0.0,7.33938287935835,,,16,5,0.0,21546,390548919427117,13,43.717079162597656,298.0559557970264,0.002106404397636652,25,377635.92829772935,0.001053202198818326,1.57542003E9,,,,0,,6,36.164798736572266,1.57542003E9,201.0,NaN,NaN
Raw,121086149355487,1622410000000,,,-1265630526589981907,0.0,7.33938287935835,,,16,8,0.0,85026,390548911478267,69,24.87609100341797,-576.7087015031702,299.7937864589012,16,-13149.081512952285,3.4028234663852886E38,1.57542003E9,,,,0,,6,36.164798736572266,1.57542003E9,201.0,NaN,NaN
Raw,121086149355487,1622410000000,,,-1265630526589981907,0.0,7.33938287935835,,,16,9,0.0,85026,390548914568227,23,37.179203033447266,584.2609510689508,0.004215599037706852,25,723194.7559739628,0.002107799518853426,1.57542003E9,,,,0,,6,36.164798736572266,1.57542003E9,201.0,NaN,NaN
Raw,121086149355487,1622410000000,,,-1265630526589981907,0.0,7.33938287935835,,,16,24,0.0,21546,390548927729729,19,39.42573547363281,81.18621129138046,0.003452303586527705,25,37757.50286774183,0.0017261517932638526,1.57542003E9,,,,0,,6,36.164798736572266,1.57542003E9,201.0,NaN,NaN
Raw,121086149355487,1622410000000,,,-1265630526589981907,0.0,7.33938287935835,,,16,25,0.0,85026,390548916905499,16,41.25340270996094,-418.3056925853016,0.0027972133830189705,25,-730770.179368267,0.0013986066915094852,1.57542003E9,,,,0,,6,36.164798736572266,1.57542003E9,201.0,NaN,NaN
Raw,121086149355487,1622410000000,,,-1265630526589981907,0.0,7.33938287935835,,,16,26,0.0,16384,390548909387852,1000000000,12.0,54.024783483437204,2.99792458E8,16,-111.29630669902365,3.4028234663852886E38,1.57542003E9,,,,0,,6,36.164798736572266,1.57542003E9,201.0,NaN,NaN
Raw,121086149355487,1622410000000,,,-1265630526589981907,0.0,7.33938287935835,,,16,31,0.0,85026,390548911570137,34,32.07609558105469,476.90964074782096,0.007586033549159765,25,730012.9430807434,0.0037930167745798826,1.57542003E9,,,,0,,6,36.164798736572266,1.57542003E9,201.0,NaN,NaN
Raw,121086149355487,1622410000000,,,-1265630526589981907,0.0,7.33938287935835,,,16,33,0.0,85026,390548905935588,107,18.148941040039062,-356.416334778507,1.3584256678410158,16,-2537.6904376770485,3.4028234663852886E38,1.57542003E9,,,,1,,6,36.164798736572266,1.57542003E9,201.0,NaN,NaN
Fix,gps,51.524312,-0.134556,108.754257,0.010185,2.000000,1581596931999,121087131149448
Raw,121087150945256,1623410000000,,,-1265630526589981966,0.0,7.523655334025854,,,16,1,0.0,16384,390549914816448,1000000000,15.166000366210938,-286.647126421901,2.99792458E8,16,-5158.06331737896,3.4028234663852886E38,1.57542003E9,,,,0,,1,35.23455810546875,1.57542003E9,201.0,NaN,NaN
Raw,121087150945256,1623410000000,,,-1265630526589981966,0.0,7.523655334025854,,,16,10,0.0,16431,390549922269780,92,19.965612411499023,-240.57609765227903,1.2760726009218173,16,-546700.8074287571,3.4028234663852886E38,1.57542003E9,,,,0,,1,35.23455810546875,1.57542003E9,201.0,NaN,NaN
Raw,121087150945256,1623410000000,,,-1265630526589981966,0.0,7.523655334025854,,,16,12,0.0,16431,390549923284796,61,25.10099220275879,-725.5067081694124,1.0453229206871528,16,-1233636.0242826066,3.4028234663852886E38,1.57542003E9,,,,1,,1,35.23455810546875,1.57542003E9,201.0,NaN,NaN
Raw,121087150945256,1623410000000,,,-1265630526589981966,0.0,7.523655334025854,,,16,13,0.0,16431,390549925371091,16,41.003902435302734,582.3795225674984,0.0028787278570234776,17,854768.6785501171,0.09658620032769417,1.57542003E9,,,,1,,1,35.23455810546875,1.57542003E9,201.0,NaN,NaN
Raw,121087150945256,1623410000000,,,-1265630526589981966,0.0,7.523655334025854,,,16,15,0.0,16431,390549929974785,11,48.85898971557617,384.4103727124166,0.0012283578980714083,25,484619.03255394264,6.141789490357041E-4,1.57542003E9,,,,0,,1,35.23455810546875,1.57542003E9,201.0,NaN,NaN
Raw,121087150945256,1623410000000,,,-1265630526589981966,0.0,7.523655334025854,,,16,17,0.0,16431,390549923604594,32,33.14134216308594,-189.19137533355524,0.6838150971951515,16,-451149.3145040233,3.4028234663852886E38,1.57542003E9,,,,1,,1,35.23455810546875,1.57542003E9,201.0,NaN,NaN
Raw,121087150945256,1623410000000,,,-1265630526589981966,0.0,7.523655334025854,,,16,19,0.0,16431,390549922940101,14,42.983985900878906,-528.6992653175257,0.0022919042967259884,25,-959836.1663269685,0.0011459521483629942,1.57542003E9,,,,0,,1,35.23455810546875,1.57542003E9,201.0,NaN,NaN
Raw,121087150945256,1623410000000,,,-1265630526589981966,0.0,7.523655334025854,,,16,20,0.0,16431,390549924474453,43,29.266895294189453,204.32678079111793,0.8582009815225162,16,167363.4807422072,3.4028234663852886E38,1.57542003E9,,,,0,,1,35.23455810546875,1.57542003E9,201.0,NaN,NaN
Raw,121087150945256,1623410000000,,,-1265630526589981966,0.0,7.523655334025854,,,16,24,0.0,16431,390549931450707,18,39.63713455200195,-300.23497380968183,0.0033692950382828712,25,-591672.6335010475,0.0016846475191414356,1.57542003E9,,,,0,,1,35.23455810546875,1.57542003E9,201.0,NaN,NaN
Raw,121087150945256,1623410000000,,,-1265630526589981966,0.0,7.523655334025854,,,16,28,0.0,16431,390549922138782,15,42.117069244384766,540.5736569945002,0.0025324581656605005,17,805532.6974236239,0.09641306548201269,1.57542003E9,,,,0,,1,35.23455810546875,1.57542003E9,201.0,NaN,NaN
Raw,121087150945256,1623410000000,,,-1265630526589981966,0.0,7.523655334025854,,,16,6,0.0,32995,55731934667271,38,39.43181610107422,38.76688109259703,0.0033974198158830404,25,-157386.66501515012,0.0016987099079415202,1.59975002E9,,,,0,,3,49.08715057373047,1.59975002E9,201.0,NaN,NaN
Raw,121087150945256,1623410000000,,,-1265630526589981966,0.0,7.523655334025854,,,16,9,0.0,32803,55731920093912,218,17.94668960571289,-721.2618745393224,1.3700673563008756,16,-302326.4291630126,3.4028234663852886E38,1.60087501E9,,,,1,,3,49.08715057373047,1.60087501E9,201.0,NaN,NaN
Raw,121087150945256,1623410000000,,,-1265630526589981966,0.0,7.523655334025854,,,16,16,0.0,32995,55731934964273,33,42.82428741455078,-244.25390743429307,0.0022965066600590944,25,-539572.2428586733,0.0011482533300295472,1.60143744E9,,,,0,,3,49.08715057373047,1.60143744E9,201.0,NaN,NaN
Raw,121087150945256,1623410000000,,,-1265630526589981966,0.0,7.523655334025854,,,16,15,0.0,32995,55731932097186,33,48.6993408203125,463.93470666895155,0.0012303857365623116,25,647698.4227996093,6.151928682811558E-4,1.602E9,,,,0,,3,49.08715057373047,1.602E9,201.0,NaN,NaN
Raw,121087150945256,1623410000000,,,-1265630526589981966,0.0,7.523655334025854,,,16,5,0.0,32995,55731927113890,74,31.33989906311035,767.904534269745,0.7654550952192869,16,1134329.090767763,3.4028234663852886E38,1.60256256E9,,,,0,,3,49.08715057373047,1.60256256E9,201.0,NaN,NaN
Raw,121087150945256,1623410000000,,,-1265630526589981966,0.0,7.523655334025854,,,16,23,0.0,32995,55731920692632,79,30.498397827148438,457.5404258253984,0.008936679922044277,25,555211.9494867094,0.004468339961022139,1.60368755E9,,,,0,,3,49.08715057373047,1.60368755E9,201.0,NaN,NaN
Raw,121087150945256,1623410000000,,,-1265630526589981966,0.0,7.523655334025854,,,16,17,0.0,32995,55731923329017,63,33.205101013183594,-600.4715344083961,0.006541672628372908,25,-1072313.3260504212,0.003270836314186454,1.60424998E9,,,,0,,3,49.08715057373047,1.60424998E9,201.0,NaN,NaN
Raw,121087150945256,1623410000000,,,-1265630526589981966,0.0,7.523655334025854,,,16,7,0.0,32995,55731926676197,33,49.252994537353516,-666.4760143891908,0.0011523825814947486,25,-1186584.2932996643,5.761912907473743E-4,1.60481254E9,,,,0,,3,49.08715057373047,1.60481254E9,201.0,NaN,NaN
Raw,121087150945256,1623410000000,,,-1265630526589981966,0.0,7.523655334025854,,,16,195,0.0,16384,390549850626254,1000000000,15.621200561523438,6.785438991439499,2.99792458E8,16,15.230557706389646,3.4028234663852886E38,1.57542003E9,,,,1,,4,,1.57542003E9,201.0,NaN,NaN
Raw,121087150945256,1623410000000,,,-1265630526589981966,0.0,7.523655334025854,,,16,5,0.0,16904,390535864079466,1000000000,12.0,-25.10431523543852,2.99792458E8,16,-42476.324412241556,3.4028234663852886E38,1.56109798E9,,,,0,,5,51.326629638671875,1.56109798E9,201.0,NaN,NaN
Raw,121087150945256,1623410000000,,,-1265630526589981966,0.0,7.523655334025854,,,16,10,0.0,81967,390535864681324,18,31.57954978942871,183.17055674368748,0.008106029592454433,17,285272.2120811346,0.10007275795136546,1.56109798E9,,,,0,,5,51.326629638671875,1.56109798E9,201.0,NaN,NaN
Raw,121087150945256,1623410000000,,,-1265630526589981966,0.0,7.523655334025854,,,16,19,0.0,81967,390535919944563,17,32.18873977661133,568.3175325423413,0.729591630641266,16,838034.3480103198,3.4028234663852886E38,1.56109798E9,,,,0,,5,51.326629638671875,1.56109798E9,201.0,NaN,NaN
Raw,121087150945256,1623410000000,,,-1265630526589981966,0.0,7.523655334025854,,,16,21,0.0,81967,390535915730091,6,47.74378204345703,-482.85308958159294,0.0014094559010118246,25,-526719.3282575456,7.047279505059123E-4,1.56109798E9,,,,0,,5,51.326629638671875,1.56109798E9,201.0,NaN,NaN
Raw,121087150945256,1623410000000,,,-1265630526589981966,0.0,7.523655334025854,,,16,22,0.0,81967,390535922960190,7,44.69377136230469,55.55612644253415,0.0020024057012051344,25,-59639.00286642348,0.0010012028506025672,1.56109798E9,,,,0,,5,51.326629638671875,1.56109798E9,201.0,NaN,NaN
Raw,121087150945256,1623410000000,,,-1265630526589981966,0.0,7.523655334025854,,,16,27,0.0,81967,390535915833730,15,33.25884246826172,-459.5127665038344,0.8140925579943805,16,-819411.0913826623,3.4028234663852886E38,1.56109798E9,,,,0,,5,51.326629638671875,1.56109798E9,201.0,NaN,NaN
Raw,121087150945256,1623410000000,,,-1265630526589981966,0.0,7.523655334025854,,,16,28,0.0,81967,390535915200728,16,32.64341735839844,7.6035936990519986,0.007171579170972109,17,-130536.95786356629,0.0996055327406243,1.56109798E9,,,,0,,5,51.326629638671875,1.56109798E9,201.0,NaN,NaN
Raw,121087150945256,1623410000000,,,-1265630526589981966,0.0,7.523655334025854,,,16,36,0.0,81967,390535925115688,6,43.491390228271484,-299.72058061277494,0.0021816869266331196,25,-567462.586248904,0.0010908434633165598,1.56109798E9,,,,0,,5,51.326629638671875,1.56109798E9,201.0,NaN,NaN
Raw,121087150945256,1623410000000,,,-1265630526589981966,0.0,7.523655334025854,,,16,37,0.0,16396,390535911865729,1000000000,20.689748764038086,558.3966066029425,2.99792458E8,16,649059.310489782,3.4028234663852886E38,1.56109798E9,,,,1,,5,51.326629638671875,1.56109798E9,201.0,NaN,NaN
Raw,121087150945256,1623410000000,,,-1265630526589981966,0.0,7.523655334025854,,,16,3,0.0,21546,390549918130181,11,46.261390686035156,-255.99808625207515,0.0015715424669906497,25,-500306.60602779716,7.857712334953249E-4,1.57542003E9,,,,0,,6,35.23455810546875,1.57542003E9,201.0,NaN,NaN
Raw,121087150945256,1623410000000,,,-1265630526589981966,0.0,7.523655334025854,,,16,5,0.0,21546,390549919426139,13,43.990684509277344,298.0832887480501,0.00204108702018857,25,377934.0115864774,0.001020543510094285,1.57542003E9,,,,0,,6,35.23455810546875,1.57542003E9,201.0,NaN,NaN
Raw,121087150945256,1623410000000,,,-1265630526589981966,0.0,7.523655334025854,,,16,8,0.0,85026,390549911480201,55,26.370670318603516,-576.2833524457656,1.0855964687507913,16,-13725.528253277793,3.4028234663852886E38,1.57542003E9,,,,0,,6,35.23455810546875,1.57542003E9,201.0,NaN,NaN
Raw,121087150945256,1623410000000,,,-1265630526589981966,0.0,7.523655334025854,,,16,9,0.0,85026,390549914566300,31,33.4627799987793,583.4525290104257,0.6698930793785625,16,723779.1144838989,3.4028234663852886E38,1.57542003E9,,,,0,,6,35.23455810546875,1.57542003E9,201.0,NaN,NaN
Raw,121087150945256,1623410000000,,,-1265630526589981966,0.0,7.523655334025854,,,16,24,0.0,21546,390549927729433,14,42.70524215698242,81.25478233654576,0.0023666475899517536,25,37838.757650078376,0.0011833237949758768,1.57542003E9,,,,0,,6,35.23455810546875,1.57542003E9,201.0,NaN,NaN
Raw,121087150945256,1623410000000,,,-1265630526589981966,0.0,7.523655334025854,,,16,25,0.0,85026,390549916906895,20,38.96348190307617,-418.2441709116101,0.0036410074681043625,25,-731188.4235391786,0.0018205037340521812,1.57542003E9,,,,0,,6,35.23455810546875,1.57542003E9,201.0,NaN,NaN
Raw,121087150945256,1623410000000,,,-1265630526589981966,0.0,7.523655334025854,,,16,26,0.0,16384,390549909387672,1000000000,12.0,54.21043914473108,2.99792458E8,16,-111.29768481175238,3.4028234663852886E38,1.57542003E9,,,,0,,6,35.23455810546875,1.57542003E9,201.0,NaN,NaN
Raw,121087150945256,1623410000000,,,-1265630526589981966,0.0,7.523655334025854,,,16,31,0.0,85026,390549911568378,41,29.791465759277344,476.8890934777719,1.093148861533595,16,730492.5333514324,3.4028234663852886E38,1.57542003E9,,,,1,,6,35.23455810546875,1.57542003E9,201.0,NaN,NaN
Raw,121087150945256,1623410000000,,,-1265630526589981966,0.0,7.523655334025854,,,16,33,0.0,85026,390549905936787,112,17.56414031982422,-356.394624253702,1.3847236114132588,16,-2893.8152671591915,3.4028234663852886E38,1.57542003E9,,,,1,,6,35.23455810546875,1.57542003E9,201.0,NaN,NaN
Fix,gps,51.524312,-0.134554,108.783253,0.025781,2.000000,1581596932999,121088096964986
Raw,121088119972563,1624410000000,,,-1265630526589982025,0.0,7.644050997391834,,,16,1,0.0,16384,390550914817406,1000000000,16.79590606689453,-286.647126421901,2.99792458E8,16,-5444.785764571183,3.4028234663852886E38,1.57542003E9,,,,0,,1,34.27734375,1.57542003E9,201.0,NaN,NaN
Raw,121088119972563,1624410000000,,,-1265630526589982025,0.0,7.644050997391834,,,16,10,0.0,16431,390550922270606,98,19.23778533935547,-240.31604850901,1.3088022768167829,16,-546942.0664883403,3.4028234663852886E38,1.57542003E9,,,,1,,1,34.27734375,1.57542003E9,201.0,NaN,NaN
Raw,121088119972563,1624410000000,,,-1265630526589982025,0.0,7.644050997391834,,,16,12,0.0,16431,390550923287176,62,24.780515670776367,-724.8806816080014,1.0597348738162573,16,-1234360.844947804,3.4028234663852886E38,1.57542003E9,,,,1,,1,34.27734375,1.57542003E9,201.0,NaN,NaN
Raw,121088119972563,1624410000000,,,-1265630526589982025,0.0,7.644050997391834,,,16,13,0.0,16431,390550925369194,17,40.643951416015625,582.4702880916884,0.003000530879944563,17,855351.1488382088,0.09664710183915472,1.57542003E9,,,,0,,1,34.27734375,1.57542003E9,201.0,NaN,NaN
Raw,121088119972563,1624410000000,,,-1265630526589982025,0.0,7.644050997391834,,,16,15,0.0,16431,390550929973492,12,47.8079833984375,384.5468031942146,0.001386357587762177,25,485003.57935713686,6.931787938810885E-4,1.57542003E9,,,,0,,1,34.27734375,1.57542003E9,201.0,NaN,NaN
Raw,121088119972563,1624410000000,,,-1265630526589982025,0.0,7.644050997391834,,,16,17,0.0,16431,390550923605234,36,31.661184310913086,-188.81847917673917,0.7503761377652634,16,-451337.4974088366,3.4028234663852886E38,1.57542003E9,,,,0,,1,34.27734375,1.57542003E9,201.0,NaN,NaN
Raw,121088119972563,1624410000000,,,-1265630526589982025,0.0,7.644050997391834,,,16,19,0.0,16431,390550922941913,17,40.94407653808594,-528.5911610370968,0.002898624399676919,25,-960364.7574880056,0.0014493121998384595,1.57542003E9,,,,0,,1,34.27734375,1.57542003E9,201.0,NaN,NaN
Raw,121088119972563,1624410000000,,,-1265630526589982025,0.0,7.644050997391834,,,16,20,0.0,16431,390550924473766,44,28.917171478271484,204.2290887387062,0.010913419537246227,17,167567.7098309459,0.10060354616780555,1.57542003E9,,,,0,,1,34.27734375,1.57542003E9,201.0,NaN,NaN
Raw,121088119972563,1624410000000,,,-1265630526589982025,0.0,7.644050997391834,,,16,24,0.0,16431,390550931451677,16,41.75041198730469,-300.1358756076079,0.002641649218276143,25,-591972.7693766551,0.0013208246091380715,1.57542003E9,,,,0,,1,34.27734375,1.57542003E9,201.0,NaN,NaN
Raw,121088119972563,1624410000000,,,-1265630526589982025,0.0,7.644050997391834,,,16,28,0.0,16431,390550922136983,17,40.4469108581543,540.6451549348421,0.0030693763401359324,17,806073.3425785587,0.0966815245692504,1.57542003E9,,,,0,,1,34.27734375,1.57542003E9,201.0,NaN,NaN
Raw,121088119972563,1624410000000,,,-1265630526589982025,0.0,7.644050997391834,,,16,6,0.0,32995,55732934667162,43,37.817718505859375,38.960517644591164,0.003857249394059181,25,-157347.70449750553,0.0019286246970295906,1.59975002E9,,,,0,,3,48.98435974121094,1.59975002E9,201.0,NaN,NaN
Raw,121088119972563,1624410000000,,,-1265630526589982025,0.0,7.644050997391834,,,16,9,0.0,32803,55732920096292,225,17.532665252685547,-721.1714196997109,1.3886859632532271,16,-303047.6258611656,3.4028234663852886E38,1.60087501E9,,,,1,,3,48.98435974121094,1.60087501E9,201.0,NaN,NaN
Raw,121088119972563,1624410000000,,,-1265630526589982025,0.0,7.644050997391834,,,16,16,0.0,32995,55732934965057,33,42.42470169067383,-244.126972826547,0.002404622733592987,25,-539816.3698314999,0.0012023113667964935,1.60143744E9,,,,0,,3,48.98435974121094,1.60143744E9,201.0,NaN,NaN
Raw,121088119972563,1624410000000,,,-1265630526589982025,0.0,7.644050997391834,,,16,15,0.0,32995,55732932095658,33,48.58101272583008,464.02447568345815,0.0012472617672756314,25,648162.4472752927,6.236308836378157E-4,1.602E9,,,,0,,3,48.98435974121094,1.602E9,201.0,NaN,NaN
Raw,121088119972563,1624410000000,,,-1265630526589982025,0.0,7.644050997391834,,,16,5,0.0,32995,55732927111393,63,33.29187774658203,768.2890060837381,0.0064834607765078545,25,1135097.3797738468,0.0032417303882539272,1.60256256E9,,,,0,,3,48.98435974121094,1.60256256E9,201.0,NaN,NaN
Raw,121088119972563,1624410000000,,,-1265630526589982025,0.0,7.644050997391834,,,16,23,0.0,32995,55732920691157,92,28.58993148803711,457.85983552739117,0.8915603174882811,16,555669.6613940238,3.4028234663852886E38,1.60368755E9,,,,0,,3,48.98435974121094,1.60368755E9,201.0,NaN,NaN
Raw,121088119972563,1624410000000,,,-1265630526589982025,0.0,7.644050997391834,,,16,17,0.0,32995,55732923330995,65,32.83079528808594,-600.3004159308039,0.006829736288636923,25,-1072913.626466352,0.0034148681443184614,1.60424998E9,,,,0,,3,48.98435974121094,1.60424998E9,201.0,NaN,NaN
Raw,121088119972563,1624410000000,,,-1265630526589982025,0.0,7.644050997391834,,,16,7,0.0,32995,55732926678398,33,47.85071563720703,-666.3655843252782,0.001354287378489971,25,-1187250.6588839896,6.771436892449856E-4,1.60481254E9,,,,0,,3,48.98435974121094,1.60481254E9,201.0,NaN,NaN
Raw,121088119972563,1624410000000,,,-1265630526589982025,0.0,7.644050997391834,,,16,195,0.0,16384,390550850626231,1000000000,14.760982513427734,6.253490128260754,2.99792458E8,16,22.464818709843307,3.4028234663852886E38,1.57542003E9,,,,1,,4,,1.57542003E9,201.0,NaN,NaN
Raw,121088119972563,1624410000000,,,-1265630526589982025,0.0,7.644050997391834,,,16,5,0.0,16904,390536864079550,1000000000,12.0,-25.10431523543852,2.99792458E8,16,-42501.42872877188,3.4028234663852886E38,1.56109798E9,,,,0,,5,50.411476135253906,1.56109798E9,201.0,NaN,NaN
Raw,121088119972563,1624410000000,,,-1265630526589982025,0.0,7.644050997391834,,,16,10,0.0,81967,390536864680699,17,31.877790451049805,183.14761852450658,0.7427344116686831,16,285455.45210700016,3.4028234663852886E38,1.56109798E9,,,,0,,5,50.411476135253906,1.56109798E9,201.0,NaN,NaN
Raw,121088119972563,1624410000000,,,-1265630526589982025,0.0,7.644050997391834,,,16,19,0.0,81967,390536919942686,18,31.103609085083008,568.3076171991415,0.008562590926885605,17,838602.6556275189,0.10030103861858104,1.56109798E9,,,,0,,5,50.411476135253906,1.56109798E9,201.0,NaN,NaN
Raw,121088119972563,1624410000000,,,-1265630526589982025,0.0,7.644050997391834,,,16,21,0.0,81967,390536915731704,6,47.37925720214844,-482.76023948774673,0.001469866489060223,25,-527202.0884970333,7.349332445301116E-4,1.56109798E9,,,,0,,5,50.411476135253906,1.56109798E9,201.0,NaN,NaN
Raw,121088119972563,1624410000000,,,-1265630526589982025,0.0,7.644050997391834,,,16,22,0.0,81967,390536922960018,7,42.10224151611328,55.68322545024421,0.0025600579101592302,25,-59583.31964097323,0.0012800289550796151,1.56109798E9,,,,0,,5,50.411476135253906,1.56109798E9,201.0,NaN,NaN
Raw,121088119972563,1624410000000,,,-1265630526589982025,0.0,7.644050997391834,,,16,27,0.0,81967,390536915835310,22,28.70523452758789,-459.0710578672988,0.8855018280048621,16,-819870.0824246835,3.4028234663852886E38,1.56109798E9,,,,0,,5,50.411476135253906,1.56109798E9,201.0,NaN,NaN
Raw,121088119972563,1624410000000,,,-1265630526589982025,0.0,7.644050997391834,,,16,28,0.0,81967,390536915200698,15,33.35132598876953,7.746829426061595,0.0066102733835577965,17,-130529.21103414023,0.09932487984691714,1.56109798E9,,,,0,,5,50.411476135253906,1.56109798E9,201.0,NaN,NaN
Raw,121088119972563,1624410000000,,,-1265630526589982025,0.0,7.644050997391834,,,16,36,0.0,81967,390536925116689,6,44.172489166259766,-299.6235029173549,0.0020171464420855045,25,-567762.2097518214,0.0010085732210427523,1.56109798E9,,,,0,,5,50.411476135253906,1.56109798E9,201.0,NaN,NaN
Raw,121088119972563,1624410000000,,,-1265630526589982025,0.0,7.644050997391834,,,16,37,0.0,16396,390536911863953,1000000000,22.86118507385254,558.3260900003968,2.99792458E8,16,649617.3290546951,3.4028234663852886E38,1.56109798E9,,,,1,,5,50.411476135253906,1.56109798E9,201.0,NaN,NaN
Raw,121088119972563,1624410000000,,,-1265630526589982025,0.0,7.644050997391834,,,16,3,0.0,21546,390550918131037,12,44.8602294921875,-255.8975638668635,0.001846648519858718,25,-500562.503591664,9.23324259929359E-4,1.57542003E9,,,,0,,6,34.27734375,1.57542003E9,201.0,NaN,NaN
Raw,121088119972563,1624410000000,,,-1265630526589982025,0.0,7.644050997391834,,,16,5,0.0,21546,390550919425142,15,42.32905578613281,298.1852865096298,0.0024713992606848474,25,378232.196872987,0.001235699630342424,1.57542003E9,,,,0,,6,34.27734375,1.57542003E9,201.0,NaN,NaN
Raw,121088119972563,1624410000000,,,-1265630526589982025,0.0,7.644050997391834,,,16,8,0.0,85026,390550911482133,51,27.208641052246094,-576.3896897101167,0.9512993416681055,16,-14301.95898426276,3.4028234663852886E38,1.57542003E9,,,,0,,6,34.27734375,1.57542003E9,201.0,NaN,NaN
Raw,121088119972563,1624410000000,,,-1265630526589982025,0.0,7.644050997391834,,,16,9,0.0,85026,390550914564359,34,32.32596206665039,584.3649676376953,0.0073709143325686455,25,724363.4794515366,0.0036854571662843227,1.57542003E9,,,,0,,6,34.27734375,1.57542003E9,201.0,NaN,NaN
Raw,121088119972563,1624410000000,,,-1265630526589982025,0.0,7.644050997391834,,,16,24,0.0,21546,390550927729174,17,40.87781524658203,81.35409656216507,0.0029208215419203043,25,37920.11174664054,0.0014604107709601521,1.57542003E9,,,,0,,6,34.27734375,1.57542003E9,201.0,NaN,NaN
Raw,121088119972563,1624410000000,,,-1265630526589982025,0.0,7.644050997391834,,,16,25,0.0,85026,390550916908299,17,40.82127380371094,-418.1576469787397,0.002939896658062935,25,-731606.5811861573,0.0014699483290314674,1.57542003E9,,,,0,,6,34.27734375,1.57542003E9,201.0,NaN,NaN
Raw,121088119972563,1624410000000,,,-1265630526589982025,0.0,7.644050997391834,,,16,26,0.0,16384,390550909387488,1000000000,18.47937774658203,54.21043914473108,2.99792458E8,16,-111.2964130126332,3.4028234663852886E38,1.57542003E9,,,,0,,6,34.27734375,1.57542003E9,201.0,NaN,NaN
Raw,121088119972563,1624410000000,,,-1265630526589982025,0.0,7.644050997391834,,,16,31,0.0,85026,390550911566834,40,30.16634178161621,476.8326529297701,0.8175906029315234,16,730974.6423074093,3.4028234663852886E38,1.57542003E9,,,,1,,6,34.27734375,1.57542003E9,201.0,NaN,NaN
Raw,121088119972563,1624410000000,,,-1265630526589982025,0.0,7.644050997391834,,,16,33,0.0,85026,390550905937995,113,17.489517211914062,-356.2347434501535,1.3880796683039893,16,-3250.531699133043,3.4028234663852886E38,1.57542003E9,,,,1,,6,34.27734375,1.57542003E9,201.0,NaN,NaN
Fix,gps,51.524315,-0.134550,108.776758,0.025694,2.000000,1581596933999,121089127470408
Raw,121089160580870,1625410000000,,,-1265630526589982085,0.0,7.055388033111259,,,16,1,0.0,16384,390551914818339,1000000000,15.935708999633789,-286.647126421901,2.99792458E8,16,-5731.47664531311,3.4028234663852886E38,1.57542003E9,,,,0,,1,36.299468994140625,1.57542003E9,201.0,NaN,NaN
Raw,121089160580870,1625410000000,,,-1265630526589982085,0.0,7.055388033111259,,,16,10,0.0,16431,390551922271387,80,21.65318489074707,-240.23022888348555,1.2001846831088852,16,-547182.9307358327,3.4028234663852886E38,1.57542003E9,,,,1,,1,36.299468994140625,1.57542003E9,201.0,NaN,NaN
Raw,121089160580870,1625410000000,,,-1265630526589982085,0.0,7.055388033111259,,,16,12,0.0,16430,390551923289628,1000000000,23.772207260131836,-724.8302395723476,2.99792458E8,16,-1235084.6987508028,3.4028234663852886E38,1.57542003E9,,,,1,,1,36.299468994140625,1.57542003E9,201.0,NaN,NaN
Raw,121089160580870,1625410000000,,,-1265630526589982085,0.0,7.055388033111259,,,16,13,0.0,16431,390551925367222,21,38.30329132080078,582.5275510279462,0.003703862428665161,17,855933.6763892367,0.09699876761351502,1.57542003E9,,,,1,,1,36.299468994140625,1.57542003E9,201.0,NaN,NaN
Raw,121089160580870,1625410000000,,,-1265630526589982085,0.0,7.055388033111259,,,16,15,0.0,16431,390551929972237,13,46.06742858886719,384.6447762632742,0.0016939595807343721,25,485388.22413340013,8.469797903671861E-4,1.57542003E9,,,,0,,1,36.299468994140625,1.57542003E9,201.0,NaN,NaN
Raw,121089160580870,1625410000000,,,-1265630526589982085,0.0,7.055388033111259,,,16,17,0.0,16431,390551923605865,20,38.71379852294922,-188.5852482810733,0.0037471905816346407,17,-451526.0826571177,0.09702043168999976,1.57542003E9,,,,0,,1,36.299468994140625,1.57542003E9,201.0,NaN,NaN
Raw,121089160580870,1625410000000,,,-1265630526589982085,0.0,7.055388033111259,,,16,19,0.0,16431,390551922943666,15,42.32570266723633,-528.5108808891382,0.0024723538663238287,25,-960893.2683688947,0.0012361769331619143,1.57542003E9,,,,0,,1,36.299468994140625,1.57542003E9,201.0,NaN,NaN
Raw,121089160580870,1625410000000,,,-1265630526589982085,0.0,7.055388033111259,,,16,20,0.0,16431,390551924473100,45,28.83426284790039,204.35768938309047,0.011018091812729837,17,167772.067520329,0.10065588230554735,1.57542003E9,,,,0,,1,36.299468994140625,1.57542003E9,201.0,NaN,NaN
Raw,121089160580870,1625410000000,,,-1265630526589982085,0.0,7.055388033111259,,,16,24,0.0,16431,390551931452663,11,45.41179275512695,-300.0691181594739,0.0017330301925539968,25,-592272.8384948146,8.665150962769985E-4,1.57542003E9,,,,0,,1,36.299468994140625,1.57542003E9,201.0,NaN,NaN
Raw,121089160580870,1625410000000,,,-1265630526589982085,0.0,7.055388033111259,,,16,28,0.0,16431,390551922135214,22,37.379478454589844,540.6921135449084,0.004369399510324001,17,806614.0346921036,0.09733153615434444,1.57542003E9,,,,0,,1,36.299468994140625,1.57542003E9,201.0,NaN,NaN
Raw,121089160580870,1625410000000,,,-1265630526589982085,0.0,7.055388033111259,,,16,6,0.0,32995,55733934667056,53,35.33692932128906,39.15373993845424,0.005132360849529506,25,-157308.55075756708,0.0025661804247647524,1.59975002E9,,,,0,,3,51.483131408691406,1.59975002E9,201.0,NaN,NaN
Raw,121089160580870,1625410000000,,,-1265630526589982085,0.0,7.055388033111259,,,16,9,0.0,32803,55733920098637,207,18.535974502563477,-721.026569259489,1.343568645758178,16,-303768.8851824256,3.4028234663852886E38,1.60087501E9,,,,1,,3,51.483131408691406,1.60087501E9,201.0,NaN,NaN
Raw,121089160580870,1625410000000,,,-1265630526589982085,0.0,7.055388033111259,,,16,16,0.0,32995,55733934965934,35,40.39672088623047,-243.99662983196322,0.0030370086897164583,25,-540060.3664613318,0.0015185043448582292,1.60143744E9,,,,0,,3,51.483131408691406,1.60143744E9,201.0,NaN,NaN
Raw,121089160580870,1625410000000,,,-1265630526589982085,0.0,7.055388033111259,,,16,15,0.0,32995,55733932094110,33,48.69366455078125,464.0782414149726,0.0012311898171901703,25,648626.5255167077,6.155949085950851E-4,1.602E9,,,,0,,3,51.483131408691406,1.602E9,201.0,NaN,NaN
Raw,121089160580870,1625410000000,,,-1265630526589982085,0.0,7.055388033111259,,,16,5,0.0,32995,55733927108805,61,33.66314697265625,768.354943006765,0.006212171167135239,25,1135865.7347168536,0.0031060855835676193,1.60256256E9,,,,0,,3,51.483131408691406,1.60256256E9,201.0,NaN,NaN
Raw,121089160580870,1625410000000,,,-1265630526589982085,0.0,7.055388033111259,,,16,23,0.0,32995,55733920689654,104,27.024646759033203,458.469161685106,0.9619491108220153,16,556128.1622238755,3.4028234663852886E38,1.60368755E9,,,,0,,3,51.483131408691406,1.60368755E9,201.0,NaN,NaN
Raw,121089160580870,1625410000000,,,-1265630526589982085,0.0,7.055388033111259,,,16,17,0.0,32995,55733923333005,74,31.272192001342773,-600.1827319941949,0.008172108791768551,25,-1073513.8091983462,0.0040860543958842754,1.60424998E9,,,,0,,3,51.483131408691406,1.60424998E9,201.0,NaN,NaN
Raw,121089160580870,1625410000000,,,-1265630526589982085,0.0,7.055388033111259,,,16,7,0.0,32995,55733926680617,33,44.44667053222656,-666.2909919153899,0.001901227980852127,25,-1187916.949875905,9.506139904260635E-4,1.60481254E9,,,,0,,3,51.483131408691406,1.60481254E9,201.0,NaN,NaN
Raw,121089160580870,1625410000000,,,-1265630526589982085,0.0,7.055388033111259,,,16,195,0.0,16384,390551850626212,1000000000,13.900768280029297,6.1893197856272835,2.99792458E8,16,28.793626198874243,3.4028234663852886E38,1.57542003E9,,,,1,,4,,1.57542003E9,201.0,NaN,NaN
Raw,121089160580870,1625410000000,,,-1265630526589982085,0.0,7.055388033111259,,,16,5,0.0,16904,390537864079636,1000000000,12.0,-25.10431523543852,2.99792458E8,16,-42526.53304538427,3.4028234663852886E38,1.56109798E9,,,,0,,5,52.642974853515625,1.56109798E9,201.0,NaN,NaN
Raw,121089160580870,1625410000000,,,-1265630526589982085,0.0,7.055388033111259,,,16,10,0.0,81967,390537864680078,21,29.371257781982422,183.15060073945233,1.1470105924148735,16,285638.7090067514,3.4028234663852886E38,1.56109798E9,,,,0,,5,52.642974853515625,1.56109798E9,201.0,NaN,NaN
Raw,121089160580870,1625410000000,,,-1265630526589982085,0.0,7.055388033111259,,,16,19,0.0,81967,390537919940801,23,28.608922958374023,566.814802951794,0.8905712605761407,16,839170.5815548727,3.4028234663852886E38,1.56109798E9,,,,0,,5,52.642974853515625,1.56109798E9,201.0,NaN,NaN
Raw,121089160580870,1625410000000,,,-1265630526589982085,0.0,7.055388033111259,,,16,21,0.0,81967,390537915733308,6,46.06458282470703,-482.6768793408992,0.0017100608674809339,25,-527684.7653763742,8.550304337404668E-4,1.56109798E9,,,,0,,5,52.642974853515625,1.56109798E9,201.0,NaN,NaN
