# 
# Header Description:
# 
# Version: v2.0.0.1 Platform: 10 Manufacturer: Google Model: Pixel 4
# 
# Raw,ElapsedRealtimeNanos,TimeNanos,LeapSecond,TimeUncertaintyNanos,FullBiasNanos,BiasNanos,BiasUncertaintyNanos,DriftNanosPerSecond,DriftUncertaintyNanosPerSecond,HardwareClockDiscontinuityCount,Svid,TimeOffsetNanos,State,ReceivedSvTimeNanos,ReceivedSvTimeUncertaintyNanos,Cn0DbHz,PseudorangeRateMetersPerSecond,PseudorangeRateUncertaintyMetersPerSecond,AccumulatedDeltaRangeState,AccumulatedDeltaRangeMeters,AccumulatedDeltaRangeUncertaintyMeters,CarrierFrequencyHz,CarrierCycles,CarrierPhase,CarrierPhaseUncertainty,MultipathIndicator,SnrInDb,ConstellationType,AgcDb,CarrierFrequencyHz,UserLatitude,UserLongitude,UserAltitude
# 
# Fix,Provider,Latitude,Longitude,Altitude,Speed,Accuracy,(UTC)TimeInMs,ElapsedRealtimeNanos
# 
# Nav,Svid,Type,Status,MessageId,Sub-messageId,Data(Bytes)
# 
Fix,gps,51.524694,-0.134215,73.497681,0.000000,3.790092,1582195464000,232721906744675
Raw,232721919273426,649526188000000,,,-1265581155242008709,-0.90753173828125,35.24836938595399,13.221850828328416,10.512289116488452,146,5,0.0,16399,384281348618824,19,27.6,730.0501708984375,0.037800002843141556,17,8973.628117313217,0.003234992547669888,1.57542003E9,,,,0,,1,0.8,1.57542003E9,359.0,NaN,NaN
Raw,232721919273426,649526188000000,,,-1265581155242008709,-0.90753173828125,35.24836938595399,13.221850828328416,10.512289116488452,146,13,0.0,16399,384281361924509,10,34.7,239.21746826171875,0.0071000000461936,25,2983.7282943509026,0.0015223494237726067,1.57542003E9,,,,0,,1,0.8,1.57542003E9,359.0,NaN,NaN
Raw,232721919273426,649526188000000,,,-1265581155242008709,-0.90753173828125,35.24836938595399,13.221850828328416,10.512289116488452,146,15,0.0,16399,384281362380189,13,31.9,-92.87566375732422,0.025100000202655792,17,-1145.9005217407666,0.002074201012354331,1.57542003E9,,,,0,,1,0.8,1.57542003E9,359.0,NaN,NaN
Raw,232721919273426,649526188000000,,,-1265581155242008709,-0.90753173828125,35.24836938595399,13.221850828328416,10.512289116488452,146,17,0.0,16399,384281347840659,24,25.2,-531.04541015625,0.01979999989271164,19,-237.85103546390505,0.19029366893311156,1.57542003E9,,,,0,,1,0.8,1.57542003E9,359.0,NaN,NaN
Raw,232721919273426,649526188000000,,,-1265581155242008709,-0.90753173828125,35.24836938595399,13.221850828328416,10.512289116488452,146,20,0.0,16399,384281353584922,7,37.6,-337.26922607421875,0.03890000283718109,17,-4151.591515292318,0.0010085564157135064,1.57542003E9,,,,0,,1,0.8,1.57542003E9,359.0,NaN,NaN
Raw,232721919273426,649526188000000,,,-1265581155242008709,-0.90753173828125,35.24836938595399,13.221850828328416,10.512289116488452,146,24,0.0,16399,384281354765983,35,22.4,-576.6849365234375,0.8075000047683716,16,0.0,0.0,1.57542003E9,,,,0,,1,0.8,1.57542003E9,359.0,NaN,NaN
Raw,232721919273426,649526188000000,,,-1265581155242008709,-0.90753173828125,35.24836938595399,13.221850828328416,10.512289116488452,146,28,0.0,16399,384281358334920,5,40.1,207.72091674804688,0.04560000076889992,17,2553.3875557963383,7.42145288706399E-4,1.57542003E9,,,,0,,1,0.8,1.57542003E9,359.0,NaN,NaN
Raw,232721919273426,649526188000000,,,-1265581155242008709,-0.90753173828125,35.24836938595399,13.221850828328416,10.512289116488452,146,30,0.0,16399,384281351694011,5,40.6,597.2567749023438,0.035100001841783524,17,7462.374532068863,7.42145288706399E-4,1.57542003E9,,,,0,,1,0.8,1.57542003E9,359.0,NaN,NaN
Raw,232721919273426,649526188000000,,,-1265581155242008709,-0.90753173828125,35.24836938595399,13.221850828328416,10.512289116488452,146,14,0.0,49359,49463366165633,12,32.0,-7.621367454528809,0.2305999994277954,25,-97.07708476977417,0.0017821758057520194,1.59806246E9,,,,0,,3,-0.36,1.59806246E9,359.0,NaN,NaN
Raw,232721919273426,649526188000000,,,-1265581155242008709,-0.90753173828125,35.24836938595399,13.221850828328416,10.512289116488452,146,22,0.0,49359,49463352575009,24,25.7,-137.35897827148438,0.25130000710487366,25,-1670.6023568713292,0.18733370372433672,1.60031245E9,,,,0,,3,-0.36,1.60031245E9,359.0,NaN,NaN
Raw,232721919273426,649526188000000,,,-1265581155242008709,-0.90753173828125,35.24836938595399,13.221850828328416,10.512289116488452,146,13,0.0,49359,49463358683670,10,34.5,652.9298095703125,0.2476000040769577,25,7900.855426420639,0.001498143056722028,1.60087501E9,,,,0,,3,-0.36,1.60087501E9,359.0,NaN,NaN
Raw,232721919273426,649526188000000,,,-1265581155242008709,-0.90753173828125,35.24836938595399,13.221850828328416,10.512289116488452,146,15,0.0,49359,49463358385734,17,28.6,-645.2177124023438,0.25220000743865967,25,-7812.5315807239085,0.0029567544367518762,1.602E9,,,,0,,3,-0.36,1.602E9,359.0,NaN,NaN
Raw,232721919273426,649526188000000,,,-1265581155242008709,-0.90753173828125,35.24836938595399,13.221850828328416,10.512289116488452,146,5,0.0,49359,49463361240941,19,27.1,-540.4852294921875,0.21230000257492065,21,-6532.906232212612,0.0031802016284280693,1.60256256E9,,,,0,,3,-0.36,1.60256256E9,359.0,NaN,NaN
Raw,232721919273426,649526188000000,,,-1265581155242008709,-0.90753173828125,35.24836938595399,13.221850828328416,10.512289116488452,146,3,0.0,49359,49463355360702,6,39.3,783.8095703125,0.24130000174045563,25,9480.232319918981,8.219569400701237E-4,1.60481254E9,,,,0,,3,-0.36,1.60481254E9,359.0,NaN,NaN
Raw,232721919273426,649526188000000,,,-1265581155242008709,-0.90753173828125,35.24836938595399,13.221850828328416,10.512289116488452,146,4,0.0,49359,49463365470783,6,38.4,231.18072509765625,0.22660000622272491,25,2787.063646293459,9.150404631835356E-4,1.60537498E9,,,,0,,3,-0.36,1.60537498E9,359.0,NaN,NaN
Raw,232721919273426,649526188000000,,,-1265581155242008709,-0.90753173828125,35.24836938595399,13.221850828328416,10.512289116488452,146,37,0.0,16399,384267350203251,9,35.5,487.8856201171875,0.035100001841783524,17,6065.811756483757,0.0013442764594430532,1.56109798E9,,,,0,,5,0.7,1.56109798E9,359.0,NaN,NaN
Raw,232721919273426,649526188000000,,,-1265581155242008709,-0.90753173828125,35.24836938595399,13.221850828328416,10.512289116488452,146,28,0.0,16399,384267342128573,53,19.7,-397.40655517578125,1.6694999933242798,16,0.0,0.0,1.56109798E9,,,,0,,5,0.7,1.56109798E9,359.0,NaN,NaN
Raw,232721919273426,649526188000000,,,-1265581155242008709,-0.90753173828125,35.24836938595399,13.221850828328416,10.512289116488452,146,22,0.0,16399,384267350318501,6,39.6,-388.8954772949219,0.03380000218749046,17,-4838.294562268672,8.449737438469402E-4,1.56109798E9,,,,0,,5,0.7,1.56109798E9,359.0,NaN,NaN
Raw,232721919273426,649526188000000,,,-1265581155242008709,-0.90753173828125,35.24836938595399,13.221850828328416,10.512289116488452,146,20,0.0,16399,384267346734029,16,29.2,645.396484375,0.03290000185370445,25,6809.109938681524,0.0028421844273806814,1.56109798E9,,,,0,,5,0.7,1.56109798E9,359.0,NaN,NaN
Raw,232721919273426,649526188000000,,,-1265581155242008709,-0.90753173828125,35.24836938595399,13.221850828328416,10.512289116488452,146,19,0.0,16399,384267356389417,27,24.0,218.80593872070312,0.06530000269412994,21,2208.2257629925543,0.1920394882785269,1.56109798E9,,,,0,,5,0.7,1.56109798E9,359.0,NaN,NaN
Raw,232721919273426,649526188000000,,,-1265581155242008709,-0.90753173828125,35.24836938595399,13.221850828328416,10.512289116488452,146,10,0.0,16399,384267297541351,11,33.9,174.26351928710938,0.04670000076293945,17,1407.526343729126,0.0016707435714883973,1.56109798E9,,,,0,,5,0.7,1.56109798E9,359.0,NaN,NaN
Raw,232721919273426,649526188000000,,,-1265581155242008709,-0.90753173828125,35.24836938595399,13.221850828328416,10.512289116488452,146,1,0.0,23567,384281345402542,5,41.7,399.0001220703125,0.043800003826618195,25,4946.771536878905,0.001484290577412798,1.57542003E9,,,,0,,6,0.8,1.57542003E9,359.0,NaN,NaN
Raw,232721919273426,649526188000000,,,-1265581155242008709,-0.90753173828125,35.24836938595399,13.221850828328416,10.512289116488452,146,4,0.0,23567,384281343357981,9,35.4,509.8037414550781,0.048600003123283386,25,6322.467228383225,0.0028924638165555576,1.57542003E9,,,,0,,6,0.8,1.57542003E9,359.0,NaN,NaN
Raw,232721919273426,649526188000000,,,-1265581155242008709,-0.90753173828125,35.24836938595399,13.221850828328416,10.512289116488452,146,5,0.0,23567,384281345107200,8,36.1,-413.9771423339844,0.045100003480911255,25,-5133.453738595786,0.0025499350854412276,1.57542003E9,,,,0,,6,0.8,1.57542003E9,359.0,NaN,NaN
Raw,232721919273426,649526188000000,,,-1265581155242008709,-0.90753173828125,35.24836938595399,13.221850828328416,10.512289116488452,146,9,0.0,23567,384281358259107,6,38.5,72.98573303222656,0.04610000178217888,25,901.5258391422796,0.0020551716777868216,1.57542003E9,,,,0,,6,0.8,1.57542003E9,359.0,NaN,NaN
Raw,232721919273426,649526188000000,,,-1265581155242008709,-0.90753173828125,35.24836938595399,13.221850828328416,10.512289116488452,146,24,0.0,23567,384281348491036,21,26.6,-545.080810546875,0.050700001418590546,19,-302.4001649885129,0.011874324619302384,1.57542003E9,,,,0,,6,0.8,1.57542003E9,359.0,NaN,NaN
Raw,232721919273426,649526188000000,,,-1265581155242008709,-0.90753173828125,35.24836938595399,13.221850828328416,10.512289116488452,146,31,0.0,23567,384281351312917,9,35.0,-129.6300048828125,0.048600003123283386,25,-1610.3037286965666,0.0028924638165555576,1.57542003E9,,,,0,,6,0.8,1.57542003E9,359.0,NaN,NaN
Raw,232721919273426,649526188000000,,,-1265581155242008709,-0.90753173828125,35.24836938595399,13.221850828328416,10.512289116488452,146,24,0.0,81935,384281354773780,14,17.9,-576.2935791015625,1.097499966621399,16,0.0,0.0,1.17645005E9,,,,0,,1,3.69,1.17645005E9,359.0,NaN,NaN
Raw,232721919273426,649526188000000,,,-1265581155242008709,-0.90753173828125,35.24836938595399,13.221850828328416,10.512289116488452,146,30,0.0,81935,384281351701836,3,33.1,597.2386474609375,0.041999999433755875,25,3203.2006074079086,0.0022170039651624013,1.17645005E9,,,,0,,1,3.69,1.17645005E9,359.0,NaN,NaN
Raw,232721919273426,649526188000000,,,-1265581155242008709,-0.90753173828125,35.24836938595399,13.221850828328416,10.512289116488452,146,1,0.0,81935,384281345409631,6,26.8,398.7172546386719,0.04960000142455101,27,2519.65122844819,0.007288081858568245,1.17645005E9,,,,0,,6,3.69,1.17645005E9,359.0,NaN,NaN
Raw,232721919273426,649526188000000,,,-1265581155242008709,-0.90753173828125,35.24836938595399,13.221850828328416,10.512289116488452,146,4,0.0,81935,384281343365096,5,28.0,509.55255126953125,0.03759999945759773,25,3217.9122693378613,0.0040262828122019055,1.17645005E9,,,,0,,6,3.69,1.17645005E9,359.0,NaN,NaN
Raw,232721919273426,649526188000000,,,-1265581155242008709,-0.90753173828125,35.24836938595399,13.221850828328416,10.512289116488452,146,5,0.0,81935,384281345114300,3,32.1,-414.21478271484375,0.0340999998152256,25,-2607.5653176765886,0.0024208662868967453,1.17645005E9,,,,0,,6,3.69,1.17645005E9,359.0,NaN,NaN
Raw,232721919273426,649526188000000,,,-1265581155242008709,-0.90753173828125,35.24836938595399,13.221850828328416,10.512289116488452,146,9,0.0,81935,384281358266216,3,31.1,72.79332733154297,0.05480000376701355,25,463.1342441058383,0.0027776256465907277,1.17645005E9,,,,0,,6,3.69,1.17645005E9,359.0,NaN,NaN
Raw,232721919273426,649526188000000,,,-1265581155242008709,-0.90753173828125,35.24836938595399,13.221850828328416,10.512289116488452,146,31,0.0,81935,384281351320015,3,32.8,-129.8463134765625,0.04309999942779541,25,-815.5155217591412,0.0024208662868967453,1.17645005E9,,,,0,,6,3.69,1.17645005E9,359.0,NaN,NaN
Fix,gps,51.524696,-0.134216,73.316650,0.000000,3.790092,1582195465000,232722900747483
Raw,232722922756912,649527188000000,,,-1265581155242008697,-0.4278092384338379,34.52537930570543,11.01725932820181,10.600538816443088,146,5,0.0,16399,384282348616268,24,25.7,730.1703491210938,0.04529999941587448,25,9703.763036649258,0.19029366893311156,1.57542003E9,,,,0,,1,0.93,1.57542003E9,359.0,NaN,NaN
Raw,232722922756912,649527188000000,,,-1265581155242008697,-0.4278092384338379,34.52537930570543,11.01725932820181,10.600538816443088,146,13,0.0,16399,384282361923650,7,37.3,239.4651641845703,0.020899999886751175,25,3223.0351697086517,0.0010085564157135064,1.57542003E9,,,,0,,1,0.93,1.57542003E9,359.0,NaN,NaN
Raw,232722922756912,649527188000000,,,-1265581155242008697,-0.4278092384338379,34.52537930570543,11.01725932820181,10.600538816443088,146,15,0.0,16399,384282362380544,19,27.1,-92.72647857666016,0.028800001367926598,25,-1238.7386273266327,0.003234992547669888,1.57542003E9,,,,0,,1,0.93,1.57542003E9,359.0,NaN,NaN
Raw,232722922756912,649527188000000,,,-1265581155242008697,-0.4278092384338379,34.52537930570543,11.01725932820181,10.600538816443088,146,17,0.0,16399,384282347842597,46,20.6,-532.2704467773438,0.9269999861717224,16,0.0,0.0,1.57542003E9,,,,0,,1,0.93,1.57542003E9,359.0,NaN,NaN
Raw,232722922756912,649527188000000,,,-1265581155242008697,-0.4278092384338379,34.52537930570543,11.01725932820181,10.600538816443088,146,20,0.0,16399,384282353586102,9,35.7,-337.0316467285156,0.03959999978542328,25,-4488.794074145025,0.0013320557236479321,1.57542003E9,,,,0,,1,0.93,1.57542003E9,359.0,NaN,NaN
Raw,232722922756912,649527188000000,,,-1265581155242008697,-0.4278092384338379,34.52537930570543,11.01725932820181,10.600538816443088,146,24,0.0,16399,384282354767848,21,26.6,-576.2496948242188,0.047700002789497375,27,-7663.232068487995,0.005442398901996786,1.57542003E9,,,,0,,1,0.93,1.57542003E9,359.0,NaN,NaN
Raw,232722922756912,649527188000000,,,-1265581155242008697,-0.4278092384338379,34.52537930570543,11.01725932820181,10.600538816443088,146,28,0.0,16399,384282358334252,5,40.0,207.95933532714844,0.04560000076889992,25,2761.265641537178,7.42145288706399E-4,1.57542003E9,,,,0,,1,0.93,1.57542003E9,359.0,NaN,NaN
Raw,232722922756912,649527188000000,,,-1265581155242008697,-0.4278092384338379,34.52537930570543,11.01725932820181,10.600538816443088,146,30,0.0,16399,384282351692012,5,41.8,597.4187622070312,0.03480000048875809,25,8059.748336242071,6.850571963914755E-4,1.57542003E9,,,,0,,1,0.93,1.57542003E9,359.0,NaN,NaN
Raw,232722922756912,649527188000000,,,-1265581155242008697,-0.4278092384338379,34.52537930570543,11.01725932820181,10.600538816443088,146,14,0.0,49359,49464366165691,9,35.0,-7.3466668128967285,0.22910000383853912,25,-104.59340897606151,0.0013131822554185268,1.59806246E9,,,,0,,3,-0.26,1.59806246E9,359.0,NaN,NaN
Raw,232722922756912,649527188000000,,,-1265581155242008697,-0.4278092384338379,34.52537930570543,11.01725932820181,10.600538816443088,146,22,0.0,49359,49464352575209,24,25.4,-137.06427001953125,0.25130000710487366,29,-1807.8474741986372,0.18733370372433672,1.60031245E9,,,,0,,3,-0.26,1.60031245E9,359.0,NaN,NaN
Raw,232722922756912,649527188000000,,,-1265581155242008697,-0.4278092384338379,34.52537930570543,11.01725932820181,10.600538816443088,146,13,0.0,49359,49464358681519,11,33.4,653.1018676757812,0.24819999933242798,25,8553.79685865203,0.0016292305196830812,1.60087501E9,,,,0,,3,-0.26,1.60087501E9,359.0,NaN,NaN
Raw,232722922756912,649527188000000,,,-1265581155242008697,-0.4278092384338379,34.52537930570543,11.01725932820181,10.600538816443088,146,15,0.0,49359,49464358387764,70,17.2,-644.974853515625,1.3034999370574951,16,0.0,0.0,1.602E9,,,,0,,3,-0.26,1.602E9,359.0,NaN,NaN
Raw,232722922756912,649527188000000,,,-1265581155242008697,-0.4278092384338379,34.52537930570543,11.01725932820181,10.600538816443088,146,5,0.0,49359,49464361242607,10,34.0,-540.2672729492188,0.22210000455379486,25,-7073.343427780976,0.0014965654619530243,1.60256256E9,,,,0,,3,-0.26,1.60256256E9,359.0,NaN,NaN
Raw,232722922756912,649527188000000,,,-1265581155242008697,-0.4278092384338379,34.52537930570543,11.01725932820181,10.600538816443088,146,3,0.0,49359,49464355358148,8,36.1,783.9462280273438,0.24210000038146973,25,10264.055268997314,0.0011395311965536827,1.60481254E9,,,,0,,3,-0.26,1.60481254E9,359.0,NaN,NaN
Raw,232722922756912,649527188000000,,,-1265581155242008697,-0.4278092384338379,34.52537930570543,11.01725932820181,10.600538816443088,146,4,0.0,49359,49464365469971,6,38.8,231.43861389160156,0.22660000622272491,25,3018.323073384954,9.150404631835356E-4,1.60537498E9,,,,0,,3,-0.26,1.60537498E9,359.0,NaN,NaN
Raw,232722922756912,649527188000000,,,-1265581155242008697,-0.4278092384338379,34.52537930570543,11.01725932820181,10.600538816443088,146,37,0.0,16399,384268350201595,6,38.6,488.0458984375,0.0340999998152256,17,6553.712151974414,9.409935037250662E-4,1.56109798E9,,,,0,,5,0.9,1.56109798E9,359.0,NaN,NaN
Raw,232722922756912,649527188000000,,,-1265581155242008697,-0.4278092384338379,34.52537930570543,11.01725932820181,10.600538816443088,146,28,0.0,16399,384268342129917,61,18.9,-397.0224609375,0.999500036239624,16,0.0,0.0,1.56109798E9,,,,0,,5,0.9,1.56109798E9,359.0,NaN,NaN
Raw,232722922756912,649527188000000,,,-1265581155242008697,-0.4278092384338379,34.52537930570543,11.01725932820181,10.600538816443088,146,22,0.0,16399,384268350319792,5,40.2,-388.6969299316406,0.03360000252723694,17,-5227.1430591280305,7.489539839688142E-4,1.56109798E9,,,,0,,5,0.9,1.56109798E9,359.0,NaN,NaN
Raw,232722922756912,649527188000000,,,-1265581155242008697,-0.4278092384338379,34.52537930570543,11.01725932820181,10.600538816443088,146,20,0.0,16399,384268346731824,11,33.9,645.6151123046875,0.03020000085234642,25,7454.551038441184,0.0016707435714883973,1.56109798E9,,,,0,,5,0.9,1.56109798E9,359.0,NaN,NaN
Raw,232722922756912,649527188000000,,,-1265581155242008697,-0.4278092384338379,34.52537930570543,11.01725932820181,10.600538816443088,146,19,0.0,16399,384268356388681,16,29.9,219.21017456054688,0.0479000024497509,17,2427.2834139588376,0.0028421844273806814,1.56109798E9,,,,0,,5,0.9,1.56109798E9,359.0,NaN,NaN
Raw,232722922756912,649527188000000,,,-1265581155242008697,-0.4278092384338379,34.52537930570543,11.01725932820181,10.600538816443088,146,10,0.0,16399,384268297540759,12,32.9,174.40602111816406,0.0471000038087368,17,1581.788943971226,0.0018243750799829725,1.56109798E9,,,,0,,5,0.9,1.56109798E9,359.0,NaN,NaN
Raw,232722922756912,649527188000000,,,-1265581155242008697,-0.4278092384338379,34.52537930570543,11.01725932820181,10.600538816443088,146,1,0.0,23567,384282345401219,4,42.2,399.1264343261719,0.04360000044107437,25,5345.755040265605,0.0012749675427206138,1.57542003E9,,,,0,,6,0.93,1.57542003E9,359.0,NaN,NaN
Raw,232722922756912,649527188000000,,,-1265581155242008697,-0.4278092384338379,34.52537930570543,11.01725932820181,10.600538816443088,146,4,0.0,23567,384282343356304,9,35.5,509.92193603515625,0.048600003123283386,25,6832.242962270986,0.0028924638165555576,1.57542003E9,,,,0,,6,0.93,1.57542003E9,359.0,NaN,NaN
Raw,232722922756912,649527188000000,,,-1265581155242008697,-0.4278092384338379,34.52537930570543,11.01725932820181,10.600538816443088,146,5,0.0,23567,384282345108595,9,35.3,-413.8731994628906,0.04560000076889992,25,-5547.450213754566,0.0028924638165555576,1.57542003E9,,,,0,,6,0.93,1.57542003E9,359.0,NaN,NaN
Raw,232722922756912,649527188000000,,,-1265581155242008697,-0.4278092384338379,34.52537930570543,11.01725932820181,10.600538816443088,146,9,0.0,23567,384282358258881,7,37.1,73.11186981201172,0.046400003135204315,25,974.499123223701,0.0021883771969841777,1.57542003E9,,,,0,,6,0.93,1.57542003E9,359.0,NaN,NaN
Raw,232722922756912,649527188000000,,,-1265581155242008697,-0.4278092384338379,34.52537930570543,11.01725932820181,10.600538816443088,146,24,0.0,23567,384282348492841,19,27.2,-544.9893188476562,0.049800001084804535,21,-847.5465370206352,0.007212130206821385,1.57542003E9,,,,0,,6,0.93,1.57542003E9,359.0,NaN,NaN
Raw,232722922756912,649527188000000,,,-1265581155242008697,-0.4278092384338379,34.52537930570543,11.01725932820181,10.600538816443088,146,31,0.0,23567,384282351313366,10,34.3,-129.4814910888672,0.04910000041127205,25,-1739.9356381991238,0.003311109885939926,1.57542003E9,,,,0,,6,0.93,1.57542003E9,359.0,NaN,NaN
Raw,232722922756912,649527188000000,,,-1265581155242008697,-0.4278092384338379,34.52537930570543,11.01725932820181,10.600538816443088,146,24,0.0,81935,384282354775714,9,21.4,-576.9179077148438,0.8075000047683716,16,0.0,0.0,1.17645005E9,,,,0,,1,3.19,1.17645005E9,359.0,NaN,NaN
Raw,232722922756912,649527188000000,,,-1265581155242008697,-0.4278092384338379,34.52537930570543,11.01725932820181,10.600538816443088,146,30,0.0,81935,384282351699844,3,32.1,597.4346923828125,0.04309999942779541,25,3800.4877294473017,0.0024208662868967453,1.17645005E9,,,,0,,1,3.19,1.17645005E9,359.0,NaN,NaN
Raw,232722922756912,649527188000000,,,-1265581155242008697,-0.4278092384338379,34.52537930570543,11.01725932820181,10.600538816443088,146,1,0.0,81935,384282345408304,6,25.1,399.263671875,0.06199999898672104,29,2918.689036466101,0.010753742989341824,1.17645005E9,,,,0,,6,3.19,1.17645005E9,359.0,NaN,NaN
Raw,232722922756912,649527188000000,,,-1265581155242008697,-0.4278092384338379,34.52537930570543,11.01725932820181,10.600538816443088,146,4,0.0,81935,384282343363387,4,29.9,509.9624328613281,0.03550000116229057,25,3727.6931348951925,0.0037714549693657518,1.17645005E9,,,,0,,6,3.19,1.17645005E9,359.0,NaN,NaN
Raw,232722922756912,649527188000000,,,-1265581155242008697,-0.4278092384338379,34.52537930570543,11.01725932820181,10.600538816443088,146,5,0.0,81935,384282345115679,3,32.9,-413.8479919433594,0.0340999998152256,25,-3021.547182570472,0.0024208662868967453,1.17645005E9,,,,0,,6,3.19,1.17645005E9,359.0,NaN,NaN
Raw,232722922756912,649527188000000,,,-1265581155242008697,-0.4278092384338379,34.52537930570543,11.01725932820181,10.600538816443088,146,9,0.0,81935,384282358265978,3,32.0,73.18582153320312,0.0536000020802021,25,536.1164019305685,0.0024208662868967453,1.17645005E9,,,,0,,6,3.19,1.17645005E9,359.0,NaN,NaN
Raw,232722922756912,649527188000000,,,-1265581155242008697,-0.4278092384338379,34.52537930570543,11.01725932820181,10.600538816443088,146,31,0.0,81935,384282351320452,3,32.3,-129.51719665527344,0.04309999942779541,25,-945.1557667844208,0.0024208662868967453,1.17645005E9,,,,0,,6,3.19,1.17645005E9,359.0,NaN,NaN
Fix,gps,51.524696,-0.134216,73.110474,0.000000,3.790092,1582195466000,232723907284458
Raw,232723925579981,649528188000000,,,-1265581155242008691,-0.7364969849586487,33.66521559655666,11.415535734583726,9.537309148061922,146,5,0.0,16399,384283348613875,24,25.5,730.5845336914062,0.04529999941587448,21,10434.017292427627,0.19029366893311156,1.57542003E9,,,,0,,1,0.75,1.57542003E9,359.0,NaN,NaN
Raw,232723925579981,649528188000000,,,-1265581155242008691,-0.7364969849586487,33.66521559655666,11.415535734583726,9.537309148061922,146,13,0.0,16399,384283361922850,8,36.7,239.9748992919922,0.006100000347942114,25,3462.701333124318,0.001160791358090767,1.57542003E9,,,,0,,1,0.75,1.57542003E9,359.0,NaN,NaN
Raw,232723925579981,649528188000000,,,-1265581155242008691,-0.7364969849586487,33.66521559655666,11.415535734583726,9.537309148061922,146,15,0.0,16399,384283362380777,17,28.9,-92.1397705078125,0.028200000524520874,21,-1331.2371114701034,0.0030066398239606148,1.57542003E9,,,,0,,1,0.75,1.57542003E9,359.0,NaN,NaN
Raw,232723925579981,649528188000000,,,-1265581155242008691,-0.7364969849586487,33.66521559655666,11.415535734583726,9.537309148061922,146,17,0.0,16399,384283347844352,35,22.6,-530.4149169921875,0.392300009727478,19,-1299.892905700011,0.19029366893311156,1.57542003E9,,,,0,,1,0.75,1.57542003E9,359.0,NaN,NaN
Raw,232723925579981,649528188000000,,,-1265581155242008691,-0.7364969849586487,33.66521559655666,11.415535734583726,9.537309148061922,146,20,0.0,16399,384283353587226,10,34.9,-336.5809631347656,0.04010000079870224,25,-4825.654964509027,0.0015223494237726067,1.57542003E9,,,,0,,1,0.75,1.57542003E9,359.0,NaN,NaN
Raw,232723925579981,649528188000000,,,-1265581155242008691,-0.7364969849586487,33.66521559655666,11.415535734583726,9.537309148061922,146,24,0.0,16399,384283354769772,17,28.6,-575.7930297851562,0.04620000347495079,25,-8239.30067696288,0.0030066398239606148,1.57542003E9,,,,0,,1,0.75,1.57542003E9,359.0,NaN,NaN
Raw,232723925579981,649528188000000,,,-1265581155242008691,-0.7364969849586487,33.66521559655666,11.415535734583726,9.537309148061922,146,28,0.0,16399,384283358333572,6,39.8,208.4723358154297,0.04580000042915344,25,2969.452075364033,8.372921387687362E-4,1.57542003E9,,,,0,,1,0.75,1.57542003E9,359.0,NaN,NaN
Raw,232723925579981,649528188000000,,,-1265581155242008691,-0.7364969849586487,33.66521559655666,11.415535734583726,9.537309148061922,146,30,0.0,16399,384283351690018,5,41.2,597.861572265625,0.03480000048875809,25,8657.355342388031,6.850571963914755E-4,1.57542003E9,,,,0,,1,0.75,1.57542003E9,359.0,NaN,NaN
Raw,232723925579981,649528188000000,,,-1265581155242008691,-0.7364969849586487,33.66521559655666,11.415535734583726,9.537309148061922,146,14,0.0,49359,49465366165689,8,36.8,-6.8069257736206055,0.22860001027584076,25,-111.72917501344203,0.0011443444794587703,1.59806246E9,,,,0,,3,-0.3,1.59806246E9,359.0,NaN,NaN
Raw,232723925579981,649528188000000,,,-1265581155242008691,-0.7364969849586487,33.66521559655666,11.415535734583726,9.537309148061922,146,22,0.0,49359,49465352575721,31,23.9,-136.68008422851562,0.32919999957084656,21,-1944.7876980148233,0.18733370372433672,1.60031245E9,,,,0,,3,-0.3,1.60031245E9,359.0,NaN,NaN
Raw,232723925579981,649528188000000,,,-1265581155242008691,-0.7364969849586487,33.66521559655666,11.415535734583726,9.537309148061922,146,13,0.0,49359,49465358679358,12,32.9,653.5527954101562,0.24860000610351562,25,9207.098466909982,0.0017790447381518853,1.60087501E9,,,,0,,3,-0.3,1.60087501E9,359.0,NaN,NaN
Raw,232723925579981,649528188000000,,,-1265581155242008691,-0.7364969849586487,33.66521559655666,11.415535734583726,9.537309148061922,146,15,0.0,49359,49465358389924,35,22.3,-643.9549560546875,0.953499972820282,16,0.0,0.0,1.602E9,,,,0,,3,-0.3,1.602E9,359.0,NaN,NaN
Raw,232723925579981,649528188000000,,,-1265581155242008691,-0.7364969849586487,33.66521559655666,11.415535734583726,9.537309148061922,146,5,0.0,49359,49465361244412,10,34.2,-539.734375,0.2071000039577484,25,-7613.384711588382,0.0014965654619530243,1.60256256E9,,,,0,,3,-0.3,1.60256256E9,359.0,NaN,NaN
Raw,232723925579981,649528188000000,,,-1265581155242008691,-0.7364969849586487,33.66521559655666,11.415535734583726,9.537309148061922,146,3,0.0,49359,49465355355529,7,37.6,784.48583984375,0.2418999969959259,25,11048.230068535217,9.900844722691658E-4,1.60481254E9,,,,0,,3,-0.3,1.60481254E9,359.0,NaN,NaN
Raw,232723925579981,649528188000000,,,-1265581155242008691,-0.7364969849586487,33.66521559655666,11.415535734583726,9.537309148061922,146,4,0.0,49359,49465365469202,5,40.2,232.03773498535156,0.22609999775886536,25,3250.015041791505,7.282974831186631E-4,1.60537498E9,,,,0,,3,-0.3,1.60537498E9,359.0,NaN,NaN
Raw,232723925579981,649528188000000,,,-1265581155242008691,-0.7364969849586487,33.66521559655666,11.415535734583726,9.537309148061922,146,37,0.0,16399,384269350199963,8,36.1,488.5188293457031,0.03460000082850456,17,7041.951952282623,0.0011714408558922843,1.56109798E9,,,,0,,5,0.73,1.56109798E9,359.0,NaN,NaN
Raw,232723925579981,649528188000000,,,-1265581155242008691,-0.7364969849586487,33.66521559655666,11.415535734583726,9.537309148061922,146,28,0.0,16399,384269342131238,61,18.0,-396.7344055175781,1.0644999742507935,16,0.0,0.0,1.56109798E9,,,,0,,5,0.73,1.56109798E9,359.0,NaN,NaN
Raw,232723925579981,649528188000000,,,-1265581155242008691,-0.7364969849586487,33.66521559655666,11.415535734583726,9.537309148061922,146,22,0.0,16399,384269350321089,6,39.7,-388.2528991699219,0.03380000218749046,17,-5615.670146424089,8.449737438469402E-4,1.56109798E9,,,,0,,5,0.73,1.56109798E9,359.0,NaN,NaN
Raw,232723925579981,649528188000000,,,-1265581155242008691,-0.7364969849586487,33.66521559655666,11.415535734583726,9.537309148061922,146,20,0.0,16399,384269346729652,10,34.0,646.077880859375,0.029600001871585846,25,8100.338682918316,0.001536315979199305,1.56109798E9,,,,0,,5,0.73,1.56109798E9,359.0,NaN,NaN
Raw,232723925579981,649528188000000,,,-1265581155242008691,-0.7364969849586487,33.66521559655666,11.415535734583726,9.537309148061922,146,19,0.0,16399,384269356387968,14,30.6,219.74758911132812,0.04690000042319298,17,2646.6994882030135,0.0024196975554572116,1.56109798E9,,,,0,,5,0.73,1.56109798E9,359.0,NaN,NaN
Raw,232723925579981,649528188000000,,,-1265581155242008691,-0.7364969849586487,33.66521559655666,11.415535734583726,9.537309148061922,146,10,0.0,16399,384269297540162,10,34.3,174.8114013671875,0.04610000178217888,17,1756.3651390608184,0.001536315979199305,1.56109798E9,,,,0,,5,0.73,1.56109798E9,359.0,NaN,NaN
Raw,232723925579981,649528188000000,,,-1265581155242008691,-0.7364969849586487,33.66521559655666,11.415535734583726,9.537309148061922,146,5,0.0,17167,384269293958225,40,21.4,17.677236557006836,9.831299781799316,16,0.0,0.0,1.56109798E9,,,,0,,5,0.73,1.56109798E9,359.0,NaN,NaN
Raw,232723925579981,649528188000000,,,-1265581155242008691,-0.7364969849586487,33.66521559655666,11.415535734583726,9.537309148061922,146,1,0.0,23567,384283345399887,5,41.6,399.57354736328125,0.043800003826618195,25,5745.082223216314,0.001484290577412798,1.57542003E9,,,,0,,6,0.75,1.57542003E9,359.0,NaN,NaN
Raw,232723925579981,649528188000000,,,-1265581155242008691,-0.7364969849586487,33.66521559655666,11.415535734583726,9.537309148061922,146,4,0.0,23567,384283343354610,8,36.7,510.37255859375,0.048100002110004425,25,7342.354875042944,0.0025499350854412276,1.57542003E9,,,,0,,6,0.75,1.57542003E9,359.0,NaN,NaN
Raw,232723925579981,649528188000000,,,-1265581155242008691,-0.7364969849586487,33.66521559655666,11.415535734583726,9.537309148061922,146,5,0.0,23567,384283345109978,11,33.6,-413.4727478027344,0.04670000076293945,25,-5961.1593016668485,0.003596550258902148,1.57542003E9,,,,0,,6,0.75,1.57542003E9,359.0,NaN,NaN
Raw,232723925579981,649528188000000,,,-1265581155242008691,-0.7364969849586487,33.66521559655666,11.415535734583726,9.537309148061922,146,9,0.0,23567,384283358258635,7,37.2,73.58845520019531,0.046400003135204315,25,1047.8147376428735,0.0021883771969841777,1.57542003E9,,,,0,,6,0.75,1.57542003E9,359.0,NaN,NaN
Raw,232723925579981,649528188000000,,,-1265581155242008691,-0.7364969849586487,33.66521559655666,11.415535734583726,9.537309148061922,146,24,0.0,23567,384283348494655,24,25.6,-544.5890502929688,0.05730000138282776,21,-1392.401725517493,0.017526047264890512,1.57542003E9,,,,0,,6,0.75,1.57542003E9,359.0,NaN,NaN
Raw,232723925579981,649528188000000,,,-1265581155242008691,-0.7364969849586487,33.66521559655666,11.415535734583726,9.537309148061922,146,31,0.0,23567,384283351313787,10,34.8,-129.0147705078125,0.04910000041127205,25,-1869.2151343926075,0.003311109885939926,1.57542003E9,,,,0,,6,0.75,1.57542003E9,359.0,NaN,NaN
Raw,232723925579981,649528188000000,,,-1265581155242008691,-0.7364969849586487,33.66521559655666,11.415535734583726,9.537309148061922,146,24,0.0,81935,384283354777637,10,20.1,-575.8712158203125,0.09670000523328781,27,-4231.798422960528,0.25482803839368795,1.17645005E9,,,,0,,1,3.58,1.17645005E9,359.0,NaN,NaN
Raw,232723925579981,649528188000000,,,-1265581155242008691,-0.7364969849586487,33.66521559655666,11.415535734583726,9.537309148061922,146,30,0.0,81935,384283351697841,3,32.0,597.8621826171875,0.04309999942779541,25,4398.103425632604,0.0024208662868967453,1.17645005E9,,,,0,,1,3.58,1.17645005E9,359.0,NaN,NaN
Raw,232723925579981,649528188000000,,,-1265581155242008691,-0.7364969849586487,33.66521559655666,11.415535734583726,9.537309148061922,146,1,0.0,81935,384283345406967,10,20.6,399.5448913574219,0.8539999723434448,16,0.0,0.0,1.17645005E9,,,,0,,6,3.58,1.17645005E9,359.0,NaN,NaN
Raw,232723925579981,649528188000000,,,-1265581155242008691,-0.7364969849586487,33.66521559655666,11.415535734583726,9.537309148061922,146,4,0.0,81935,384283343361684,4,30.0,510.3818054199219,0.03370000049471855,25,4237.813418617553,0.0032108332879374254,1.17645005E9,,,,0,,6,3.58,1.17645005E9,359.0,NaN,NaN
Raw,232723925579981,649528188000000,,,-1265581155242008691,-0.7364969849586487,33.66521559655666,11.415535734583726,9.537309148061922,146,5,0.0,81935,384283345117058,3,32.8,-413.55584716796875,0.0340999998152256,25,-3435.255565041341,0.0024208662868967453,1.17645005E9,,,,0,,6,3.58,1.17645005E9,359.0,NaN,NaN
Raw,232723925579981,649528188000000,,,-1265581155242008691,-0.7364969849586487,33.66521559655666,11.415535734583726,9.537309148061922,146,9,0.0,81935,384283358265736,3,31.4,73.53211212158203,0.05480000376701355,25,609.4367053194649,0.0027776256465907277,1.17645005E9,,,,0,,6,3.58,1.17645005E9,359.0,NaN,NaN
Raw,232723925579981,649528188000000,,,-1265581155242008691,-0.7364969849586487,33.66521559655666,11.415535734583726,9.537309148061922,146,31,0.0,81935,384283351320881,3,33.7,-129.069580078125,0.041999999433755875,25,-1074.426691623275,0.0022170039651624013,1.17645005E9,,,,0,,6,3.58,1.17645005E9,359.0,NaN,NaN
Fix,gps,51.524697,-0.134217,73.081787,0.000000,3.790092,1582195467000,232724900669869
Raw,232724927161695,649529188000000,,,-1265581155242008680,-0.9629574418067932,34.61710366536863,12.69411576164735,9.536602145229912,146,5,0.0,16399,384284348611466,16,29.0,730.9910888671875,0.03590000048279762,17,11164.974004218497,0.00281634630106073,1.57542003E9,,,,0,,1,0.66,1.57542003E9,359.0,NaN,NaN
Raw,232724927161695,649529188000000,,,-1265581155242008680,-0.9629574418067932,34.61710366536863,12.69411576164735,9.536602145229912,146,13,0.0,16399,384284361922053,7,37.1,240.4320068359375,0.020899999886751175,25,3703.0982285869823,0.0010085564157135064,1.57542003E9,,,,0,,1,0.66,1.57542003E9,359.0,NaN,NaN
Raw,232724927161695,649529188000000,,,-1265581155242008680,-0.9629574418067932,34.61710366536863,12.69411576164735,9.536602145229912,146,15,0.0,16399,384284362381083,12,32.6,-91.65054321289062,0.02460000105202198,17,-1422.932257226643,0.001807789796734829,1.57542003E9,,,,0,,1,0.66,1.57542003E9,359.0,NaN,NaN
Raw,232724927161695,649529188000000,,,-1265581155242008680,-0.9629574418067932,34.61710366536863,12.69411576164735,9.536602145229912,146,17,0.0,16399,384284347846024,35,22.7,-530.005859375,0.392300009727478,17,-1829.9054981749694,0.19029366893311156,1.57542003E9,,,,0,,1,0.66,1.57542003E9,359.0,NaN,NaN
Raw,232724927161695,649529188000000,,,-1265581155242008680,-0.9629574418067932,34.61710366536863,12.69411576164735,9.536602145229912,146,20,0.0,16399,384284353588361,10,34.9,-336.05401611328125,0.04010000079870224,25,-5161.77850012512,0.0015223494237726067,1.57542003E9,,,,0,,1,0.66,1.57542003E9,359.0,NaN,NaN
Raw,232724927161695,649529188000000,,,-1265581155242008680,-0.9629574418067932,34.61710366536863,12.69411576164735,9.536602145229912,146,24,0.0,16399,384284354771665,16,29.3,-575.3585815429688,0.04490000009536743,25,-8814.686833318989,0.00281634630106073,1.57542003E9,,,,0,,1,0.66,1.57542003E9,359.0,NaN,NaN
Raw,232724927161695,649529188000000,,,-1265581155242008680,-0.9629574418067932,34.61710366536863,12.69411576164735,9.536602145229912,146,28,0.0,16399,384284358332878,6,39.0,208.97308349609375,0.04580000042915344,25,3178.352205236479,8.372921387687362E-4,1.57542003E9,,,,0,,1,0.66,1.57542003E9,359.0,NaN,NaN
Raw,232724927161695,649529188000000,,,-1265581155242008680,-0.9629574418067932,34.61710366536863,12.69411576164735,9.536602145229912,146,30,0.0,16399,384284351688028,5,40.5,598.2631225585938,0.035100001841783524,25,9255.595467606505,7.42145288706399E-4,1.57542003E9,,,,0,,1,0.66,1.57542003E9,359.0,NaN,NaN
Raw,232724927161695,649529188000000,,,-1265581155242008680,-0.9629574418067932,34.61710366536863,12.69411576164735,9.536602145229912,146,14,0.0,49359,49466366165714,10,34.1,-6.272764682769775,0.22960001230239868,25,-118.06946002905164,0.0015007797454374234,1.59806246E9,,,,0,,3,-0.38,1.59806246E9,359.0,NaN,NaN
Raw,232724927161695,649529188000000,,,-1265581155242008680,-0.9629574418067932,34.61710366536863,12.69411576164735,9.536602145229912,146,22,0.0,49359,49466352576264,27,24.5,-135.99652099609375,0.25929999351501465,29,-2080.922509555969,0.18733370372433672,1.60031245E9,,,,0,,3,-0.38,1.60031245E9,359.0,NaN,NaN
Raw,232724927161695,649529188000000,,,-1265581155242008680,-0.9629574418067932,34.61710366536863,12.69411576164735,9.536602145229912,146,13,0.0,49359,49466358677105,11,33.3,654.0016479492188,0.24819999933242798,25,9861.046796738026,0.0016292305196830812,1.60087501E9,,,,0,,3,-0.38,1.60087501E9,359.0,NaN,NaN
Raw,232724927161695,649529188000000,,,-1265581155242008680,-0.9629574418067932,34.61710366536863,12.69411576164735,9.536602145229912,146,15,0.0,49359,49466358392148,27,24.9,-644.2398681640625,0.26829999685287476,27,-9746.126568545522,0.18713636579275905,1.602E9,,,,0,,3,-0.38,1.602E9,359.0,NaN,NaN
Raw,232724927161695,649529188000000,,,-1265581155242008680,-0.9629574418067932,34.61710366536863,12.69411576164735,9.536602145229912,146,5,0.0,49359,49466361246198,11,33.8,-539.2765502929688,0.22269999980926514,25,-8152.704755407635,0.0016275148854291823,1.60256256E9,,,,0,,3,-0.38,1.60256256E9,359.0,NaN,NaN
Raw,232724927161695,649529188000000,,,-1265581155242008680,-0.9629574418067932,34.61710366536863,12.69411576164735,9.536602145229912,146,21,0.0,49359,49466349516628,181,10.5,475.78094482421875,8.695000648498535,16,0.0,0.0,1.60424998E9,,,,0,,3,-0.38,1.60424998E9,359.0,NaN,NaN
Raw,232724927161695,649529188000000,,,-1265581155242008680,-0.9629574418067932,34.61710366536863,12.69411576164735,9.536602145229912,146,3,0.0,49359,49466355352907,7,37.3,784.9171142578125,0.2418999969959259,25,11833.118497388235,9.900844722691658E-4,1.60481254E9,,,,0,,3,-0.38,1.60481254E9,359.0,NaN,NaN
Raw,232724927161695,649529188000000,,,-1265581155242008680,-0.9629574418067932,34.61710366536863,12.69411576164735,9.536602145229912,146,4,0.0,49359,49466365468465,6,39.8,232.56077575683594,0.22630000114440918,25,3482.5066238226204,8.216689731510993E-4,1.60537498E9,,,,0,,3,-0.38,1.60537498E9,359.0,NaN,NaN
Raw,232724927161695,649529188000000,,,-1265581155242008680,-0.9629574418067932,34.61710366536863,12.69411576164735,9.536602145229912,146,37,0.0,16399,384270350198339,6,38.7,488.93310546875,0.0340999998152256,17,7530.865204124528,9.409935037250662E-4,1.56109798E9,,,,0,,5,0.57,1.56109798E9,359.0,NaN,NaN
Raw,232724927161695,649529188000000,,,-1265581155242008680,-0.9629574418067932,34.61710366536863,12.69411576164735,9.536602145229912,146,22,0.0,16399,384270350322385,6,38.1,-387.77239990234375,0.0340999998152256,17,-6003.490855380696,9.409935037250662E-4,1.56109798E9,,,,0,,5,0.57,1.56109798E9,359.0,NaN,NaN
Raw,232724927161695,649529188000000,,,-1265581155242008680,-0.9629574418067932,34.61710366536863,12.69411576164735,9.536602145229912,146,20,0.0,16399,384270346727504,11,33.1,646.4769287109375,0.03020000085234642,25,8746.79373196543,0.0016707435714883973,1.56109798E9,,,,0,,5,0.57,1.56109798E9,359.0,NaN,NaN
Raw,232724927161695,649529188000000,,,-1265581155242008680,-0.9629574418067932,34.61710366536863,12.69411576164735,9.536602145229912,146,19,0.0,16399,384270356387202,12,32.1,220.21878051757812,0.04560000076889992,17,2866.864675627441,0.0018243750799829725,1.56109798E9,,,,0,,5,0.57,1.56109798E9,359.0,NaN,NaN
Raw,232724927161695,649529188000000,,,-1265581155242008680,-0.9629574418067932,34.61710366536863,12.69411576164735,9.536602145229912,146,10,0.0,16399,384270297539636,17,28.8,175.1805419921875,0.050700001418590546,17,1931.536694862907,0.003034223768286223,1.56109798E9,,,,0,,5,0.57,1.56109798E9,359.0,NaN,NaN
Raw,232724927161695,649529188000000,,,-1265581155242008680,-0.9629574418067932,34.61710366536863,12.69411576164735,9.536602145229912,146,1,0.0,23567,384284345398548,4,42.1,400.033203125,0.04360000044107437,25,6145.0718885240685,0.0012749675427206138,1.57542003E9,,,,0,,6,0.64,1.57542003E9,359.0,NaN,NaN
Raw,232724927161695,649529188000000,,,-1265581155242008680,-0.9629574418067932,34.61710366536863,12.69411576164735,9.536602145229912,146,4,0.0,23567,384284343352897,8,36.0,510.8371276855469,0.048100002110004425,25,7853.159000024908,0.0025499350854412276,1.57542003E9,,,,0,,6,0.64,1.57542003E9,359.0,NaN,NaN
Raw,232724927161695,649529188000000,,,-1265581155242008680,-0.9629574418067932,34.61710366536863,12.69411576164735,9.536602145229912,146,5,0.0,23567,384284345111361,12,32.9,-412.9713134765625,0.0471000038087368,25,-6374.196181463749,0.003958108324583987,1.57542003E9,,,,0,,6,0.64,1.57542003E9,359.0,NaN,NaN
Raw,232724927161695,649529188000000,,,-1265581155242008680,-0.9629574418067932,34.61710366536863,12.69411576164735,9.536602145229912,146,9,0.0,23567,384284358258390,7,37.0,74.09950256347656,0.046400003135204315,25,1121.8507460049427,0.0021883771969841777,1.57542003E9,,,,0,,6,0.64,1.57542003E9,359.0,NaN,NaN
Raw,232724927161695,649529188000000,,,-1265581155242008680,-0.9629574418067932,34.61710366536863,12.69411576164735,9.536602145229912,146,24,0.0,23567,384284348496449,21,26.4,-544.0923461914062,0.050700001418590546,21,-1936.588707908157,0.011874324619302384,1.57542003E9,,,,0,,6,0.64,1.57542003E9,359.0,NaN,NaN
Raw,232724927161695,649529188000000,,,-1265581155242008680,-0.9629574418067932,34.61710366536863,12.69411576164735,9.536602145229912,146,31,0.0,23567,384284351314240,11,33.2,-128.5127410888672,0.04970000311732292,25,-1997.7698787729735,0.003596550258902148,1.57542003E9,,,,0,,6,0.64,1.57542003E9,359.0,NaN,NaN
Raw,232724927161695,649529188000000,,,-1265581155242008680,-0.9629574418067932,34.61710366536863,12.69411576164735,9.536602145229912,146,24,0.0,81935,384284354779354,11,19.1,-574.1148071289062,0.9375,16,0.0,0.0,1.17645005E9,,,,0,,1,0.63,1.17645005E9,359.0,NaN,NaN
Raw,232724927161695,649529188000000,,,-1265581155242008680,-0.9629574418067932,34.61710366536863,12.69411576164735,9.536602145229912,146,30,0.0,81935,384284351695851,3,31.1,598.2786865234375,0.04430000111460686,25,4996.335278690779,0.0027776256465907277,1.17645005E9,,,,0,,1,0.63,1.17645005E9,359.0,NaN,NaN
Raw,232724927161695,649529188000000,,,-1265581155242008680,-0.9629574418067932,34.61710366536863,12.69411576164735,9.536602145229912,146,1,0.0,81935,384284345405631,9,21.6,400.0392150878906,0.05290000140666962,27,3716.749082067908,0.34557229348499413,1.17645005E9,,,,0,,6,0.63,1.17645005E9,359.0,NaN,NaN
Raw,232724927161695,649529188000000,,,-1265581155242008680,-0.9629574418067932,34.61710366536863,12.69411576164735,9.536602145229912,146,4,0.0,81935,384284343359978,5,28.0,510.8294982910156,0.03759999945759773,25,4748.61193673879,0.0040262828122019055,1.17645005E9,,,,0,,6,0.63,1.17645005E9,359.0,NaN,NaN
Raw,232724927161695,649529188000000,,,-1265581155242008680,-0.9629574418067932,34.61710366536863,12.69411576164735,9.536602145229912,146,5,0.0,81935,384284345118436,3,31.0,-412.9203796386719,0.03530000150203705,25,-3848.285655106212,0.0027776256465907277,1.17645005E9,,,,0,,6,0.63,1.17645005E9,359.0,NaN,NaN
Raw,232724927161695,649529188000000,,,-1265581155242008680,-0.9629574418067932,34.61710366536863,12.69411576164735,9.536602145229912,146,9,0.0,81935,384284358265489,4,29.8,74.224365234375,0.058000002056360245,25,683.4798498446517,0.0037714549693657518,1.17645005E9,,,,0,,6,0.63,1.17645005E9,359.0,NaN,NaN
Raw,232724927161695,649529188000000,,,-1265581155242008680,-0.9629574418067932,34.61710366536863,12.69411576164735,9.536602145229912,146,24,0.0,81935,384284348503386,20,14.2,-544.4401245117188,5.118500232696533,16,0.0,0.0,1.17645005E9,,,,0,,6,0.63,1.17645005E9,359.0,NaN,NaN
Raw,232724927161695,649529188000000,,,-1265581155242008680,-0.9629574418067932,34.61710366536863,12.69411576164735,9.536602145229912,146,31,0.0,81935,384284351321309,3,32.1,-128.46441650390625,0.04309999942779541,25,-1202.9774131410295,0.0024208662868967453,1.17645005E9,,,,0,,6,0.63,1.17645005E9,359.0,NaN,NaN
Fix,gps,51.524698,-0.134219,73.046875,0.000000,3.790092,1582195468000,232725898466062
Raw,232725916551846,649530188000000,,,-1265581155242008668,-0.9516901969909668,35.42763806763105,14.004657247446247,9.540393239155888,146,5,0.0,16399,384285348609008,19,27.7,730.4901733398438,0.037800002843141556,17,11895.558825308477,0.003234992547669888,1.57542003E9,,,,0,,1,1.02,1.57542003E9,359.0,NaN,NaN
Raw,232725916551846,649530188000000,,,-1265581155242008668,-0.9516901969909668,35.42763806763105,14.004657247446247,9.540393239155888,146,13,0.0,16399,384285361921259,8,36.0,240.04969787597656,0.02110000140964985,25,3943.2032319993414,0.001160791358090767,1.57542003E9,,,,0,,1,1.02,1.57542003E9,359.0,NaN,NaN
Raw,232725916551846,649530188000000,,,-1265581155242008668,-0.9516901969909668,35.42763806763105,14.004657247446247,9.540393239155888,146,15,0.0,16399,384285362381408,13,31.1,-92.060302734375,0.025100000202655792,17,-1514.950717812077,0.002074201012354331,1.57542003E9,,,,0,,1,1.02,1.57542003E9,359.0,NaN,NaN
Raw,232725916551846,649530188000000,,,-1265581155242008668,-0.9516901969909668,35.42763806763105,14.004657247446247,9.540393239155888,146,17,0.0,16399,384285347847775,24,25.8,-530.490234375,0.043800000101327896,17,-2360.290136666555,0.19029366893311156,1.57542003E9,,,,0,,1,1.02,1.57542003E9,359.0,NaN,NaN
Raw,232725916551846,649530188000000,,,-1265581155242008668,-0.9516901969909668,35.42763806763105,14.004657247446247,9.540393239155888,146,20,0.0,16399,384285353589480,9,35.9,-336.4831237792969,0.03959999978542328,25,-5498.194925620441,0.0013320557236479321,1.57542003E9,,,,0,,1,1.02,1.57542003E9,359.0,NaN,NaN
Raw,232725916551846,649530188000000,,,-1265581155242008668,-0.9516901969909668,35.42763806763105,14.004657247446247,9.540393239155888,146,24,0.0,16399,384285354773608,17,28.8,-575.8074951171875,0.04620000347495079,25,-9390.430324053697,0.0030066398239606148,1.57542003E9,,,,0,,1,1.02,1.57542003E9,359.0,NaN,NaN
Raw,232725916551846,649530188000000,,,-1265581155242008668,-0.9516901969909668,35.42763806763105,14.004657247446247,9.540393239155888,146,28,0.0,16399,384285358332183,5,40.6,208.57969665527344,0.04560000076889992,25,3386.988899598629,7.42145288706399E-4,1.57542003E9,,,,0,,1,1.02,1.57542003E9,359.0,NaN,NaN
Raw,232725916551846,649530188000000,,,-1265581155242008668,-0.9516901969909668,35.42763806763105,14.004657247446247,9.540393239155888,146,30,0.0,16399,384285351686016,5,41.5,597.8035888671875,0.03480000048875809,25,9853.495326119622,6.850571963914755E-4,1.57542003E9,,,,0,,1,1.02,1.57542003E9,359.0,NaN,NaN
Raw,232725916551846,649530188000000,,,-1265581155242008668,-0.9516901969909668,35.42763806763105,14.004657247446247,9.540393239155888,146,14,0.0,49359,49467366165723,11,33.3,-6.661984443664551,0.23020000755786896,25,-124.6892937871537,0.0016320979185651513,1.59806246E9,,,,0,,3,-0.21,1.59806246E9,359.0,NaN,NaN
Raw,232725916551846,649530188000000,,,-1265581155242008668,-0.9516901969909668,35.42763806763105,14.004657247446247,9.540393239155888,146,22,0.0,49359,49467352576539,24,25.8,-136.31658935546875,0.25130000710487366,25,-2217.222118638521,0.18733370372433672,1.60031245E9,,,,0,,3,-0.21,1.60031245E9,359.0,NaN,NaN
Raw,232725916551846,649530188000000,,,-1265581155242008668,-0.9516901969909668,35.42763806763105,14.004657247446247,9.540393239155888,146,13,0.0,49359,49467358674944,11,33.4,653.5638427734375,0.24819999933242798,25,10514.69510478149,0.0016292305196830812,1.60087501E9,,,,0,,3,-0.21,1.60087501E9,359.0,NaN,NaN
Raw,232725916551846,649530188000000,,,-1265581155242008668,-0.9516901969909668,35.42763806763105,14.004657247446247,9.540393239155888,146,15,0.0,49359,49467358394335,27,24.8,-644.5261840820312,0.26829999685287476,25,-10390.561001286813,0.18713636579275905,1.602E9,,,,0,,3,-0.21,1.602E9,359.0,NaN,NaN
Raw,232725916551846,649530188000000,,,-1265581155242008668,-0.9516901969909668,35.42763806763105,14.004657247446247,9.540393239155888,146,5,0.0,49359,49467361248008,11,33.7,-539.65234375,0.2076999992132187,25,-8692.309140678914,0.0016275148854291823,1.60256256E9,,,,0,,3,-0.21,1.60256256E9,359.0,NaN,NaN
Raw,232725916551846,649530188000000,,,-1265581155242008668,-0.9516901969909668,35.42763806763105,14.004657247446247,9.540393239155888,146,3,0.0,49359,49467355350276,7,37.2,784.4569091796875,0.2418999969959259,25,12617.655850926305,9.900844722691658E-4,1.60481254E9,,,,0,,3,-0.21,1.60481254E9,359.0,NaN,NaN
Raw,232725916551846,649530188000000,,,-1265581155242008668,-0.9516901969909668,35.42763806763105,14.004657247446247,9.540393239155888,146,4,0.0,49359,49467365467677,6,38.9,232.2056427001953,0.22660000622272491,25,3714.754318318585,9.150404631835356E-4,1.60537498E9,,,,0,,3,-0.21,1.60537498E9,359.0,NaN,NaN
Raw,232725916551846,649530188000000,,,-1265581155242008668,-0.9516901969909668,35.42763806763105,14.004657247446247,9.540393239155888,146,37,0.0,16399,384271350196715,5,40.1,488.4688415527344,0.03360000252723694,25,8019.428154783631,7.489539839688142E-4,1.56109798E9,,,,0,,5,0.93,1.56109798E9,359.0,NaN,NaN
Raw,232725916551846,649530188000000,,,-1265581155242008668,-0.9516901969909668,35.42763806763105,14.004657247446247,9.540393239155888,146,28,0.0,16399,384271342133854,80,16.9,-397.34893798828125,1.9194999933242798,16,0.0,0.0,1.56109798E9,,,,0,,5,0.93,1.56109798E9,359.0,NaN,NaN
Raw,232725916551846,649530188000000,,,-1265581155242008668,-0.9516901969909668,35.42763806763105,14.004657247446247,9.540393239155888,146,22,0.0,16399,384271350323678,6,39.6,-388.2181091308594,0.03380000218749046,25,-6391.630245539933,8.449737438469402E-4,1.56109798E9,,,,0,,5,0.93,1.56109798E9,359.0,NaN,NaN
Raw,232725916551846,649530188000000,,,-1265581155242008668,-0.9516901969909668,35.42763806763105,14.004657247446247,9.540393239155888,146,20,0.0,16399,384271346725354,10,34.0,645.9924926757812,0.029600001871585846,25,9392.884915307379,0.001536315979199305,1.56109798E9,,,,0,,5,0.93,1.56109798E9,359.0,NaN,NaN
Raw,232725916551846,649530188000000,,,-1265581155242008668,-0.9516901969909668,35.42763806763105,14.004657247446247,9.540393239155888,146,19,0.0,16399,384271356386478,13,31.9,219.79991149902344,0.04610000178217888,25,3086.8198797665823,0.0020932304434118673,1.56109798E9,,,,0,,5,0.93,1.56109798E9,359.0,NaN,NaN
Raw,232725916551846,649530188000000,,,-1265581155242008668,-0.9516901969909668,35.42763806763105,14.004657247446247,9.540393239155888,146,10,0.0,16399,384271297539028,14,30.7,174.7100372314453,0.04840000346302986,25,2106.4591690607886,0.0024196975554572116,1.56109798E9,,,,0,,5,0.93,1.56109798E9,359.0,NaN,NaN
Raw,232725916551846,649530188000000,,,-1265581155242008668,-0.9516901969909668,35.42763806763105,14.004657247446247,9.540393239155888,146,1,0.0,23567,384285345397219,4,42.7,399.57476806640625,0.04360000044107437,25,6544.746541207321,0.0012749675427206138,1.57542003E9,,,,0,,6,0.96,1.57542003E9,359.0,NaN,NaN
Raw,232725916551846,649530188000000,,,-1265581155242008668,-0.9516901969909668,35.42763806763105,14.004657247446247,9.540393239155888,146,4,0.0,23567,384285343351194,9,35.2,510.3345031738281,0.048600003123283386,25,8363.6081948708,0.0028924638165555576,1.57542003E9,,,,0,,6,0.96,1.57542003E9,359.0,NaN,NaN
Raw,232725916551846,649530188000000,,,-1265581155242008668,-0.9516901969909668,35.42763806763105,14.004657247446247,9.540393239155888,146,5,0.0,23567,384285345112738,10,34.3,-413.51654052734375,0.04610000178217888,25,-6787.5923892359315,0.003311109885939926,1.57542003E9,,,,0,,6,0.96,1.57542003E9,359.0,NaN,NaN
Raw,232725916551846,649530188000000,,,-1265581155242008668,-0.9516901969909668,35.42763806763105,14.004657247446247,9.540393239155888,146,9,0.0,23567,384285358258141,7,37.1,73.64105224609375,0.046400003135204315,25,1195.5713484460357,0.0021883771969841777,1.57542003E9,,,,0,,6,0.96,1.57542003E9,359.0,NaN,NaN
Raw,232725916551846,649530188000000,,,-1265581155242008668,-0.9516901969909668,35.42763806763105,14.004657247446247,9.540393239155888,146,24,0.0,23567,384285348498246,21,26.9,-544.6964721679688,0.050700001418590546,25,-2481.0373114756158,0.011874324619302384,1.57542003E9,,,,0,,6,0.96,1.57542003E9,359.0,NaN,NaN
Raw,232725916551846,649530188000000,,,-1265581155242008668,-0.9516901969909668,35.42763806763105,14.004657247446247,9.540393239155888,146,31,0.0,23567,384285351314659,10,34.0,-128.94873046875,0.04910000041127205,25,-2126.635296218306,0.003311109885939926,1.57542003E9,,,,0,,6,0.96,1.57542003E9,359.0,NaN,NaN
Raw,232725916551846,649530188000000,,,-1265581155242008668,-0.9516901969909668,35.42763806763105,14.004657247446247,9.540393239155888,146,24,0.0,81935,384285354781460,11,19.9,-575.8046875,0.06639999896287918,27,-5382.9009595514035,0.25482803839368795,1.17645005E9,,,,0,,1,4.77,1.17645005E9,359.0,NaN,NaN
Raw,232725916551846,649530188000000,,,-1265581155242008668,-0.9516901969909668,35.42763806763105,14.004657247446247,9.540393239155888,146,30,0.0,81935,384285351693857,3,31.6,597.8048095703125,0.04430000111460686,25,5594.236192587749,0.0027776256465907277,1.17645005E9,,,,0,,1,4.77,1.17645005E9,359.0,NaN,NaN
Raw,232725916551846,649530188000000,,,-1265581155242008668,-0.9516901969909668,35.42763806763105,14.004657247446247,9.540393239155888,146,1,0.0,81935,384285345404298,5,28.6,399.71014404296875,0.0406000018119812,25,4116.417807850806,0.0040262828122019055,1.17645005E9,,,,0,,6,4.77,1.17645005E9,359.0,NaN,NaN
Raw,232725916551846,649530188000000,,,-1265581155242008668,-0.9516901969909668,35.42763806763105,14.004657247446247,9.540393239155888,146,4,0.0,81935,384285343358279,4,29.9,510.4405212402344,0.03550000116229057,25,5259.045120477028,0.0037714549693657518,1.17645005E9,,,,0,,6,4.77,1.17645005E9,359.0,NaN,NaN
Raw,232725916551846,649530188000000,,,-1265581155242008668,-0.9516901969909668,35.42763806763105,14.004657247446247,9.540393239155888,146,5,0.0,81935,384285345119814,3,32.6,-413.4320373535156,0.0340999998152256,25,-4261.683008183079,0.0024208662868967453,1.17645005E9,,,,0,,6,4.77,1.17645005E9,359.0,NaN,NaN
Raw,232725916551846,649530188000000,,,-1265581155242008668,-0.9516901969909668,35.42763806763105,14.004657247446247,9.540393239155888,146,9,0.0,81935,384285358265242,3,32.3,73.71821594238281,0.0536000020802021,25,757.1944411791958,0.0024208662868967453,1.17645005E9,,,,0,,6,4.77,1.17645005E9,359.0,NaN,NaN
Raw,232725916551846,649530188000000,,,-1265581155242008668,-0.9516901969909668,35.42763806763105,14.004657247446247,9.540393239155888,146,31,0.0,81935,384285351321740,3,32.7,-128.83131408691406,0.04309999942779541,25,-1331.8574725114122,0.0024208662868967453,1.17645005E9,,,,0,,6,4.77,1.17645005E9,359.0,NaN,NaN
Fix,gps,51.524698,-0.134221,73.090332,0.000000,3.790092,1582195469000,232726899765641
Raw,232726916759185,649531188000000,,,-1265581155242008656,-0.27452731132507324,34.71596573945135,12.183043375884482,9.527154233369078,146,5,0.0,16399,384286348606587,19,27.7,730.7557373046875,0.037800002843141556,17,12626.146248213114,0.003234992547669888,1.57542003E9,,,,0,,1,0.86,1.57542003E9,359.0,NaN,NaN
Raw,232726916759185,649531188000000,,,-1265581155242008656,-0.27452731132507324,34.71596573945135,12.183043375884482,9.527154233369078,146,13,0.0,16399,384286361920454,9,35.4,240.4139862060547,0.02160000056028366,25,4183.375566352565,0.0013320557236479321,1.57542003E9,,,,0,,1,0.86,1.57542003E9,359.0,NaN,NaN
Raw,232726916759185,649531188000000,,,-1265581155242008656,-0.27452731132507324,34.71596573945135,12.183043375884482,9.527154233369078,146,15,0.0,16399,384286362381714,12,32.6,-91.68476104736328,0.02460000105202198,17,-1606.8775482345643,0.001807789796734829,1.57542003E9,,,,0,,1,0.86,1.57542003E9,359.0,NaN,NaN
Raw,232726916759185,649531188000000,,,-1265581155242008656,-0.27452731132507324,34.71596573945135,12.183043375884482,9.527154233369078,146,17,0.0,16399,384286347849541,21,26.5,-530.1630249023438,0.03720000013709068,17,-2890.6669326487804,0.005442398901996786,1.57542003E9,,,,0,,1,0.86,1.57542003E9,359.0,NaN,NaN
Raw,232726916759185,649531188000000,,,-1265581155242008656,-0.27452731132507324,34.71596573945135,12.183043375884482,9.527154233369078,146,20,0.0,16399,384286353590589,8,36.1,-336.0810241699219,0.039100002497434616,25,-5834.5035553585785,0.001160791358090767,1.57542003E9,,,,0,,1,0.86,1.57542003E9,359.0,NaN,NaN
Raw,232726916759185,649531188000000,,,-1265581155242008656,-0.27452731132507324,34.71596573945135,12.183043375884482,9.527154233369078,146,24,0.0,16399,384286354775508,17,28.3,-575.5191650390625,0.04620000347495079,25,-9966.151533316171,0.0030066398239606148,1.57542003E9,,,,0,,1,0.86,1.57542003E9,359.0,NaN,NaN
Raw,232726916759185,649531188000000,,,-1265581155242008656,-0.27452731132507324,34.71596573945135,12.183043375884482,9.527154233369078,146,28,0.0,16399,384286358331478,5,40.5,208.951416015625,0.04560000076889992,25,3595.7140115949965,7.42145288706399E-4,1.57542003E9,,,,0,,1,0.86,1.57542003E9,359.0,NaN,NaN
Raw,232726916759185,649531188000000,,,-1265581155242008656,-0.27452731132507324,34.71596573945135,12.183043375884482,9.527154233369078,146,30,0.0,16399,384286351684016,5,41.0,598.083251953125,0.03480000048875809,25,10451.389181613318,6.850571963914755E-4,1.57542003E9,,,,0,,1,0.86,1.57542003E9,359.0,NaN,NaN
Raw,232726916759185,649531188000000,,,-1265581155242008656,-0.27452731132507324,34.71596573945135,12.183043375884482,9.527154233369078,146,14,0.0,49359,49468366165747,12,32.9,-6.259476184844971,0.2305999994277954,25,-131.19200987183916,0.0017821758057520194,1.59806246E9,,,,0,,3,-0.31,1.59806246E9,359.0,NaN,NaN
Raw,232726916759185,649531188000000,,,-1265581155242008656,-0.27452731132507324,34.71596573945135,12.183043375884482,9.527154233369078,146,22,0.0,49359,49468352576801,35,22.7,-135.8938751220703,0.5997999906539917,29,-2353.3945946742915,0.18733370372433672,1.60031245E9,,,,0,,3,-0.31,1.60031245E9,359.0,NaN,NaN
Raw,232726916759185,649531188000000,,,-1265581155242008656,-0.27452731132507324,34.71596573945135,12.183043375884482,9.527154233369078,146,13,0.0,49359,49468358672764,11,33.4,653.8834838867188,0.24819999933242798,25,11168.37072077152,0.0016292305196830812,1.60087501E9,,,,0,,3,-0.31,1.60087501E9,359.0,NaN,NaN
Raw,232726916759185,649531188000000,,,-1265581155242008656,-0.27452731132507324,34.71596573945135,12.183043375884482,9.527154233369078,146,15,0.0,49359,49468358396640,24,25.6,-644.1488037109375,0.26030001044273376,25,-11034.94735093201,0.18713636579275905,1.602E9,,,,0,,3,-0.31,1.602E9,359.0,NaN,NaN
Raw,232726916759185,649531188000000,,,-1265581155242008656,-0.27452731132507324,34.71596573945135,12.183043375884482,9.527154233369078,146,5,0.0,49359,49468361249880,11,33.7,-539.2869873046875,0.22269999980926514,25,-9231.825428773192,0.0016275148854291823,1.60256256E9,,,,0,,3,-0.31,1.60256256E9,359.0,NaN,NaN
Raw,232726916759185,649531188000000,,,-1265581155242008656,-0.27452731132507324,34.71596573945135,12.183043375884482,9.527154233369078,146,3,0.0,49359,49468355347665,7,37.1,784.7784423828125,0.2418999969959259,25,13402.231411761866,9.900844722691658E-4,1.60481254E9,,,,0,,3,-0.31,1.60481254E9,359.0,NaN,NaN
Raw,232726916759185,649531188000000,,,-1265581155242008656,-0.27452731132507324,34.71596573945135,12.183043375884482,9.527154233369078,146,4,0.0,49359,49468365466893,6,39.4,232.62847900390625,0.22630000114440918,25,3947.134735838625,8.216689731510993E-4,1.60537498E9,,,,0,,3,-0.31,1.60537498E9,359.0,NaN,NaN
Raw,232726916759185,649531188000000,,,-1265581155242008656,-0.27452731132507324,34.71596573945135,12.183043375884482,9.527154233369078,146,37,0.0,16399,384272350195086,6,39.7,488.7867431640625,0.03380000218749046,25,8508.010570767292,8.449737438469402E-4,1.56109798E9,,,,0,,5,0.75,1.56109798E9,359.0,NaN,NaN
Raw,232726916759185,649531188000000,,,-1265581155242008656,-0.27452731132507324,34.71596573945135,12.183043375884482,9.527154233369078,146,22,0.0,16399,384272350324972,6,39.4,-387.8623962402344,0.03380000218749046,25,-6779.705639647418,8.449737438469402E-4,1.56109798E9,,,,0,,5,0.75,1.56109798E9,359.0,NaN,NaN
Raw,232726916759185,649531188000000,,,-1265581155242008656,-0.27452731132507324,34.71596573945135,12.183043375884482,9.527154233369078,146,20,0.0,16399,384272346723192,10,34.6,646.3320922851562,0.029600001871585846,25,10038.996511154606,0.001536315979199305,1.56109798E9,,,,0,,5,0.75,1.56109798E9,359.0,NaN,NaN
Raw,232726916759185,649531188000000,,,-1265581155242008656,-0.27452731132507324,34.71596573945135,12.183043375884482,9.527154233369078,146,19,0.0,16399,384272356385740,13,31.3,220.16612243652344,0.04610000178217888,25,3306.763707148734,0.0020932304434118673,1.56109798E9,,,,0,,5,0.75,1.56109798E9,359.0,NaN,NaN
