# 
# Header Description:
# 
# Version: v2.0.0.1 Platform: 10 Manufacturer: Google Model: Pixel 4
# 
# Raw,ElapsedRealtimeNanos,TimeNanos,LeapSecond,TimeUncertaintyNanos,FullBiasNanos,BiasNanos,BiasUncertaintyNanos,DriftNanosPerSecond,DriftUncertaintyNanosPerSecond,HardwareClockDiscontinuityCount,Svid,TimeOffsetNanos,State,ReceivedSvTimeNanos,ReceivedSvTimeUncertaintyNanos,Cn0DbHz,PseudorangeRateMetersPerSecond,PseudorangeRateUncertaintyMetersPerSecond,AccumulatedDeltaRangeState,AccumulatedDeltaRangeMeters,AccumulatedDeltaRangeUncertaintyMeters,CarrierFrequencyHz,CarrierCycles,CarrierPhase,CarrierPhaseUncertainty,MultipathIndicator,SnrInDb,ConstellationType,AgcDb,CarrierFrequencyHz,UserLatitude,UserLongitude,UserAltitude
# 
# Fix,Provider,Latitude,Longitude,Altitude,Speed,Accuracy,(UTC)TimeInMs,ElapsedRealtimeNanos
# 
# Nav,Svid,Type,Status,MessageId,Sub-messageId,Data(Bytes)
# 
Fix,gps,51.524520,-0.134271,78.252808,0.000000,3.790092,1582194459000,231716892155078
Raw,231716908345757,648521155000000,,,-1265581155278329736,-0.5009784698486328,41.62509139860049,23.723126129045767,15.598438859933651,68,5,0.0,16399,383276354347265,24,25.5,713.0526733398438,0.05430000275373459,17,21787.62823511253,0.19029366893311156,1.57542003E9,,,,0,,1,0.35,1.57542003E9,301.0,NaN,NaN
Raw,231716908345757,648521155000000,,,-1265581155278329736,-0.5009784698486328,41.62509139860049,23.723126129045767,15.598438859933651,68,13,0.0,16399,383276365878692,24,25.7,148.2362060546875,0.040800001472234726,21,4709.441693525058,0.19029366893311156,1.57542003E9,,,,0,,1,0.35,1.57542003E9,301.0,NaN,NaN
Raw,231716908345757,648521155000000,,,-1265581155278329736,-0.5009784698486328,41.62509139860049,23.723126129045767,15.598438859933651,68,15,0.0,16399,383276365199084,70,17.2,-195.16517639160156,1.9240000247955322,16,0.0,0.0,1.57542003E9,,,,0,,1,0.35,1.57542003E9,301.0,NaN,NaN
Raw,231716908345757,648521155000000,,,-1265581155278329736,-0.5009784698486328,41.62509139860049,23.723126129045767,15.598438859933651,68,17,0.0,16399,383276349318973,53,19.1,-554.4301147460938,1.0099999904632568,16,0.0,0.0,1.57542003E9,,,,0,,1,0.35,1.57542003E9,301.0,NaN,NaN
Raw,231716908345757,648521155000000,,,-1265581155278329736,-0.5009784698486328,41.62509139860049,23.723126129045767,15.598438859933651,68,20,0.0,16399,383276355583318,31,23.8,-439.26129150390625,0.13369999825954437,17,-14162.993526450178,0.19029366893311156,1.57542003E9,,,,0,,1,0.35,1.57542003E9,301.0,NaN,NaN
Raw,231716908345757,648521155000000,,,-1265581155278329736,-0.5009784698486328,41.62509139860049,23.723126129045767,15.598438859933651,68,24,0.0,16399,383276356066324,27,24.3,-617.7614135742188,0.06530000269412994,21,-16417.27498354137,0.19029366893311156,1.57542003E9,,,,0,,1,0.35,1.57542003E9,301.0,NaN,NaN
Raw,231716908345757,648521155000000,,,-1265581155278329736,-0.5009784698486328,41.62509139860049,23.723126129045767,15.598438859933651,68,28,0.0,16399,383276362154151,14,30.9,98.14573669433594,0.02590000070631504,25,3008.0807968050244,0.002397700231676362,1.57542003E9,,,,0,,1,0.35,1.57542003E9,301.0,NaN,NaN
Raw,231716908345757,648521155000000,,,-1265581155278329736,-0.5009784698486328,41.62509139860049,23.723126129045767,15.598438859933651,68,30,0.0,16399,383276356956453,12,32.4,569.3350830078125,0.04560000076889992,25,18634.79080979592,0.001807789796734829,1.57542003E9,,,,0,,1,0.35,1.57542003E9,301.0,NaN,NaN
Raw,231716908345757,648521155000000,,,-1265581155278329736,-0.5009784698486328,41.62509139860049,23.723126129045767,15.598438859933651,68,14,0.0,49359,48458369220261,14,30.7,-142.10202026367188,0.23640000820159912,25,-4773.345854495802,0.0023637279898678486,1.59806246E9,,,,0,,3,-3.31,1.59806246E9,301.0,NaN,NaN
Raw,231716908345757,648521155000000,,,-1265581155278329736,-0.5009784698486328,41.62509139860049,23.723126129045767,15.598438859933651,68,22,0.0,49359,48458355158161,21,26.5,-290.52008056640625,0.2492000013589859,25,-9564.412767870921,0.005357743897484537,1.60031245E9,,,,0,,3,-3.31,1.60031245E9,301.0,NaN,NaN
Raw,231716908345757,648521155000000,,,-1265581155278329736,-0.5009784698486328,41.62509139860049,23.723126129045767,15.598438859933651,68,15,0.0,49359,48458359412655,13,31.7,-711.1514892578125,0.25060001015663147,25,-23054.17757242318,0.0020397864077763375,1.602E9,,,,0,,3,-3.31,1.602E9,301.0,NaN,NaN
Raw,231716908345757,648521155000000,,,-1265581155278329736,-0.5009784698486328,41.62509139860049,23.723126129045767,15.598438859933651,68,5,0.0,49359,48458362577163,4,42.9,-629.4005737304688,0.22110000252723694,25,-20420.192486695203,5.799191056178505E-4,1.60256256E9,,,,0,,3,-3.31,1.60256256E9,301.0,NaN,NaN
Raw,231716908345757,648521155000000,,,-1265581155278329736,-0.5009784698486328,41.62509139860049,23.723126129045767,15.598438859933651,68,3,0.0,49359,48458361191888,40,21.1,720.2398071289062,0.9879999756813049,16,0.0,0.0,1.60481254E9,,,,0,,3,-3.31,1.60481254E9,301.0,NaN,NaN
Raw,231716908345757,648521155000000,,,-1265581155278329736,-0.5009784698486328,41.62509139860049,23.723126129045767,15.598438859933651,68,4,0.0,49359,48458369297623,12,32.1,80.43267059326172,0.23510000109672546,25,2377.3845658790005,0.0017740579627804397,1.60537498E9,,,,0,,3,-3.31,1.60537498E9,301.0,NaN,NaN
Raw,231716908345757,648521155000000,,,-1265581155278329736,-0.5009784698486328,41.62509139860049,23.723126129045767,15.598438859933651,68,22,0.0,16399,383262352197122,24,25.4,-459.2798767089844,0.05130000039935112,21,-15074.742198301543,0.1920394882785269,1.56109798E9,,,,0,,5,0.73,1.56109798E9,301.0,NaN,NaN
Raw,231716908345757,648521155000000,,,-1265581155278329736,-0.5009784698486328,41.62509139860049,23.723126129045767,15.598438859933651,68,20,0.0,16399,383262352142641,53,19.5,608.179443359375,1.0145000219345093,16,0.0,0.0,1.56109798E9,,,,0,,5,0.73,1.56109798E9,301.0,NaN,NaN
Raw,231716908345757,648521155000000,,,-1265581155278329736,-0.5009784698486328,41.62509139860049,23.723126129045767,15.598438859933651,68,19,0.0,16399,383262360259462,19,27.3,118.00959014892578,0.025800000876188278,17,3645.828252413699,0.0032646714781548623,1.56109798E9,,,,0,,5,0.73,1.56109798E9,301.0,NaN,NaN
Raw,231716908345757,648521155000000,,,-1265581155278329736,-0.5009784698486328,41.62509139860049,23.723126129045767,15.598438859933651,68,10,0.0,16399,383262301413468,12,32.7,163.99159240722656,0.023100001737475395,25,5168.240383356385,0.0018243750799829725,1.56109798E9,,,,0,,5,0.73,1.56109798E9,301.0,NaN,NaN
Raw,231716908345757,648521155000000,,,-1265581155278329736,-0.5009784698486328,41.62509139860049,23.723126129045767,15.598438859933651,68,1,0.0,23567,383276349956621,31,23.7,344.4125061035156,0.6919999718666077,16,0.0,0.0,1.57542003E9,,,,0,,6,0.25,1.57542003E9,301.0,NaN,NaN
Raw,231716908345757,648521155000000,,,-1265581155278329736,-0.5009784698486328,41.62509139860049,23.723126129045767,15.598438859933651,68,4,0.0,23567,383276348309625,16,29.3,472.04571533203125,0.0479000024497509,25,13332.314398194649,0.006146485344343376,1.57542003E9,,,,0,,6,0.25,1.57542003E9,301.0,NaN,NaN
Raw,231716908345757,648521155000000,,,-1265581155278329736,-0.5009784698486328,41.62509139860049,23.723126129045767,15.598438859933651,68,5,0.0,23567,383276346964277,31,23.5,-448.1225891113281,0.6934999823570251,16,0.0,0.0,1.57542003E9,,,,0,,6,0.25,1.57542003E9,301.0,NaN,NaN
Raw,231716908345757,648521155000000,,,-1265581155278329736,-0.5009784698486328,41.62509139860049,23.723126129045767,15.598438859933651,68,9,0.0,23567,383276361688763,19,27.6,2.370231866836548,0.05130000039935112,25,8.084631667047528,0.007212130206821385,1.57542003E9,,,,0,,6,0.25,1.57542003E9,301.0,NaN,NaN
Raw,231716908345757,648521155000000,,,-1265581155278329736,-0.5009784698486328,41.62509139860049,23.723126129045767,15.598438859933651,68,24,0.0,23567,383276349916861,13,31.0,-574.1344604492188,0.047600001096725464,25,-11317.484707172127,0.004528989424958011,1.57542003E9,,,,0,,6,0.25,1.57542003E9,301.0,NaN,NaN
Raw,231716908345757,648521155000000,,,-1265581155278329736,-0.5009784698486328,41.62509139860049,23.723126129045767,15.598438859933651,68,31,0.0,23567,383276354052578,16,29.3,-207.15145874023438,0.05090000107884407,21,-6836.061557623754,0.006146485344343376,1.57542003E9,,,,0,,6,0.25,1.57542003E9,301.0,NaN,NaN
Raw,231716908345757,648521155000000,,,-1265581155278329736,-0.5009784698486328,41.62509139860049,23.723126129045767,15.598438859933651,68,30,0.0,81935,383276356964308,3,31.5,569.2955322265625,0.05180000141263008,25,14901.068552129525,0.0027776256465907277,1.17645005E9,,,,0,,1,-5.52,1.17645005E9,301.0,NaN,NaN
Raw,231716908345757,648521155000000,,,-1265581155278329736,-0.5009784698486328,41.62509139860049,23.723126129045767,15.598438859933651,68,1,0.0,81935,383276349963690,9,21.7,344.7673034667969,0.058900002390146255,25,8962.34010224562,0.25482803839368795,1.17645005E9,,,,0,,6,-5.52,1.17645005E9,301.0,NaN,NaN
Raw,231716908345757,648521155000000,,,-1265581155278329736,-0.5009784698486328,41.62509139860049,23.723126129045767,15.598438859933651,68,4,0.0,81935,383276348316748,5,28.8,472.095458984375,0.045099999755620956,25,12305.493069468956,0.0040262828122019055,1.17645005E9,,,,0,,6,-5.52,1.17645005E9,301.0,NaN,NaN
Raw,231716908345757,648521155000000,,,-1265581155278329736,-0.5009784698486328,41.62509139860049,23.723126129045767,15.598438859933651,68,5,0.0,81935,383276346971444,14,17.7,-446.6116027832031,1.8355000019073486,16,0.0,0.0,1.17645005E9,,,,0,,6,-5.52,1.17645005E9,301.0,NaN,NaN
Raw,231716908345757,648521155000000,,,-1265581155278329736,-0.5009784698486328,41.62509139860049,23.723126129045767,15.598438859933651,68,9,0.0,81935,383276361695867,4,30.9,2.326669454574585,0.030700000002980232,25,-68.18531206204767,0.0032108332879374254,1.17645005E9,,,,0,,6,-5.52,1.17645005E9,301.0,NaN,NaN
Raw,231716908345757,648521155000000,,,-1265581155278329736,-0.5009784698486328,41.62509139860049,23.723126129045767,15.598438859933651,68,24,0.0,81935,383276349923948,6,26.3,-574.2545776367188,0.05560000240802765,25,-14737.85518138782,0.007288081858568245,1.17645005E9,,,,0,,6,-5.52,1.17645005E9,301.0,NaN,NaN
Raw,231716908345757,648521155000000,,,-1265581155278329736,-0.5009784698486328,41.62509139860049,23.723126129045767,15.598438859933651,68,31,0.0,81935,383276354059681,4,29.3,-207.114501953125,0.052000001072883606,25,-5594.866730058673,0.0037714549693657518,1.17645005E9,,,,0,,6,-5.52,1.17645005E9,301.0,NaN,NaN
Fix,gps,51.524520,-0.134271,78.262268,0.000000,3.790092,1582194460000,231717898075230
Raw,231717925787264,648522155000000,,,-1265581155278329714,-0.8048877716064453,41.47814615862444,22.451480137631517,14.620540218398599,68,5,0.0,16399,383277354344764,40,21.8,711.0703735351562,0.8075000047683716,16,0.0,0.0,1.57542003E9,,,,0,,1,0.35,1.57542003E9,301.0,NaN,NaN
Raw,231717925787264,648522155000000,,,-1265581155278329714,-0.8048877716064453,41.47814615862444,22.451480137631517,14.620540218398599,68,13,0.0,16399,383277365878206,27,24.5,146.23985290527344,0.04880000278353691,17,4856.605825771208,0.19029366893311156,1.57542003E9,,,,0,,1,0.35,1.57542003E9,301.0,NaN,NaN
Raw,231717925787264,648522155000000,,,-1265581155278329714,-0.8048877716064453,41.47814615862444,22.451480137631517,14.620540218398599,68,17,0.0,16399,383277349320700,53,19.6,-556.4757690429688,1.0099999904632568,16,0.0,0.0,1.57542003E9,,,,0,,1,0.35,1.57542003E9,301.0,NaN,NaN
Raw,231717925787264,648522155000000,,,-1265581155278329714,-0.8048877716064453,41.47814615862444,22.451480137631517,14.620540218398599,68,20,0.0,16399,383277355584776,27,24.8,-441.2615051269531,0.06379999965429306,21,-14603.370449997117,0.19029366893311156,1.57542003E9,,,,0,,1,0.35,1.57542003E9,301.0,NaN,NaN
Raw,231717925787264,648522155000000,,,-1265581155278329714,-0.8048877716064453,41.47814615862444,22.451480137631517,14.620540218398599,68,24,0.0,16399,383277356068301,27,24.4,-619.8236694335938,0.06530000269412994,21,-17036.18940918688,0.19029366893311156,1.57542003E9,,,,0,,1,0.35,1.57542003E9,301.0,NaN,NaN
Raw,231717925787264,648522155000000,,,-1265581155278329714,-0.8048877716064453,41.47814615862444,22.451480137631517,14.620540218398599,68,28,0.0,16399,383277362153847,13,31.1,96.20869445800781,0.025100000202655792,25,3105.131916607745,0.002074201012354331,1.57542003E9,,,,0,,1,0.35,1.57542003E9,301.0,NaN,NaN
Raw,231717925787264,648522155000000,,,-1265581155278329714,-0.8048877716064453,41.47814615862444,22.451480137631517,14.620540218398599,68,30,0.0,16399,383277356954571,12,32.9,567.2586669921875,0.04560000076889992,25,19202.969051564352,0.001807789796734829,1.57542003E9,,,,0,,1,0.35,1.57542003E9,301.0,NaN,NaN
Raw,231717925787264,648522155000000,,,-1265581155278329714,-0.8048877716064453,41.47814615862444,22.451480137631517,14.620540218398599,68,14,0.0,49359,48459369220737,14,30.1,-144.01803588867188,0.23640000820159912,25,-4916.533927647657,0.0023637279898678486,1.59806246E9,,,,0,,3,-3.49,1.59806246E9,301.0,NaN,NaN
Raw,231717925787264,648522155000000,,,-1265581155278329714,-0.8048877716064453,41.47814615862444,22.451480137631517,14.620540218398599,68,22,0.0,49359,48459355159166,16,29.0,-292.4337158203125,0.24639999866485596,25,-9855.967399186355,0.00277253881595763,1.60031245E9,,,,0,,3,-3.49,1.60031245E9,301.0,NaN,NaN
Raw,231717925787264,648522155000000,,,-1265581155278329714,-0.8048877716064453,41.47814615862444,22.451480137631517,14.620540218398599,68,15,0.0,49359,48459359414932,17,28.5,-713.1751708984375,0.2687000036239624,25,-23766.438947145056,0.0029567544367518762,1.602E9,,,,0,,3,-3.49,1.602E9,301.0,NaN,NaN
Raw,231717925787264,648522155000000,,,-1265581155278329714,-0.8048877716064453,41.47814615862444,22.451480137631517,14.620540218398599,68,5,0.0,49359,48459362579236,4,45.1,-631.3984375,0.21950000524520874,25,-21050.70349579166,4.11555480259189E-4,1.60256256E9,,,,0,,3,-3.49,1.60256256E9,301.0,NaN,NaN
Raw,231717925787264,648522155000000,,,-1265581155278329714,-0.8048877716064453,41.47814615862444,22.451480137631517,14.620540218398599,68,3,0.0,49359,48459361189356,21,26.0,718.29541015625,0.2282000035047531,19,23712.247369457684,0.005342720110455805,1.60481254E9,,,,0,,3,-3.49,1.60481254E9,301.0,NaN,NaN
Raw,231717925787264,648522155000000,,,-1265581155278329714,-0.8048877716064453,41.47814615862444,22.451480137631517,14.620540218398599,68,4,0.0,49359,48459369297427,12,32.3,78.49127960205078,0.23510000109672546,25,2456.7392393430514,0.0017740579627804397,1.60537498E9,,,,0,,3,-3.49,1.60537498E9,301.0,NaN,NaN
Raw,231717925787264,648522155000000,,,-1265581155278329714,-0.8048877716064453,41.47814615862444,22.451480137631517,14.620540218398599,68,22,0.0,16399,383263352198642,21,26.8,-461.4228820800781,0.04470000043511391,29,-15535.080857734334,0.005492329335005111,1.56109798E9,,,,0,,5,0.71,1.56109798E9,301.0,NaN,NaN
Raw,231717925787264,648522155000000,,,-1265581155278329714,-0.8048877716064453,41.47814615862444,22.451480137631517,14.620540218398599,68,20,0.0,16399,383263352140682,46,20.9,607.1136474609375,0.8644999861717224,16,0.0,0.0,1.56109798E9,,,,0,,5,0.71,1.56109798E9,301.0,NaN,NaN
Raw,231717925787264,648522155000000,,,-1265581155278329714,-0.8048877716064453,41.47814615862444,22.451480137631517,14.620540218398599,68,19,0.0,16399,383263360259087,19,27.8,116.09671020507812,0.025800000876188278,25,3762.7775406356686,0.0032646714781548623,1.56109798E9,,,,0,,5,0.71,1.56109798E9,301.0,NaN,NaN
Raw,231717925787264,648522155000000,,,-1265581155278329714,-0.8048877716064453,41.47814615862444,22.451480137631517,14.620540218398599,68,10,0.0,16399,383263301412918,13,31.5,161.96202087402344,0.023600000888109207,25,5331.11995619304,0.0020932304434118673,1.56109798E9,,,,0,,5,0.71,1.56109798E9,301.0,NaN,NaN
Raw,231717925787264,648522155000000,,,-1265581155278329714,-0.8048877716064453,41.47814615862444,22.451480137631517,14.620540218398599,68,1,0.0,23567,383277349955454,31,23.7,342.7854919433594,0.6919999718666077,16,0.0,0.0,1.57542003E9,,,,0,,6,0.22,1.57542003E9,301.0,NaN,NaN
Raw,231717925787264,648522155000000,,,-1265581155278329714,-0.8048877716064453,41.47814615862444,22.451480137631517,14.620540218398599,68,4,0.0,23567,383277348308066,12,32.0,470.0901794433594,0.04560000076889992,25,13803.214225897525,0.003958108324583987,1.57542003E9,,,,0,,6,0.22,1.57542003E9,301.0,NaN,NaN
Raw,231717925787264,648522155000000,,,-1265581155278329714,-0.8048877716064453,41.47814615862444,22.451480137631517,14.620540218398599,68,5,0.0,23567,383277346965784,27,24.9,-449.78765869140625,0.6585000157356262,16,0.0,0.0,1.57542003E9,,,,0,,6,0.22,1.57542003E9,301.0,NaN,NaN
Raw,231717925787264,648522155000000,,,-1265581155278329714,-0.8048877716064453,41.47814615862444,22.451480137631517,14.620540218398599,68,9,0.0,23567,383277361688768,19,27.7,0.37812191247940063,0.05130000039935112,25,9.264343914199944,0.007212130206821385,1.57542003E9,,,,0,,6,0.22,1.57542003E9,301.0,NaN,NaN
Raw,231717925787264,648522155000000,,,-1265581155278329714,-0.8048877716064453,41.47814615862444,22.451480137631517,14.620540218398599,68,24,0.0,23567,383277349918790,14,30.4,-576.22509765625,0.04840000346302986,25,-11892.858386688244,0.005233075867304602,1.57542003E9,,,,0,,6,0.22,1.57542003E9,301.0,NaN,NaN
Raw,231717925787264,648522155000000,,,-1265581155278329714,-0.8048877716064453,41.47814615862444,22.451480137631517,14.620540218398599,68,31,0.0,23567,383277354053273,17,28.9,-209.1466064453125,0.05220000073313713,25,-7044.261291940609,0.006565131413727744,1.57542003E9,,,,0,,6,0.22,1.57542003E9,301.0,NaN,NaN
Raw,231717925787264,648522155000000,,,-1265581155278329714,-0.8048877716064453,41.47814615862444,22.451480137631517,14.620540218398599,68,30,0.0,81935,383277356962409,4,30.0,567.3292236328125,0.05320000275969505,25,15469.216847259398,0.0032108332879374254,1.17645005E9,,,,0,,1,-5.32,1.17645005E9,301.0,NaN,NaN
Raw,231717925787264,648522155000000,,,-1265581155278329714,-0.8048877716064453,41.47814615862444,22.451480137631517,14.620540218398599,68,1,0.0,81935,383277349962546,9,21.1,342.548583984375,0.058900002390146255,29,9306.021729692182,0.25482803839368795,1.17645005E9,,,,0,,6,-5.32,1.17645005E9,301.0,NaN,NaN
Raw,231717925787264,648522155000000,,,-1265581155278329714,-0.8048877716064453,41.47814615862444,22.451480137631517,14.620540218398599,68,4,0.0,81935,383277348315174,4,29.8,469.37689208984375,0.0430000014603138,25,12776.3710656445,0.0037714549693657518,1.17645005E9,,,,0,,6,-5.32,1.17645005E9,301.0,NaN,NaN
Raw,231717925787264,648522155000000,,,-1265581155278329714,-0.8048877716064453,41.47814615862444,22.451480137631517,14.620540218398599,68,9,0.0,81935,383277361695859,3,31.5,-0.24085037410259247,0.02930000051856041,25,-67.0219754107336,0.0027776256465907277,1.17645005E9,,,,0,,6,-5.32,1.17645005E9,301.0,NaN,NaN
Raw,231717925787264,648522155000000,,,-1265581155278329714,-0.8048877716064453,41.47814615862444,22.451480137631517,14.620540218398599,68,24,0.0,81935,383277349925868,6,25.7,-576.826171875,0.06800000369548798,29,-15313.493276875048,0.010753742989341824,1.17645005E9,,,,0,,6,-5.32,1.17645005E9,301.0,NaN,NaN
Raw,231717925787264,648522155000000,,,-1265581155278329714,-0.8048877716064453,41.47814615862444,22.451480137631517,14.620540218398599,68,31,0.0,81935,383277354060368,4,29.1,-209.65380859375,0.052000001072883606,25,-5803.153606485908,0.0037714549693657518,1.17645005E9,,,,0,,6,-5.32,1.17645005E9,301.0,NaN,NaN
Fix,gps,51.524520,-0.134271,78.264160,0.000000,3.790092,1582194461000,231718897283090
Raw,231718925674083,648523155000000,,,-1265581155278329700,-0.4103660583496094,43.71846443973482,15.40473598953839,15.59426523691634,68,13,0.0,16399,383278365877685,27,24.6,147.4821319580078,0.04880000278353691,17,5003.423987814445,0.19029366893311156,1.57542003E9,,,,0,,1,1.71,1.57542003E9,301.0,NaN,NaN
Raw,231718925674083,648523155000000,,,-1265581155278329700,-0.4103660583496094,43.71846443973482,15.40473598953839,15.59426523691634,68,17,0.0,16399,383278349322702,40,21.6,-556.2094116210938,0.8600000143051147,16,0.0,0.0,1.57542003E9,,,,0,,1,1.71,1.57542003E9,301.0,NaN,NaN
Raw,231718925674083,648523155000000,,,-1265581155278329700,-0.4103660583496094,43.71846443973482,15.40473598953839,15.59426523691634,68,20,0.0,16399,383278355586229,31,23.9,-440.0486145019531,0.13369999825954437,21,-15044.107716279726,0.19029366893311156,1.57542003E9,,,,0,,1,1.71,1.57542003E9,301.0,NaN,NaN
Raw,231718925674083,648523155000000,,,-1265581155278329700,-0.4103660583496094,43.71846443973482,15.40473598953839,15.59426523691634,68,24,0.0,16399,383278356070331,35,22.4,-618.5210571289062,0.8104999661445618,16,0.0,0.0,1.57542003E9,,,,0,,1,1.71,1.57542003E9,301.0,NaN,NaN
Raw,231718925674083,648523155000000,,,-1265581155278329700,-0.4103660583496094,43.71846443973482,15.40473598953839,15.59426523691634,68,28,0.0,16399,383278362153500,16,29.4,97.44075775146484,0.026900000870227814,25,3201.877369626551,0.00281634630106073,1.57542003E9,,,,0,,1,1.71,1.57542003E9,301.0,NaN,NaN
Raw,231718925674083,648523155000000,,,-1265581155278329700,-0.4103660583496094,43.71846443973482,15.40473598953839,15.59426523691634,68,30,0.0,16399,383278356952688,11,33.1,568.4044799804688,0.04520000144839287,25,19770.72726915582,0.001655554942969963,1.57542003E9,,,,0,,1,1.71,1.57542003E9,301.0,NaN,NaN
Raw,231718925674083,648523155000000,,,-1265581155278329700,-0.4103660583496094,43.71846443973482,15.40473598953839,15.59426523691634,68,14,0.0,49359,48460369221201,16,29.9,-142.79339599609375,0.23739999532699585,25,-5060.012089435051,0.0027764423980239216,1.59806246E9,,,,0,,3,-2.01,1.59806246E9,301.0,NaN,NaN
Raw,231718925674083,648523155000000,,,-1265581155278329700,-0.4103660583496094,43.71846443973482,15.40473598953839,15.59426523691634,68,22,0.0,49359,48460355160079,16,29.8,-291.1415100097656,0.24639999866485596,25,-10147.825751050454,0.00277253881595763,1.60031245E9,,,,0,,3,-2.01,1.60031245E9,301.0,NaN,NaN
Raw,231718925674083,648523155000000,,,-1265581155278329700,-0.4103660583496094,43.71846443973482,15.40473598953839,15.59426523691634,68,13,0.0,49359,48460364071561,181,10.6,585.642822265625,10.322501182556152,16,0.0,0.0,1.60087501E9,,,,0,,3,-2.01,1.60087501E9,301.0,NaN,NaN
Raw,231718925674083,648523155000000,,,-1265581155278329700,-0.4103660583496094,43.71846443973482,15.40473598953839,15.59426523691634,68,15,0.0,49359,48460359417448,17,28.4,-712.0177612304688,0.25370001792907715,25,-24479.134696055688,0.0029567544367518762,1.602E9,,,,0,,3,-2.01,1.602E9,301.0,NaN,NaN
Raw,231718925674083,648523155000000,,,-1265581155278329700,-0.4103660583496094,43.71846443973482,15.40473598953839,15.59426523691634,68,5,0.0,49359,48460362581353,4,45.4,-630.1900024414062,0.21950000524520874,25,-21681.56688128693,4.11555480259189E-4,1.60256256E9,,,,0,,3,-2.01,1.60256256E9,301.0,NaN,NaN
Raw,231718925674083,648523155000000,,,-1265581155278329700,-0.4103660583496094,43.71846443973482,15.40473598953839,15.59426523691634,68,3,0.0,49359,48460361187031,16,29.8,719.5223388671875,0.22540000081062317,25,24431.100603286155,0.002764764268779405,1.60481254E9,,,,0,,3,-2.01,1.60481254E9,301.0,NaN,NaN
Raw,231718925674083,648523155000000,,,-1265581155278329700,-0.4103660583496094,43.71846443973482,15.40473598953839,15.59426523691634,68,4,0.0,49359,48460369297149,12,32.1,79.77557373046875,0.23510000109672546,25,2535.8178715646886,0.0017740579627804397,1.60537498E9,,,,0,,3,-2.01,1.60537498E9,301.0,NaN,NaN
Raw,231718925674083,648523155000000,,,-1265581155278329700,-0.4103660583496094,43.71846443973482,15.40473598953839,15.59426523691634,68,22,0.0,16399,383264352200170,19,27.1,-460.16290283203125,0.043800000101327896,25,-15995.998491250833,0.0032646714781548623,1.56109798E9,,,,0,,5,2.03,1.56109798E9,301.0,NaN,NaN
Raw,231718925674083,648523155000000,,,-1265581155278329700,-0.4103660583496094,43.71846443973482,15.40473598953839,15.59426523691634,68,20,0.0,16399,383264352138615,53,19.0,606.6719970703125,1.0145000219345093,16,0.0,0.0,1.56109798E9,,,,0,,5,2.03,1.56109798E9,301.0,NaN,NaN
Raw,231718925674083,648523155000000,,,-1265581155278329700,-0.4103660583496094,43.71846443973482,15.40473598953839,15.59426523691634,68,19,0.0,16399,383264360258710,17,28.8,117.30856323242188,0.025200000032782555,25,3879.39997949344,0.003034223768286223,1.56109798E9,,,,0,,5,2.03,1.56109798E9,301.0,NaN,NaN
Raw,231718925674083,648523155000000,,,-1265581155278329700,-0.4103660583496094,43.71846443973482,15.40473598953839,15.59426523691634,68,11,0.0,16399,383264344265030,139,12.0,126.50601196289062,8.452500343322754,16,0.0,0.0,1.56109798E9,,,,0,,5,2.03,1.56109798E9,301.0,NaN,NaN
Raw,231718925674083,648523155000000,,,-1265581155278329700,-0.4103660583496094,43.71846443973482,15.40473598953839,15.59426523691634,68,10,0.0,16399,383264301412379,13,31.2,163.07037353515625,0.023600000888109207,25,5493.569520205379,0.0020932304434118673,1.56109798E9,,,,0,,5,2.03,1.56109798E9,301.0,NaN,NaN
Raw,231718925674083,648523155000000,,,-1265581155278329700,-0.4103660583496094,43.71846443973482,15.40473598953839,15.59426523691634,68,1,0.0,23567,383278349954269,53,19.1,343.49908447265625,1.0220000743865967,16,0.0,0.0,1.57542003E9,,,,0,,6,1.53,1.57542003E9,301.0,NaN,NaN
Raw,231718925674083,648523155000000,,,-1265581155278329700,-0.4103660583496094,43.71846443973482,15.40473598953839,15.59426523691634,68,4,0.0,23567,383278348306495,13,31.2,471.13543701171875,0.04610000178217888,25,14273.719894847292,0.004528989424958011,1.57542003E9,,,,0,,6,1.53,1.57542003E9,301.0,NaN,NaN
Raw,231718925674083,648523155000000,,,-1265581155278329700,-0.4103660583496094,43.71846443973482,15.40473598953839,15.59426523691634,68,5,0.0,23567,383278346967248,31,23.4,-448.836181640625,0.6934999823570251,16,0.0,0.0,1.57542003E9,,,,0,,6,1.53,1.57542003E9,301.0,NaN,NaN
Raw,231718925674083,648523155000000,,,-1265581155278329700,-0.4103660583496094,43.71846443973482,15.40473598953839,15.59426523691634,68,9,0.0,23567,383278361688778,19,27.7,1.39577054977417,0.05130000039935112,21,9.989906725573258,0.007212130206821385,1.57542003E9,,,,0,,6,1.53,1.57542003E9,301.0,NaN,NaN
Raw,231718925674083,648523155000000,,,-1265581155278329700,-0.4103660583496094,43.71846443973482,15.40473598953839,15.59426523691634,68,24,0.0,23567,383278349920716,16,29.4,-575.1856079101562,0.049400001764297485,25,-12468.642504483914,0.006146485344343376,1.57542003E9,,,,0,,6,1.53,1.57542003E9,301.0,NaN,NaN
Raw,231718925674083,648523155000000,,,-1265581155278329700,-0.4103660583496094,43.71846443973482,15.40473598953839,15.59426523691634,68,31,0.0,23567,383278354053953,17,28.7,-207.97329711914062,0.05220000073313713,25,-7252.868393558501,0.006565131413727744,1.57542003E9,,,,0,,6,1.53,1.57542003E9,301.0,NaN,NaN
Raw,231718925674083,648523155000000,,,-1265581155278329700,-0.4103660583496094,43.71846443973482,15.40473598953839,15.59426523691634,68,24,0.0,81935,383278356078002,20,14.9,-619.1302490234375,4.380500316619873,16,0.0,0.0,1.17645005E9,,,,0,,1,-1.47,1.17645005E9,301.0,NaN,NaN
Raw,231718925674083,648523155000000,,,-1265581155278329700,-0.4103660583496094,43.71846443973482,15.40473598953839,15.59426523691634,68,30,0.0,81935,383278356960505,3,31.6,568.4044799804688,0.05180000141263008,29,16036.994628149967,0.0027776256465907277,1.17645005E9,,,,0,,1,-1.47,1.17645005E9,301.0,NaN,NaN
Raw,231718925674083,648523155000000,,,-1265581155278329700,-0.4103660583496094,43.71846443973482,15.40473598953839,15.59426523691634,68,1,0.0,81935,383278349961401,8,22.8,344.0149841308594,0.050200000405311584,29,9649.439134774748,0.25482803839368795,1.17645005E9,,,,0,,6,-1.47,1.17645005E9,301.0,NaN,NaN
Raw,231718925674083,648523155000000,,,-1265581155278329700,-0.4103660583496094,43.71846443973482,15.40473598953839,15.59426523691634,68,4,0.0,81935,383278348313603,3,32.7,470.9647521972656,0.038600001484155655,25,13246.884124901528,0.0024208662868967453,1.17645005E9,,,,0,,6,-1.47,1.17645005E9,301.0,NaN,NaN
Raw,231718925674083,648523155000000,,,-1265581155278329700,-0.4103660583496094,43.71846443973482,15.40473598953839,15.59426523691634,68,5,0.0,81935,383278346974434,14,17.8,-449.51666259765625,1.755500078201294,16,0.0,0.0,1.17645005E9,,,,0,,6,-1.47,1.17645005E9,301.0,NaN,NaN
Raw,231718925674083,648523155000000,,,-1265581155278329700,-0.4103660583496094,43.71846443973482,15.40473598953839,15.59426523691634,68,9,0.0,81935,383278361695855,2,34.9,1.3263342380523682,0.026000000536441803,25,-66.18613431173405,0.0020386244039789624,1.17645005E9,,,,0,,6,-1.47,1.17645005E9,301.0,NaN,NaN
Raw,231718925674083,648523155000000,,,-1265581155278329700,-0.4103660583496094,43.71846443973482,15.40473598953839,15.59426523691634,68,24,0.0,81935,383278349927789,4,29.6,-575.4053344726562,0.04450000077486038,25,-15889.277507841534,0.0037714549693657518,1.17645005E9,,,,0,,6,-1.47,1.17645005E9,301.0,NaN,NaN
Raw,231718925674083,648523155000000,,,-1265581155278329700,-0.4103660583496094,43.71846443973482,15.40473598953839,15.59426523691634,68,31,0.0,81935,383278354061065,3,32.2,-208.15151977539062,0.047600001096725464,25,-6011.775187564875,0.0024208662868967453,1.17645005E9,,,,0,,6,-1.47,1.17645005E9,301.0,NaN,NaN
Fix,gps,51.524520,-0.134271,78.265808,0.000000,3.790092,1582194462000,231719903366368
Raw,231719919995275,648524155000000,,,-1265581155278329683,-0.39323997497558594,44.12605630932376,18.83915056551953,15.850749004459574,68,5,0.0,16399,383279354340143,70,17.2,710.42333984375,1.9375,16,0.0,0.0,1.57542003E9,,,,0,,1,1.73,1.57542003E9,301.0,NaN,NaN
Raw,231719919995275,648524155000000,,,-1265581155278329683,-0.39323997497558594,44.12605630932376,18.83915056551953,15.850749004459574,68,13,0.0,16399,383279365877223,27,24.3,146.62059020996094,0.04880000278353691,21,5150.771724226041,0.19029366893311156,1.57542003E9,,,,0,,1,1.73,1.57542003E9,301.0,NaN,NaN
Raw,231719919995275,648524155000000,,,-1265581155278329683,-0.39323997497558594,44.12605630932376,18.83915056551953,15.850749004459574,68,15,0.0,16399,383279365201270,70,17.3,-197.95298767089844,2.6740000247955322,16,0.0,0.0,1.57542003E9,,,,0,,1,1.73,1.57542003E9,301.0,NaN,NaN
Raw,231719919995275,648524155000000,,,-1265581155278329683,-0.39323997497558594,44.12605630932376,18.83915056551953,15.850749004459574,68,17,0.0,16399,383279349324528,35,22.0,-557.3320922851562,0.7999999523162842,16,0.0,0.0,1.57542003E9,,,,0,,1,1.73,1.57542003E9,301.0,NaN,NaN
Raw,231719919995275,648524155000000,,,-1265581155278329683,-0.39323997497558594,44.12605630932376,18.83915056551953,15.850749004459574,68,20,0.0,16399,383279355587653,31,23.0,-441.91900634765625,0.7489999532699585,16,0.0,0.0,1.57542003E9,,,,0,,1,1.73,1.57542003E9,301.0,NaN,NaN
Raw,231719919995275,648524155000000,,,-1265581155278329683,-0.39323997497558594,44.12605630932376,18.83915056551953,15.850749004459574,68,24,0.0,16399,383279356072433,35,22.6,-619.7769775390625,0.8104999661445618,16,0.0,0.0,1.57542003E9,,,,0,,1,1.73,1.57542003E9,301.0,NaN,NaN
Raw,231719919995275,648524155000000,,,-1265581155278329683,-0.39323997497558594,44.12605630932376,18.83915056551953,15.850749004459574,68,28,0.0,16399,383279362153192,16,29.8,96.0460205078125,0.026900000870227814,25,3298.786417597736,0.00281634630106073,1.57542003E9,,,,0,,1,1.73,1.57542003E9,301.0,NaN,NaN
Raw,231719919995275,648524155000000,,,-1265581155278329683,-0.39323997497558594,44.12605630932376,18.83915056551953,15.850749004459574,68,30,0.0,16399,383279356950795,13,31.6,566.9907836914062,0.04610000178217888,25,20338.573305322778,0.002074201012354331,1.57542003E9,,,,0,,1,1.73,1.57542003E9,301.0,NaN,NaN
Raw,231719919995275,648524155000000,,,-1265581155278329683,-0.39323997497558594,44.12605630932376,18.83915056551953,15.850749004459574,68,14,0.0,49359,48461369221699,14,30.3,-144.11708068847656,0.23640000820159912,21,-5203.39803544265,0.0023637279898678486,1.59806246E9,,,,0,,3,-2.01,1.59806246E9,301.0,NaN,NaN
Raw,231719919995275,648524155000000,,,-1265581155278329683,-0.39323997497558594,44.12605630932376,18.83915056551953,15.850749004459574,68,22,0.0,49359,48461355161154,19,27.6,-292.1874694824219,0.2483000010251999,21,-10439.206811392403,0.0031846731363860867,1.60031245E9,,,,0,,3,-2.01,1.60031245E9,301.0,NaN,NaN
Raw,231719919995275,648524155000000,,,-1265581155278329683,-0.39323997497558594,44.12605630932376,18.83915056551953,15.850749004459574,68,13,0.0,49359,48461364069468,53,19.2,586.3170166015625,1.122499942779541,16,0.0,0.0,1.60087501E9,,,,0,,3,-2.01,1.60087501E9,301.0,NaN,NaN
Raw,231719919995275,648524155000000,,,-1265581155278329683,-0.39323997497558594,44.12605630932376,18.83915056551953,15.850749004459574,68,15,0.0,49359,48461359419741,13,31.2,-713.4298706054688,0.25060001015663147,25,-25191.70430030858,0.0020397864077763375,1.602E9,,,,0,,3,-2.01,1.602E9,301.0,NaN,NaN
Raw,231719919995275,648524155000000,,,-1265581155278329683,-0.39323997497558594,44.12605630932376,18.83915056551953,15.850749004459574,68,5,0.0,49359,48461362583458,4,45.9,-631.5889282226562,0.21950000524520874,25,-22312.29359209159,4.11555480259189E-4,1.60256256E9,,,,0,,3,-2.01,1.60256256E9,301.0,NaN,NaN
Raw,231719919995275,648524155000000,,,-1265581155278329683,-0.39323997497558594,44.12605630932376,18.83915056551953,15.850749004459574,68,3,0.0,49359,48461361184569,16,29.8,718.1212158203125,0.22540000081062317,21,25150.078712326955,0.002764764268779405,1.60481254E9,,,,0,,3,-2.01,1.60481254E9,301.0,NaN,NaN
Raw,231719919995275,648524155000000,,,-1265581155278329683,-0.39323997497558594,44.12605630932376,18.83915056551953,15.850749004459574,68,4,0.0,49359,48461369296845,12,32.7,78.44927215576172,0.23510000109672546,25,2615.0900608259976,0.0017740579627804397,1.60537498E9,,,,0,,3,-2.01,1.60537498E9,301.0,NaN,NaN
Raw,231719919995275,648524155000000,,,-1265581155278329683,-0.39323997497558594,44.12605630932376,18.83915056551953,15.850749004459574,68,22,0.0,16399,383265352201729,21,26.7,-461.4522399902344,0.04470000043511391,21,-16456.692727119505,0.005492329335005111,1.56109798E9,,,,0,,5,2.03,1.56109798E9,301.0,NaN,NaN
Raw,231719919995275,648524155000000,,,-1265581155278329683,-0.39323997497558594,44.12605630932376,18.83915056551953,15.850749004459574,68,20,0.0,16399,383265352136710,53,19.6,604.5883178710938,1.0145000219345093,16,0.0,0.0,1.56109798E9,,,,0,,5,2.03,1.56109798E9,301.0,NaN,NaN
Raw,231719919995275,648524155000000,,,-1265581155278329683,-0.39323997497558594,44.12605630932376,18.83915056551953,15.850749004459574,68,19,0.0,16399,383265360258315,17,28.2,115.91899108886719,0.025200000032782555,21,3996.1720917689418,0.003034223768286223,1.56109798E9,,,,0,,5,2.03,1.56109798E9,301.0,NaN,NaN
Raw,231719919995275,648524155000000,,,-1265581155278329683,-0.39323997497558594,44.12605630932376,18.83915056551953,15.850749004459574,68,10,0.0,16399,383265301411832,14,30.8,161.620849609375,0.024400001391768456,25,5656.085283620452,0.0024196975554572116,1.56109798E9,,,,0,,5,2.03,1.56109798E9,301.0,NaN,NaN
Raw,231719919995275,648524155000000,,,-1265581155278329683,-0.39323997497558594,44.12605630932376,18.83915056551953,15.850749004459574,68,1,0.0,23567,383279349953122,46,20.2,343.1375732421875,0.871999979019165,16,0.0,0.0,1.57542003E9,,,,0,,6,1.58,1.57542003E9,301.0,NaN,NaN
Raw,231719919995275,648524155000000,,,-1265581155278329683,-0.39323997497558594,44.12605630932376,18.83915056551953,15.850749004459574,68,4,0.0,23567,383279348304936,13,31.3,469.81396484375,0.04610000178217888,25,14744.311711889368,0.004528989424958011,1.57542003E9,,,,0,,6,1.58,1.57542003E9,301.0,NaN,NaN
Raw,231719919995275,648524155000000,,,-1265581155278329683,-0.39323997497558594,44.12605630932376,18.83915056551953,15.850749004459574,68,5,0.0,23567,383279346968775,31,23.8,-450.206298828125,0.6934999823570251,16,0.0,0.0,1.57542003E9,,,,0,,6,1.58,1.57542003E9,301.0,NaN,NaN
Raw,231719919995275,648524155000000,,,-1265581155278329683,-0.39323997497558594,44.12605630932376,18.83915056551953,15.850749004459574,68,9,0.0,23567,383279361688763,17,28.9,0.22404448688030243,0.050700001418590546,25,11.046069747921734,0.006565131413727744,1.57542003E9,,,,0,,6,1.58,1.57542003E9,301.0,NaN,NaN
Raw,231719919995275,648524155000000,,,-1265581155278329683,-0.39323997497558594,44.12605630932376,18.83915056551953,15.850749004459574,68,24,0.0,23567,383279349922614,16,29.5,-576.4395751953125,0.049400001764297485,25,-13044.33425548788,0.006146485344343376,1.57542003E9,,,,0,,6,1.58,1.57542003E9,301.0,NaN,NaN
Raw,231719919995275,648524155000000,,,-1265581155278329683,-0.39323997497558594,44.12605630932376,18.83915056551953,15.850749004459574,68,31,0.0,23567,383279354054684,21,26.9,-209.20913696289062,0.053700003772974014,21,-7461.463650714513,0.011874324619302384,1.57542003E9,,,,0,,6,1.58,1.57542003E9,301.0,NaN,NaN
Raw,231719919995275,648524155000000,,,-1265581155278329683,-0.39323997497558594,44.12605630932376,18.83915056551953,15.850749004459574,68,30,0.0,81935,383279356958621,4,30.8,566.9772338867188,0.05320000275969505,29,16604.82636605269,0.0032108332879374254,1.17645005E9,,,,0,,1,0.21,1.17645005E9,301.0,NaN,NaN
Raw,231719919995275,648524155000000,,,-1265581155278329683,-0.39323997497558594,44.12605630932376,18.83915056551953,15.850749004459574,68,1,0.0,81935,383279349960238,8,23.2,342.390625,0.047700002789497375,29,9992.891895493955,0.25482803839368795,1.17645005E9,,,,0,,6,0.21,1.17645005E9,301.0,NaN,NaN
Raw,231719919995275,648524155000000,,,-1265581155278329683,-0.39323997497558594,44.12605630932376,18.83915056551953,15.850749004459574,68,4,0.0,81935,383279348312034,3,31.9,469.3004455566406,0.0398000031709671,25,13717.47900462497,0.0027776256465907277,1.17645005E9,,,,0,,6,0.21,1.17645005E9,301.0,NaN,NaN
Raw,231719919995275,648524155000000,,,-1265581155278329683,-0.39323997497558594,44.12605630932376,18.83915056551953,15.850749004459574,68,5,0.0,81935,383279346975917,11,19.7,-450.0390625,0.9254999756813049,16,0.0,0.0,1.17645005E9,,,,0,,6,0.21,1.17645005E9,301.0,NaN,NaN
Raw,231719919995275,648524155000000,,,-1265581155278329683,-0.39323997497558594,44.12605630932376,18.83915056551953,15.850749004459574,68,9,0.0,81935,383279361695853,2,34.4,-0.3188936114311218,0.026000000536441803,25,-65.23283021062137,0.0020386244039789624,1.17645005E9,,,,0,,6,0.21,1.17645005E9,301.0,NaN,NaN
Raw,231719919995275,648524155000000,,,-1265581155278329683,-0.39323997497558594,44.12605630932376,18.83915056551953,15.850749004459574,68,24,0.0,81935,383279349929712,4,29.3,-577.0621337890625,0.04450000077486038,29,-16464.970325182785,0.0037714549693657518,1.17645005E9,,,,0,,6,0.21,1.17645005E9,301.0,NaN,NaN
Raw,231719919995275,648524155000000,,,-1265581155278329683,-0.39323997497558594,44.12605630932376,18.83915056551953,15.850749004459574,68,31,0.0,81935,383279354061761,3,32.0,-209.8480224609375,0.047600001096725464,25,-6220.27966566829,0.0024208662868967453,1.17645005E9,,,,0,,6,0.21,1.17645005E9,301.0,NaN,NaN
Fix,gps,51.524519,-0.134271,78.263184,0.000000,3.790092,1582194463000,231720898357821
Raw,231720910187770,648525155000000,,,-1265581155278329669,-0.2967414855957031,42.01883712084964,14.25578560771079,15.4941809934936,68,5,0.0,16399,383280354337789,46,20.7,710.2901611328125,0.9375,16,0.0,0.0,1.57542003E9,,,,0,,1,0.55,1.57542003E9,301.0,NaN,NaN
Raw,231720910187770,648525155000000,,,-1265581155278329669,-0.2967414855957031,42.01883712084964,14.25578560771079,15.4941809934936,68,13,0.0,16399,383280365876764,35,22.0,145.84107971191406,0.793999969959259,16,0.0,0.0,1.57542003E9,,,,0,,1,0.55,1.57542003E9,301.0,NaN,NaN
Raw,231720910187770,648525155000000,,,-1265581155278329669,-0.2967414855957031,42.01883712084964,14.25578560771079,15.4941809934936,68,17,0.0,16399,383280349326363,61,18.6,-556.5804443359375,1.0899999141693115,16,0.0,0.0,1.57542003E9,,,,0,,1,0.55,1.57542003E9,301.0,NaN,NaN
Raw,231720910187770,648525155000000,,,-1265581155278329669,-0.2967414855957031,42.01883712084964,14.25578560771079,15.4941809934936,68,20,0.0,16399,383280355589137,31,23.7,-440.9599914550781,0.13369999825954437,27,-15924.539581353949,0.19029366893311156,1.57542003E9,,,,0,,1,0.55,1.57542003E9,301.0,NaN,NaN
Raw,231720910187770,648525155000000,,,-1265581155278329669,-0.2967414855957031,42.01883712084964,14.25578560771079,15.4941809934936,68,24,0.0,16399,383280356074547,40,21.0,-619.3583374023438,0.8704999685287476,16,0.0,0.0,1.57542003E9,,,,0,,1,0.55,1.57542003E9,301.0,NaN,NaN
Raw,231720910187770,648525155000000,,,-1265581155278329669,-0.2967414855957031,42.01883712084964,14.25578560771079,15.4941809934936,68,28,0.0,16399,383280362152833,13,31.2,96.5566635131836,0.025100000202655792,25,3395.317070271734,0.002074201012354331,1.57542003E9,,,,0,,1,0.55,1.57542003E9,301.0,NaN,NaN
Raw,231720910187770,648525155000000,,,-1265581155278329669,-0.2967414855957031,42.01883712084964,14.25578560771079,15.4941809934936,68,30,0.0,16399,383280356948899,11,33.8,567.3934936523438,0.04520000144839287,25,20905.946537601332,0.001655554942969963,1.57542003E9,,,,0,,1,0.55,1.57542003E9,301.0,NaN,NaN
Raw,231720910187770,648525155000000,,,-1265581155278329669,-0.2967414855957031,42.01883712084964,14.25578560771079,15.4941809934936,68,14,0.0,49359,48462369222163,14,30.9,-143.62570190429688,0.23640000820159912,25,-5346.954442462001,0.0023637279898678486,1.59806246E9,,,,0,,3,-3.2,1.59806246E9,301.0,NaN,NaN
Raw,231720910187770,648525155000000,,,-1265581155278329669,-0.2967414855957031,42.01883712084964,14.25578560771079,15.4941809934936,68,22,0.0,49359,48462355162177,21,26.7,-291.96038818359375,0.2492000013589859,25,-10731.145988144912,0.005357743897484537,1.60031245E9,,,,0,,3,-3.2,1.60031245E9,301.0,NaN,NaN
Raw,231720910187770,648525155000000,,,-1265581155278329669,-0.2967414855957031,42.01883712084964,14.25578560771079,15.4941809934936,68,15,0.0,49359,48462359422122,13,31.9,-712.9913940429688,0.25060001015663147,25,-25904.70422296413,0.0020397864077763375,1.602E9,,,,0,,3,-3.2,1.602E9,301.0,NaN,NaN
Raw,231720910187770,648525155000000,,,-1265581155278329669,-0.2967414855957031,42.01883712084964,14.25578560771079,15.4941809934936,68,5,0.0,49359,48462362585558,4,45.9,-631.1455688476562,0.21950000524520874,25,-22943.44840484749,4.11555480259189E-4,1.60256256E9,,,,0,,3,-3.2,1.60256256E9,301.0,NaN,NaN
Raw,231720910187770,648525155000000,,,-1265581155278329669,-0.2967414855957031,42.01883712084964,14.25578560771079,15.4941809934936,68,3,0.0,49359,48462361182208,16,29.1,718.5639038085938,0.22540000081062317,25,25868.64242881954,0.002764764268779405,1.60481254E9,,,,0,,3,-3.2,1.60481254E9,301.0,NaN,NaN
Raw,231720910187770,648525155000000,,,-1265581155278329669,-0.2967414855957031,42.01883712084964,14.25578560771079,15.4941809934936,68,4,0.0,49359,48462369296586,13,31.8,78.97061920166016,0.23560000956058502,25,2694.019680926018,0.002035498169654846,1.60537498E9,,,,0,,3,-3.2,1.60537498E9,301.0,NaN,NaN
Raw,231720910187770,648525155000000,,,-1265581155278329669,-0.2967414855957031,42.01883712084964,14.25578560771079,15.4941809934936,68,22,0.0,16399,383266352203244,19,27.0,-461.13568115234375,0.043800000101327896,17,-16917.841308145955,0.0032646714781548623,1.56109798E9,,,,0,,5,0.72,1.56109798E9,301.0,NaN,NaN
Raw,231720910187770,648525155000000,,,-1265581155278329669,-0.2967414855957031,42.01883712084964,14.25578560771079,15.4941809934936,68,19,0.0,16399,383266360257936,14,30.2,116.39826202392578,0.02290000021457672,17,4112.554003280826,0.0024196975554572116,1.56109798E9,,,,0,,5,0.72,1.56109798E9,301.0,NaN,NaN
Raw,231720910187770,648525155000000,,,-1265581155278329669,-0.2967414855957031,42.01883712084964,14.25578560771079,15.4941809934936,68,10,0.0,16399,383266301411293,13,31.0,161.9939727783203,0.023600000888109207,25,5818.112859917824,0.0020932304434118673,1.56109798E9,,,,0,,5,0.72,1.56109798E9,301.0,NaN,NaN
Raw,231720910187770,648525155000000,,,-1265581155278329669,-0.2967414855957031,42.01883712084964,14.25578560771079,15.4941809934936,68,1,0.0,23567,383280349952001,35,22.7,343.63232421875,0.7519999742507935,16,0.0,0.0,1.57542003E9,,,,0,,6,0.42,1.57542003E9,301.0,NaN,NaN
Raw,231720910187770,648525155000000,,,-1265581155278329669,-0.2967414855957031,42.01883712084964,14.25578560771079,15.4941809934936,68,4,0.0,23567,383280348303369,14,30.9,470.1694641113281,0.04690000042319298,25,15214.468030693963,0.005233075867304602,1.57542003E9,,,,0,,6,0.42,1.57542003E9,301.0,NaN,NaN
Raw,231720910187770,648525155000000,,,-1265581155278329669,-0.2967414855957031,42.01883712084964,14.25578560771079,15.4941809934936,68,5,0.0,23567,383280346970298,24,25.3,-449.6629638671875,0.06030000001192093,19,-2044.0943110543071,0.017526047264890512,1.57542003E9,,,,0,,6,0.42,1.57542003E9,301.0,NaN,NaN
Raw,231720910187770,648525155000000,,,-1265581155278329669,-0.2967414855957031,42.01883712084964,14.25578560771079,15.4941809934936,68,9,0.0,23567,383280361688773,16,29.7,0.5520229935646057,0.049400001764297485,25,11.579627801723952,0.006146485344343376,1.57542003E9,,,,0,,6,0.42,1.57542003E9,301.0,NaN,NaN
Raw,231720910187770,648525155000000,,,-1265581155278329669,-0.2967414855957031,42.01883712084964,14.25578560771079,15.4941809934936,68,24,0.0,23567,383280349924544,16,29.5,-576.2039794921875,0.049400001764297485,25,-13620.517750286464,0.006146485344343376,1.57542003E9,,,,0,,6,0.42,1.57542003E9,301.0,NaN,NaN
Raw,231720910187770,648525155000000,,,-1265581155278329669,-0.2967414855957031,42.01883712084964,14.25578560771079,15.4941809934936,68,31,0.0,23567,383280354055355,17,28.9,-208.89822387695312,0.05220000073313713,25,-7670.277356865852,0.006565131413727744,1.57542003E9,,,,0,,6,0.42,1.57542003E9,301.0,NaN,NaN
Raw,231720910187770,648525155000000,,,-1265581155278329669,-0.2967414855957031,42.01883712084964,14.25578560771079,15.4941809934936,68,24,0.0,81935,383280356082131,16,16.4,-619.8182373046875,1.940500020980835,16,0.0,0.0,1.17645005E9,,,,0,,1,-12.38,1.17645005E9,301.0,NaN,NaN
Raw,231720910187770,648525155000000,,,-1265581155278329669,-0.2967414855957031,42.01883712084964,14.25578560771079,15.4941809934936,68,30,0.0,81935,383280356956726,4,30.6,567.385498046875,0.05320000275969505,25,17172.20752115183,0.0032108332879374254,1.17645005E9,,,,0,,1,-12.38,1.17645005E9,301.0,NaN,NaN
Raw,231720910187770,648525155000000,,,-1265581155278329669,-0.2967414855957031,42.01883712084964,14.25578560771079,15.4941809934936,68,1,0.0,81935,383280349959109,7,24.6,343.0428771972656,0.04560000076889992,25,10335.978646009116,0.25482803839368795,1.17645005E9,,,,0,,6,-12.38,1.17645005E9,301.0,NaN,NaN
Raw,231720910187770,648525155000000,,,-1265581155278329669,-0.2967414855957031,42.01883712084964,14.25578560771079,15.4941809934936,68,4,0.0,81935,383280348310466,4,30.7,470.2503356933594,0.041200000792741776,25,14187.624084947283,0.0032108332879374254,1.17645005E9,,,,0,,6,-12.38,1.17645005E9,301.0,NaN,NaN
Raw,231720910187770,648525155000000,,,-1265581155278329669,-0.2967414855957031,42.01883712084964,14.25578560771079,15.4941809934936,68,5,0.0,81935,383280346977393,12,18.7,-449.3382873535156,1.005500078201294,16,0.0,0.0,1.17645005E9,,,,0,,6,-12.38,1.17645005E9,301.0,NaN,NaN
Raw,231720910187770,648525155000000,,,-1265581155278329669,-0.2967414855957031,42.01883712084964,14.25578560771079,15.4941809934936,68,9,0.0,81935,383280361695852,3,32.4,0.6643311977386475,0.02810000069439411,25,-64.70929111161684,0.0024208662868967453,1.17645005E9,,,,0,,6,-12.38,1.17645005E9,301.0,NaN,NaN
Raw,231720910187770,648525155000000,,,-1265581155278329669,-0.2967414855957031,42.01883712084964,14.25578560771079,15.4941809934936,68,24,0.0,81935,383280349931634,5,27.5,-576.1259765625,0.0495000034570694,29,-17041.153244278605,0.004332076888121183,1.17645005E9,,,,0,,6,-12.38,1.17645005E9,301.0,NaN,NaN
Raw,231720910187770,648525155000000,,,-1265581155278329669,-0.2967414855957031,42.01883712084964,14.25578560771079,15.4941809934936,68,31,0.0,81935,383280354062460,4,30.7,-208.75990295410156,0.050200000405311584,25,-6429.1907789638335,0.0032108332879374254,1.17645005E9,,,,0,,6,-12.38,1.17645005E9,301.0,NaN,NaN
Fix,gps,51.524519,-0.134271,78.250916,0.000000,3.790092,1582194464000,231721899159743
Raw,231721914715943,648526155000000,,,-1265581155278329650,-0.5510807037353516,44.14133582031354,15.358592324387777,15.063979711200117,68,5,0.0,16399,383281354335458,31,23.0,710.3936157226562,0.13220000267028809,19,25344.024789573134,0.19029366893311156,1.57542003E9,,,,0,,1,0.85,1.57542003E9,301.0,NaN,NaN
Raw,231721914715943,648526155000000,,,-1265581155278329650,-0.5510807037353516,44.14133582031354,15.358592324387777,15.063979711200117,68,13,0.0,16399,383281365876267,19,27.8,145.94277954101562,0.0333000011742115,19,5443.262339359718,0.003234992547669888,1.57542003E9,,,,0,,1,0.85,1.57542003E9,301.0,NaN,NaN
Raw,231721914715943,648526155000000,,,-1265581155278329650,-0.5510807037353516,44.14133582031354,15.358592324387777,15.063979711200117,68,17,0.0,16399,383281349328406,61,18.9,-557.42724609375,1.0099999904632568,16,0.0,0.0,1.57542003E9,,,,0,,1,0.85,1.57542003E9,301.0,NaN,NaN
Raw,231721914715943,648526155000000,,,-1265581155278329650,-0.5510807037353516,44.14133582031354,15.358592324387777,15.063979711200117,68,20,0.0,16399,383281355590692,31,23.1,-441.5738525390625,0.13369999825954437,21,-16366.181989182029,0.19029366893311156,1.57542003E9,,,,0,,1,0.85,1.57542003E9,301.0,NaN,NaN
Raw,231721914715943,648526155000000,,,-1265581155278329650,-0.5510807037353516,44.14133582031354,15.358592324387777,15.063979711200117,68,24,0.0,16399,383281356076568,53,19.5,-620.309814453125,1.0205000638961792,16,0.0,0.0,1.57542003E9,,,,0,,1,0.85,1.57542003E9,301.0,NaN,NaN
Raw,231721914715943,648526155000000,,,-1265581155278329650,-0.5510807037353516,44.14133582031354,15.358592324387777,15.063979711200117,68,28,0.0,16399,383281362152575,11,33.7,95.97354888916016,0.02420000173151493,25,3491.3102835720038,0.001655554942969963,1.57542003E9,,,,0,,1,0.85,1.57542003E9,301.0,NaN,NaN
Raw,231721914715943,648526155000000,,,-1265581155278329650,-0.5510807037353516,44.14133582031354,15.358592324387777,15.063979711200117,68,30,0.0,16399,383281356946989,10,34.8,566.6630859375,0.044600002467632294,25,21472.702500812306,0.0015223494237726067,1.57542003E9,,,,0,,1,0.85,1.57542003E9,301.0,NaN,NaN
Raw,231721914715943,648526155000000,,,-1265581155278329650,-0.5510807037353516,44.14133582031354,15.358592324387777,15.063979711200117,68,14,0.0,49359,48463369222657,12,32.2,-144.20191955566406,0.23510000109672546,25,-5491.123716243925,0.0017821758057520194,1.59806246E9,,,,0,,3,-2.96,1.59806246E9,301.0,NaN,NaN
Raw,231721914715943,648526155000000,,,-1265581155278329650,-0.5510807037353516,44.14133582031354,15.358592324387777,15.063979711200117,68,22,0.0,49359,48463355163325,21,26.1,-292.511962890625,0.2492000013589859,25,-11023.656965742448,0.005357743897484537,1.60031245E9,,,,0,,3,-2.96,1.60031245E9,301.0,NaN,NaN
Raw,231721914715943,648526155000000,,,-1265581155278329650,-0.5510807037353516,44.14133582031354,15.358592324387777,15.063979711200117,68,13,0.0,49359,48463364065726,80,16.2,586.9349365234375,2.122499942779541,16,0.0,0.0,1.60087501E9,,,,0,,3,-2.96,1.60087501E9,301.0,NaN,NaN
Raw,231721914715943,648526155000000,,,-1265581155278329650,-0.5510807037353516,44.14133582031354,15.358592324387777,15.063979711200117,68,15,0.0,49359,48463359424544,13,31.6,-713.6770629882812,0.25060001015663147,25,-26618.309413739807,0.0020397864077763375,1.602E9,,,,0,,3,-2.96,1.602E9,301.0,NaN,NaN
Raw,231721914715943,648526155000000,,,-1265581155278329650,-0.5510807037353516,44.14133582031354,15.358592324387777,15.063979711200117,68,5,0.0,49359,48463362587668,4,45.4,-631.7908325195312,0.21950000524520874,25,-23575.190052686183,4.11555480259189E-4,1.60256256E9,,,,0,,3,-2.96,1.60256256E9,301.0,NaN,NaN
Raw,231721914715943,648526155000000,,,-1265581155278329650,-0.5510807037353516,44.14133582031354,15.358592324387777,15.063979711200117,68,3,0.0,49359,48463361179734,19,27.6,717.9547729492188,0.2273000031709671,21,26586.630493630168,0.0031757429127933436,1.60481254E9,,,,0,,3,-2.96,1.60481254E9,301.0,NaN,NaN
Raw,231721914715943,648526155000000,,,-1265581155278329650,-0.5510807037353516,44.14133582031354,15.358592324387777,15.063979711200117,68,4,0.0,49359,48463369296301,16,29.2,78.40103149414062,0.23739999532699585,25,2772.443858436345,0.002763795652773509,1.60537498E9,,,,0,,3,-2.96,1.60537498E9,301.0,NaN,NaN
Raw,231721914715943,648526155000000,,,-1265581155278329650,-0.5510807037353516,44.14133582031354,15.358592324387777,15.063979711200117,68,22,0.0,16399,383267352204805,35,22.3,-462.4407043457031,0.8044999837875366,16,0.0,0.0,1.56109798E9,,,,0,,5,1.0,1.56109798E9,301.0,NaN,NaN
Raw,231721914715943,648526155000000,,,-1265581155278329650,-0.5510807037353516,44.14133582031354,15.358592324387777,15.063979711200117,68,20,0.0,16399,383267352132771,53,19.1,605.9134521484375,1.7645000219345093,16,0.0,0.0,1.56109798E9,,,,0,,5,1.0,1.56109798E9,301.0,NaN,NaN
Raw,231721914715943,648526155000000,,,-1265581155278329650,-0.5510807037353516,44.14133582031354,15.358592324387777,15.063979711200117,68,19,0.0,16399,383267360257540,12,32.3,115.78089141845703,0.02160000056028366,17,4228.370244568286,0.0018243750799829725,1.56109798E9,,,,0,,5,1.0,1.56109798E9,301.0,NaN,NaN
Raw,231721914715943,648526155000000,,,-1265581155278329650,-0.5510807037353516,44.14133582031354,15.358592324387777,15.063979711200117,68,10,0.0,16399,383267301410753,14,30.4,161.30577087402344,0.024400001391768456,25,5979.497230923317,0.0024196975554572116,1.56109798E9,,,,0,,5,1.0,1.56109798E9,301.0,NaN,NaN
Raw,231721914715943,648526155000000,,,-1265581155278329650,-0.5510807037353516,44.14133582031354,15.358592324387777,15.063979711200117,68,1,0.0,23567,383281349950856,24,25.0,342.39068603515625,0.058800000697374344,19,184.76448238206427,0.017526047264890512,1.57542003E9,,,,0,,6,0.66,1.57542003E9,301.0,NaN,NaN
Raw,231721914715943,648526155000000,,,-1265581155278329650,-0.5510807037353516,44.14133582031354,15.358592324387777,15.063979711200117,68,4,0.0,23567,383281348301817,14,30.9,469.4861755371094,0.04690000042319298,25,15683.999354478312,0.005233075867304602,1.57542003E9,,,,0,,6,0.66,1.57542003E9,301.0,NaN,NaN
Raw,231721914715943,648526155000000,,,-1265581155278329650,-0.5510807037353516,44.14133582031354,15.358592324387777,15.063979711200117,68,5,0.0,23567,383281346971796,24,25.0,-450.29949951171875,0.06030000001192093,21,-2494.411732767949,0.017526047264890512,1.57542003E9,,,,0,,6,0.66,1.57542003E9,301.0,NaN,NaN
Raw,231721914715943,648526155000000,,,-1265581155278329650,-0.5510807037353516,44.14133582031354,15.358592324387777,15.063979711200117,68,9,0.0,23567,383281361688763,11,33.1,-0.08337797969579697,0.04670000076293945,25,11.527806682409038,0.003596550258902148,1.57542003E9,,,,0,,6,0.66,1.57542003E9,301.0,NaN,NaN
Raw,231721914715943,648526155000000,,,-1265581155278329650,-0.5510807037353516,44.14133582031354,15.358592324387777,15.063979711200117,68,24,0.0,23567,383281349926490,16,29.8,-576.8524780273438,0.049400001764297485,25,-14197.315618532919,0.006146485344343376,1.57542003E9,,,,0,,6,0.66,1.57542003E9,301.0,NaN,NaN
Raw,231721914715943,648526155000000,,,-1265581155278329650,-0.5510807037353516,44.14133582031354,15.358592324387777,15.063979711200117,68,31,0.0,23567,383281354056067,13,31.4,-209.5406951904297,0.04910000041127205,25,-7879.768139674495,0.004528989424958011,1.57542003E9,,,,0,,6,0.66,1.57542003E9,301.0,NaN,NaN
Raw,231721914715943,648526155000000,,,-1265581155278329650,-0.5510807037353516,44.14133582031354,15.358592324387777,15.063979711200117,68,30,0.0,81935,383281356954837,3,31.7,566.6889038085938,0.05180000141263008,25,17738.977411379805,0.0027776256465907277,1.17645005E9,,,,0,,1,0.12,1.17645005E9,301.0,NaN,NaN
Raw,231721914715943,648526155000000,,,-1265581155278329650,-0.5510807037353516,44.14133582031354,15.358592324387777,15.063979711200117,68,1,0.0,81935,383281349957964,7,24.9,342.22052001953125,0.04560000076889992,29,10678.388250899345,0.08959753608771179,1.17645005E9,,,,0,,6,0.12,1.17645005E9,301.0,NaN,NaN
Raw,231721914715943,648526155000000,,,-1265581155278329650,-0.5510807037353516,44.14133582031354,15.358592324387777,15.063979711200117,68,4,0.0,81935,383281348308900,3,32.8,469.2048645019531,0.038600001484155655,25,14657.130566586899,0.0024208662868967453,1.17645005E9,,,,0,,6,0.12,1.17645005E9,301.0,NaN,NaN
Raw,231721914715943,648526155000000,,,-1265581155278329650,-0.5510807037353516,44.14133582031354,15.358592324387777,15.063979711200117,68,5,0.0,81935,383281346978927,14,17.9,-450.25567626953125,1.005500078201294,16,0.0,0.0,1.17645005E9,,,,0,,6,0.12,1.17645005E9,301.0,NaN,NaN
Raw,231721914715943,648526155000000,,,-1265581155278329650,-0.5510807037353516,44.14133582031354,15.358592324387777,15.063979711200117,68,9,0.0,81935,383281361695849,3,33.8,-0.33143186569213867,0.027000000700354576,25,-64.79197635120929,0.0022170039651624013,1.17645005E9,,,,0,,6,0.12,1.17645005E9,301.0,NaN,NaN
Raw,231721914715943,648526155000000,,,-1265581155278329650,-0.5510807037353516,44.14133582031354,15.358592324387777,15.063979711200117,68,24,0.0,81935,383281349933557,4,29.7,-577.06494140625,0.04450000077486038,25,-17617.96417521337,0.0037714549693657518,1.17645005E9,,,,0,,6,0.12,1.17645005E9,301.0,NaN,NaN
Raw,231721914715943,648526155000000,,,-1265581155278329650,-0.5510807037353516,44.14133582031354,15.358592324387777,15.063979711200117,68,31,0.0,81935,383281354063162,3,33.3,-209.78656005859375,0.04650000110268593,25,-6638.708974828069,0.0022170039651624013,1.17645005E9,,,,0,,6,0.12,1.17645005E9,301.0,NaN,NaN
Fix,gps,51.524519,-0.134271,78.232849,0.000000,3.790092,1582194465000,231722897867708
Raw,231722912961511,648527155000000,,,-1265581155278329638,-0.48114013671875,39.66464282711968,12.905716380900193,14.081567067331555,68,5,0.0,16399,383282354333165,35,22.5,710.1207885742188,0.4027999937534332,21,26054.550682082427,0.19029366893311156,1.57542003E9,,,,0,,1,0.69,1.57542003E9,301.0,NaN,NaN
Raw,231722912961511,648527155000000,,,-1265581155278329638,-0.48114013671875,39.66464282711968,12.905716380900193,14.081567067331555,68,13,0.0,16399,383282365875735,24,25.0,145.7203826904297,0.040800001472234726,21,5589.380538652683,0.19029366893311156,1.57542003E9,,,,0,,1,0.69,1.57542003E9,301.0,NaN,NaN
Raw,231722912961511,648527155000000,,,-1265581155278329638,-0.48114013671875,39.66464282711968,12.905716380900193,14.081567067331555,68,15,0.0,16399,383282365203186,53,19.9,-197.6104736328125,1.6440000534057617,16,0.0,0.0,1.57542003E9,,,,0,,1,0.69,1.57542003E9,301.0,NaN,NaN
Raw,231722912961511,648527155000000,,,-1265581155278329638,-0.48114013671875,39.66464282711968,12.905716380900193,14.081567067331555,68,17,0.0,16399,383282349330275,70,17.8,-558.3787231445312,1.0899999141693115,16,0.0,0.0,1.57542003E9,,,,0,,1,0.69,1.57542003E9,301.0,NaN,NaN
Raw,231722912961511,648527155000000,,,-1265581155278329638,-0.48114013671875,39.66464282711968,12.905716380900193,14.081567067331555,68,20,0.0,16399,383282355592149,35,22.3,-442.23297119140625,0.8089999556541443,16,0.0,0.0,1.57542003E9,,,,0,,1,0.69,1.57542003E9,301.0,NaN,NaN
Raw,231722912961511,648527155000000,,,-1265581155278329638,-0.48114013671875,39.66464282711968,12.905716380900193,14.081567067331555,68,24,0.0,16399,383282356078668,46,20.0,-620.1005249023438,0.9404999613761902,16,0.0,0.0,1.57542003E9,,,,0,,1,0.69,1.57542003E9,301.0,NaN,NaN
Raw,231722912961511,648527155000000,,,-1265581155278329638,-0.48114013671875,39.66464282711968,12.905716380900193,14.081567067331555,68,28,0.0,16399,383282362152236,11,33.4,95.7470932006836,0.02420000173151493,25,3587.443125708606,0.001655554942969963,1.57542003E9,,,,0,,1,0.69,1.57542003E9,301.0,NaN,NaN
Raw,231722912961511,648527155000000,,,-1265581155278329638,-0.48114013671875,39.66464282711968,12.905716380900193,14.081567067331555,68,30,0.0,16399,383282356945094,11,33.8,566.40673828125,0.04520000144839287,25,22039.533746036035,0.001655554942969963,1.57542003E9,,,,0,,1,0.69,1.57542003E9,301.0,NaN,NaN
Raw,231722912961511,648527155000000,,,-1265581155278329638,-0.48114013671875,39.66464282711968,12.905716380900193,14.081567067331555,68,14,0.0,49359,48464369223094,14,30.3,-144.3755645751953,0.23640000820159912,25,-5635.1442494185685,0.0023637279898678486,1.59806246E9,,,,0,,3,-3.15,1.59806246E9,301.0,NaN,NaN
Raw,231722912961511,648527155000000,,,-1265581155278329638,-0.48114013671875,39.66464282711968,12.905716380900193,14.081567067331555,68,22,0.0,49359,48464355164261,24,25.7,-292.7418518066406,0.2558000087738037,29,-11316.002765524774,0.18733370372433672,1.60031245E9,,,,0,,3,-3.15,1.60031245E9,301.0,NaN,NaN
