# 
# Header Description:
# 
# Version: v2.0.0.1 Platform: 10 Manufacturer: Google Model: Pixel 4
# 
# Raw,ElapsedRealtimeNanos,TimeNanos,LeapSecond,TimeUncertaintyNanos,FullBiasNanos,BiasNanos,BiasUncertaintyNanos,DriftNanosPerSecond,DriftUncertaintyNanosPerSecond,HardwareClockDiscontinuityCount,Svid,TimeOffsetNanos,State,ReceivedSvTimeNanos,ReceivedSvTimeUncertaintyNanos,Cn0DbHz,PseudorangeRateMetersPerSecond,PseudorangeRateUncertaintyMetersPerSecond,AccumulatedDeltaRangeState,AccumulatedDeltaRangeMeters,AccumulatedDeltaRangeUncertaintyMeters,CarrierFrequencyHz,CarrierCycles,CarrierPhase,CarrierPhaseUncertainty,MultipathIndicator,SnrInDb,ConstellationType,AgcDb,CarrierFrequencyHz,UserLatitude,UserLongitude,UserAltitude
# 
# Fix,Provider,Latitude,Longitude,Altitude,Speed,Accuracy,(UTC)TimeInMs,ElapsedRealtimeNanos
# 
# Nav,Svid,Type,Status,MessageId,Sub-messageId,Data(Bytes)
# 
Fix,gps,51.524658,-0.134299,75.180054,0.000000,3.790092,1582195569000,232826901459197
Raw,232826927753054,649631205000000,,,-1265581155241042863,-0.2870316505432129,35.86029924917966,9.010239729716506,9.592823583032079,147,5,0.0,16399,384386364398278,46,20.6,729.0816650390625,0.92249995470047,16,0.0,0.0,1.57542003E9,,,,0,,1,0.21,1.57542003E9,361.0,NaN,NaN
Raw,232826927753054,649631205000000,,,-1265581155241042863,-0.2870316505432129,35.86029924917966,9.010239729716506,9.592823583032079,147,13,0.0,16399,384386377874239,8,36.8,247.133544921875,0.045100003480911255,25,14593.073943569441,0.001160791358090767,1.57542003E9,,,,0,,1,0.21,1.57542003E9,361.0,NaN,NaN
Raw,232826927753054,649631205000000,,,-1265581155241042863,-0.2870316505432129,35.86029924917966,9.010239729716506,9.592823583032079,147,15,0.0,16399,384386378445967,11,33.9,-83.2918701171875,0.04820000380277634,25,-5179.615801648786,0.001655554942969963,1.57542003E9,,,,0,,1,0.21,1.57542003E9,361.0,NaN,NaN
Raw,232826927753054,649631205000000,,,-1265581155241042863,-0.2870316505432129,35.86029924917966,9.010239729716506,9.592823583032079,147,17,0.0,16399,384386364061190,16,29.5,-528.8823852539062,0.029900001361966133,25,-31658.737144197068,0.00281634630106073,1.57542003E9,,,,0,,1,0.21,1.57542003E9,361.0,NaN,NaN
Raw,232826927753054,649631205000000,,,-1265581155241042863,-0.2870316505432129,35.86029924917966,9.010239729716506,9.592823583032079,147,20,0.0,16399,384386369736351,10,34.8,-327.3490295410156,0.0340999998152256,25,-19761.96760073724,0.0015223494237726067,1.57542003E9,,,,0,,1,0.21,1.57542003E9,361.0,NaN,NaN
Raw,232826927753054,649631205000000,,,-1265581155241042863,-0.2870316505432129,35.86029924917966,9.010239729716506,9.592823583032079,147,24,0.0,16399,384386371002386,61,18.7,-572.4319458007812,1.8429999351501465,16,0.0,0.0,1.57542003E9,,,,0,,1,0.21,1.57542003E9,361.0,NaN,NaN
Raw,232826927753054,649631205000000,,,-1265581155241042863,-0.2870316505432129,35.86029924917966,9.010239729716506,9.592823583032079,147,28,0.0,16399,384386374295472,10,34.2,217.162353515625,0.041600000113248825,25,12775.52012593072,0.0015223494237726067,1.57542003E9,,,,0,,1,0.21,1.57542003E9,361.0,NaN,NaN
Raw,232826927753054,649631205000000,,,-1265581155241042863,-0.2870316505432129,35.86029924917966,9.010239729716506,9.592823583032079,147,30,0.0,16399,384386367519586,9,35.6,598.075927734375,0.03060000203549862,25,35670.98268172042,0.0013320557236479321,1.57542003E9,,,,0,,1,0.21,1.57542003E9,361.0,NaN,NaN
Raw,232826927753054,649631205000000,,,-1265581155241042863,-0.2870316505432129,35.86029924917966,9.010239729716506,9.592823583032079,147,14,0.0,49359,49568382201137,7,37.9,4.467899799346924,0.20740000903606415,25,32.63716022445662,9.94266504915028E-4,1.59806246E9,,,,0,,3,-0.82,1.59806246E9,361.0,NaN,NaN
Raw,232826927753054,649631205000000,,,-1265581155241042863,-0.2870316505432129,35.86029924917966,9.010239729716506,9.592823583032079,147,22,0.0,49359,49568368655225,35,22.6,-122.0915756225586,0.5938000082969666,29,-7176.5373607378,0.18733370372433672,1.60031245E9,,,,0,,3,-0.82,1.60031245E9,361.0,NaN,NaN
Raw,232826927753054,649631205000000,,,-1265581155241042863,-0.2870316505432129,35.86029924917966,9.010239729716506,9.592823583032079,147,13,0.0,49359,49568374489174,106,14.1,656.9356689453125,5.327499866485596,16,0.0,0.0,1.60087501E9,,,,0,,3,-0.82,1.60087501E9,361.0,NaN,NaN
Raw,232826927753054,649631205000000,,,-1265581155241042863,-0.2870316505432129,35.86029924917966,9.010239729716506,9.592823583032079,147,15,0.0,49359,49568374645513,40,21.7,-638.6309204101562,1.7575000524520874,16,0.0,0.0,1.602E9,,,,0,,3,-0.82,1.602E9,361.0,NaN,NaN
Raw,232826927753054,649631205000000,,,-1265581155241042863,-0.2870316505432129,35.86029924917966,9.010239729716506,9.592823583032079,147,5,0.0,49359,49568377463577,5,41.2,-531.2044067382812,0.24380001425743103,25,-31717.27119806729,6.734544143230755E-4,1.60256256E9,,,,0,,3,-0.82,1.60256256E9,361.0,NaN,NaN
Raw,232826927753054,649631205000000,,,-1265581155241042863,-0.2870316505432129,35.86029924917966,9.010239729716506,9.592823583032079,147,3,0.0,49359,49568371120265,35,22.4,787.7430419921875,0.9429999589920044,16,0.0,0.0,1.60481254E9,,,,0,,3,-0.82,1.60481254E9,361.0,NaN,NaN
Raw,232826927753054,649631205000000,,,-1265581155241042863,-0.2870316505432129,35.86029924917966,9.010239729716506,9.592823583032079,147,4,0.0,49359,49568381422252,8,36.7,245.14505004882812,0.2061000019311905,25,14094.299656694859,0.0011391319696942128,1.60537498E9,,,,0,,3,-0.82,1.60537498E9,361.0,NaN,NaN
Raw,232826927753054,649631205000000,,,-1265581155241042863,-0.2870316505432129,35.86029924917966,9.010239729716506,9.592823583032079,147,37,0.0,16399,384372366066862,4,42.9,490.1568298339844,0.02710000053048134,25,29167.368114601653,5.953224307615613E-4,1.56109798E9,,,,0,,5,0.0,1.56109798E9,361.0,NaN,NaN
Raw,232826927753054,649631205000000,,,-1265581155241042863,-0.2870316505432129,35.86029924917966,9.010239729716506,9.592823583032079,147,22,0.0,16399,384372366488541,5,40.8,-382.3008117675781,0.0276000015437603,25,-22962.938400868916,7.489539839688142E-4,1.56109798E9,,,,0,,5,0.0,1.56109798E9,361.0,NaN,NaN
Raw,232826927753054,649631205000000,,,-1265581155241042863,-0.2870316505432129,35.86029924917966,9.010239729716506,9.592823583032079,147,20,0.0,16399,384372362542492,24,25.0,646.970703125,0.021299999207258224,21,37375.626994575534,0.1920394882785269,1.56109798E9,,,,0,,5,0.0,1.56109798E9,361.0,NaN,NaN
Raw,232826927753054,649631205000000,,,-1265581155241042863,-0.2870316505432129,35.86029924917966,9.010239729716506,9.592823583032079,147,19,0.0,16399,384372372346119,16,29.8,227.80340576171875,0.04190000146627426,17,12999.88588680595,0.0028421844273806814,1.56109798E9,,,,0,,5,0.0,1.56109798E9,361.0,NaN,NaN
Raw,232826927753054,649631205000000,,,-1265581155241042863,-0.2870316505432129,35.86029924917966,9.010239729716506,9.592823583032079,147,10,0.0,16399,384372313515335,13,31.4,173.64524841308594,0.041600000113248825,25,10019.367761840243,0.0020932304434118673,1.56109798E9,,,,0,,5,0.0,1.56109798E9,361.0,NaN,NaN
Raw,232826927753054,649631205000000,,,-1265581155241042863,-0.2870316505432129,35.86029924917966,9.010239729716506,9.592823583032079,147,1,0.0,23567,384386361297108,11,33.1,402.6409606933594,0.04670000076293945,25,23905.94629072332,0.003596550258902148,1.57542003E9,,,,0,,6,0.11,1.57542003E9,361.0,NaN,NaN
Raw,232826927753054,649631205000000,,,-1265581155241042863,-0.2870316505432129,35.86029924917966,9.010239729716506,9.592823583032079,147,4,0.0,23567,384386359214035,13,31.9,511.998046875,0.05060000345110893,25,29906.411021610365,0.004528989424958011,1.57542003E9,,,,0,,6,0.11,1.57542003E9,361.0,NaN,NaN
Raw,232826927753054,649631205000000,,,-1265581155241042863,-0.2870316505432129,35.86029924917966,9.010239729716506,9.592823583032079,147,5,0.0,23567,384386361286762,5,40.2,-411.35516357421875,0.04410000145435333,25,-24623.580496346054,0.001617496273834944,1.57542003E9,,,,0,,6,0.11,1.57542003E9,361.0,NaN,NaN
Raw,232826927753054,649631205000000,,,-1265581155241042863,-0.2870316505432129,35.86029924917966,9.010239729716506,9.592823583032079,147,9,0.0,23567,384386374267478,9,35.0,79.08335876464844,0.0471000038087368,25,4567.820566269131,0.0028924638165555576,1.57542003E9,,,,0,,6,0.11,1.57542003E9,361.0,NaN,NaN
Raw,232826927753054,649631205000000,,,-1265581155241042863,-0.2870316505432129,35.86029924917966,9.010239729716506,9.592823583032079,147,24,0.0,23567,384386364716531,21,26.8,-542.827392578125,0.050700001418590546,21,-5167.9765445369285,0.011874324619302384,1.57542003E9,,,,0,,6,0.11,1.57542003E9,361.0,NaN,NaN
Raw,232826927753054,649631205000000,,,-1265581155241042863,-0.2870316505432129,35.86029924917966,9.010239729716506,9.592823583032079,147,31,0.0,23567,384386367392168,8,36.7,-122.95074462890625,0.048100002110004425,25,-7490.22669891255,0.0025499350854412276,1.57542003E9,,,,0,,6,0.11,1.57542003E9,361.0,NaN,NaN
Raw,232826927753054,649631205000000,,,-1265581155241042863,-0.2870316505432129,35.86029924917966,9.010239729716506,9.592823583032079,147,24,0.0,81935,384386371010075,9,21.9,-573.5414428710938,0.8029999732971191,16,0.0,0.0,1.17645005E9,,,,0,,1,-0.38,1.17645005E9,361.0,NaN,NaN
Raw,232826927753054,649631205000000,,,-1265581155241042863,-0.2870316505432129,35.86029924917966,9.010239729716506,9.592823583032079,147,30,0.0,81935,384386367527388,7,24.2,598.077392578125,0.08560000360012054,29,31885.289564796138,0.25482803839368795,1.17645005E9,,,,0,,1,-0.38,1.17645005E9,361.0,NaN,NaN
Raw,232826927753054,649631205000000,,,-1265581155241042863,-0.2870316505432129,35.86029924917966,9.010239729716506,9.592823583032079,147,1,0.0,81935,384386361304200,3,33.4,401.9257507324219,0.012000000104308128,25,21408.0587485655,0.0022170039651624013,1.17645005E9,,,,0,,6,-0.38,1.17645005E9,361.0,NaN,NaN
Raw,232826927753054,649631205000000,,,-1265581155241042863,-0.2870316505432129,35.86029924917966,9.010239729716506,9.592823583032079,147,4,0.0,81935,384386359221095,4,30.1,511.58563232421875,0.05770000070333481,25,27286.117911184803,0.0032108332879374254,1.17645005E9,,,,0,,6,-0.38,1.17645005E9,361.0,NaN,NaN
Raw,232826927753054,649631205000000,,,-1265581155241042863,-0.2870316505432129,35.86029924917966,9.010239729716506,9.592823583032079,147,5,0.0,81935,384386361293861,2,35.9,-412.0630187988281,0.010100000537931919,25,-22013.365930525335,0.0017837963238157039,1.17645005E9,,,,0,,6,-0.38,1.17645005E9,361.0,NaN,NaN
Raw,232826927753054,649631205000000,,,-1265581155241042863,-0.2870316505432129,35.86029924917966,9.010239729716506,9.592823583032079,147,9,0.0,81935,384386374274577,4,30.1,78.64269256591797,0.050200000405311584,25,4117.498654964095,0.0032108332879374254,1.17645005E9,,,,0,,6,-0.38,1.17645005E9,361.0,NaN,NaN
Raw,232826927753054,649631205000000,,,-1265581155241042863,-0.2870316505432129,35.86029924917966,9.010239729716506,9.592823583032079,147,31,0.0,81935,384386367399253,10,20.6,-123.25965881347656,0.08619999885559082,29,-6687.238815162923,0.34557229348499413,1.17645005E9,,,,0,,6,-0.38,1.17645005E9,361.0,NaN,NaN
Fix,gps,51.524658,-0.134298,75.187378,0.000000,3.790092,1582195570000,232827907194662
Raw,232827935318831,649632205000000,,,-1265581155241042858,-0.6043417453765869,34.51004522503354,4.929143819257881,9.643369116208762,147,5,0.0,16399,384387364395826,35,22.2,730.1378173828125,0.7924999594688416,16,0.0,0.0,1.57542003E9,,,,0,,1,0.7,1.57542003E9,361.0,NaN,NaN
Raw,232827935318831,649632205000000,,,-1265581155241042858,-0.6043417453765869,34.51004522503354,4.929143819257881,9.643369116208762,147,13,0.0,16399,384387377873405,7,37.0,248.12582397460938,0.04490000009536743,25,14839.942784879988,0.0010085564157135064,1.57542003E9,,,,0,,1,0.7,1.57542003E9,361.0,NaN,NaN
Raw,232827935318831,649632205000000,,,-1265581155241042858,-0.6043417453765869,34.51004522503354,4.929143819257881,9.643369116208762,147,15,0.0,16399,384387378446248,8,36.1,-82.3219985961914,0.04660000279545784,25,-5263.204328211432,0.001160791358090767,1.57542003E9,,,,0,,1,0.7,1.57542003E9,361.0,NaN,NaN
Raw,232827935318831,649632205000000,,,-1265581155241042858,-0.6043417453765869,34.51004522503354,4.929143819257881,9.643369116208762,147,17,0.0,16399,384387364063005,16,29.0,-527.923583984375,0.029900001361966133,25,-32187.888167241104,0.00281634630106073,1.57542003E9,,,,0,,1,0.7,1.57542003E9,361.0,NaN,NaN
Raw,232827935318831,649632205000000,,,-1265581155241042858,-0.6043417453765869,34.51004522503354,4.929143819257881,9.643369116208762,147,20,0.0,16399,384387369737476,10,34.7,-326.3065185546875,0.0340999998152256,25,-20089.583364709175,0.0015223494237726067,1.57542003E9,,,,0,,1,0.7,1.57542003E9,361.0,NaN,NaN
Raw,232827935318831,649632205000000,,,-1265581155241042858,-0.6043417453765869,34.51004522503354,4.929143819257881,9.643369116208762,147,28,0.0,16399,384387374294740,9,35.0,218.17343139648438,0.04110000282526016,25,12992.422948526653,0.0013320557236479321,1.57542003E9,,,,0,,1,0.7,1.57542003E9,361.0,NaN,NaN
Raw,232827935318831,649632205000000,,,-1265581155241042858,-0.6043417453765869,34.51004522503354,4.929143819257881,9.643369116208762,147,30,0.0,16399,384387367517569,8,36.3,599.07958984375,0.030100001022219658,25,36268.82325741826,0.001160791358090767,1.57542003E9,,,,0,,1,0.7,1.57542003E9,361.0,NaN,NaN
Raw,232827935318831,649632205000000,,,-1265581155241042858,-0.6043417453765869,34.51004522503354,4.929143819257881,9.643369116208762,147,14,0.0,49359,49569382201101,7,37.6,5.67841100692749,0.2224000096321106,25,37.014668767233296,9.94266504915028E-4,1.59806246E9,,,,0,,3,-0.38,1.59806246E9,361.0,NaN,NaN
Raw,232827935318831,649632205000000,,,-1265581155241042858,-0.6043417453765869,34.51004522503354,4.929143819257881,9.643369116208762,147,22,0.0,49359,49569368655864,21,26.5,-121.11107635498047,0.2387000024318695,21,-7298.966759926419,0.005357743897484537,1.60031245E9,,,,0,,3,-0.38,1.60031245E9,361.0,NaN,NaN
Raw,232827935318831,649632205000000,,,-1265581155241042858,-0.6043417453765869,34.51004522503354,4.929143819257881,9.643369116208762,147,13,0.0,49359,49569374487222,46,20.9,658.7053833007812,1.0674999952316284,16,0.0,0.0,1.60087501E9,,,,0,,3,-0.38,1.60087501E9,361.0,NaN,NaN
Raw,232827935318831,649632205000000,,,-1265581155241042858,-0.6043417453765869,34.51004522503354,4.929143819257881,9.643369116208762,147,15,0.0,49359,49569374647753,31,23.6,-638.7050170898438,0.33219999074935913,19,-38192.03864228397,0.18713636579275905,1.602E9,,,,0,,3,-0.38,1.602E9,361.0,NaN,NaN
Raw,232827935318831,649632205000000,,,-1265581155241042858,-0.6043417453765869,34.51004522503354,4.929143819257881,9.643369116208762,147,5,0.0,49359,49569377465356,4,42.7,-530.2261352539062,0.2436000108718872,25,-32248.777854669872,5.799191056178505E-4,1.60256256E9,,,,0,,3,-0.38,1.60256256E9,361.0,NaN,NaN
Raw,232827935318831,649632205000000,,,-1265581155241042858,-0.6043417453765869,34.51004522503354,4.929143819257881,9.643369116208762,147,3,0.0,49359,49569371117602,53,19.0,790.0127563476562,1.1330000162124634,16,0.0,0.0,1.60481254E9,,,,0,,3,-0.38,1.60481254E9,361.0,NaN,NaN
Raw,232827935318831,649632205000000,,,-1265581155241042858,-0.6043417453765869,34.51004522503354,4.929143819257881,9.643369116208762,147,4,0.0,49359,49569381421455,8,36.8,246.37828063964844,0.22110000252723694,25,14339.369636413432,0.0011391319696942128,1.60537498E9,,,,0,,3,-0.38,1.60537498E9,361.0,NaN,NaN
Raw,232827935318831,649632205000000,,,-1265581155241042858,-0.6043417453765869,34.51004522503354,4.929143819257881,9.643369116208762,147,37,0.0,16399,384373366065225,4,43.7,491.12689208984375,0.027000000700354576,25,29657.256002566446,5.185066318015961E-4,1.56109798E9,,,,0,,5,0.55,1.56109798E9,361.0,NaN,NaN
Raw,232827935318831,649632205000000,,,-1265581155241042858,-0.6043417453765869,34.51004522503354,4.929143819257881,9.643369116208762,147,22,0.0,16399,384373366489810,5,41.2,-381.3080139160156,0.027300002053380013,25,-23345.522191168915,6.913421459270097E-4,1.56109798E9,,,,0,,5,0.55,1.56109798E9,361.0,NaN,NaN
Raw,232827935318831,649632205000000,,,-1265581155241042858,-0.6043417453765869,34.51004522503354,4.929143819257881,9.643369116208762,147,20,0.0,16399,384373362540372,31,23.5,648.2101440429688,0.7294999957084656,16,0.0,0.0,1.56109798E9,,,,0,,5,0.55,1.56109798E9,361.0,NaN,NaN
Raw,232827935318831,649632205000000,,,-1265581155241042858,-0.6043417453765869,34.51004522503354,4.929143819257881,9.643369116208762,147,19,0.0,16399,384373372345384,16,29.8,228.83995056152344,0.04190000146627426,25,13227.424593191594,0.0028421844273806814,1.56109798E9,,,,0,,5,0.55,1.56109798E9,361.0,NaN,NaN
Raw,232827935318831,649632205000000,,,-1265581155241042858,-0.6043417453765869,34.51004522503354,4.929143819257881,9.643369116208762,147,10,0.0,16399,384373313514764,11,33.5,174.57891845703125,0.04070000350475311,25,10192.722672093465,0.0016707435714883973,1.56109798E9,,,,0,,5,0.55,1.56109798E9,361.0,NaN,NaN
Raw,232827935318831,649632205000000,,,-1265581155241042858,-0.6043417453765869,34.51004522503354,4.929143819257881,9.643369116208762,147,1,0.0,23567,384387361295761,10,34.4,403.3192443847656,0.04610000178217888,25,24308.1019892697,0.003311109885939926,1.57542003E9,,,,0,,6,0.58,1.57542003E9,361.0,NaN,NaN
Raw,232827935318831,649632205000000,,,-1265581155241042858,-0.6043417453765869,34.51004522503354,4.929143819257881,9.643369116208762,147,4,0.0,23567,384387359212302,11,33.0,512.7056884765625,0.04970000311732292,25,30417.97311989086,0.003596550258902148,1.57542003E9,,,,0,,6,0.58,1.57542003E9,361.0,NaN,NaN
Raw,232827935318831,649632205000000,,,-1265581155241042858,-0.6043417453765869,34.51004522503354,4.929143819257881,9.643369116208762,147,5,0.0,23567,384387361288134,5,40.1,-410.6860656738281,0.04410000145435333,25,-25035.408453533986,0.001617496273834944,1.57542003E9,,,,0,,6,0.58,1.57542003E9,361.0,NaN,NaN
Raw,232827935318831,649632205000000,,,-1265581155241042858,-0.6043417453765869,34.51004522503354,4.929143819257881,9.643369116208762,147,9,0.0,23567,384387374267221,9,35.8,79.8011474609375,0.0471000038087368,25,4646.459121903937,0.0028924638165555576,1.57542003E9,,,,0,,6,0.58,1.57542003E9,361.0,NaN,NaN
Raw,232827935318831,649632205000000,,,-1265581155241042858,-0.6043417453765869,34.51004522503354,4.929143819257881,9.643369116208762,147,24,0.0,23567,384387364718344,19,27.2,-542.384033203125,0.049800001084804535,21,-5711.159423427739,0.007212130206821385,1.57542003E9,,,,0,,6,0.58,1.57542003E9,361.0,NaN,NaN
Raw,232827935318831,649632205000000,,,-1265581155241042858,-0.6043417453765869,34.51004522503354,4.929143819257881,9.643369116208762,147,31,0.0,23567,384387367392565,8,36.7,-122.2337875366211,0.048100002110004425,25,-7613.62339295889,0.0025499350854412276,1.57542003E9,,,,0,,6,0.58,1.57542003E9,361.0,NaN,NaN
Raw,232827935318831,649632205000000,,,-1265581155241042858,-0.6043417453765869,34.51004522503354,4.929143819257881,9.643369116208762,147,24,0.0,81935,384387371011988,6,25.9,-571.6047973632812,0.5929999947547913,16,0.0,0.0,1.17645005E9,,,,0,,1,8.21,1.17645005E9,361.0,NaN,NaN
Raw,232827935318831,649632205000000,,,-1265581155241042858,-0.6043417453765869,34.51004522503354,4.929143819257881,9.643369116208762,147,30,0.0,81935,384387367525393,6,26.7,599.0900268554688,0.05260000005364418,29,32483.11608484137,0.007288081858568245,1.17645005E9,,,,0,,1,8.21,1.17645005E9,361.0,NaN,NaN
Raw,232827935318831,649632205000000,,,-1265581155241042858,-0.6043417453765869,34.51004522503354,4.929143819257881,9.643369116208762,147,1,0.0,81935,384387361302858,2,36.9,403.6871032714844,0.024400001391768456,25,21810.281178137353,0.0015544510042033504,1.17645005E9,,,,0,,6,8.21,1.17645005E9,361.0,NaN,NaN
Raw,232827935318831,649632205000000,,,-1265581155241042858,-0.6043417453765869,34.51004522503354,4.929143819257881,9.643369116208762,147,4,0.0,81935,384387359219384,3,33.4,512.9780883789062,0.05400000140070915,25,27797.707017602843,0.0022170039651624013,1.17645005E9,,,,0,,6,8.21,1.17645005E9,361.0,NaN,NaN
Raw,232827935318831,649632205000000,,,-1265581155241042858,-0.6043417453765869,34.51004522503354,4.929143819257881,9.643369116208762,147,5,0.0,81935,384387361295232,2,39.7,-410.32611083984375,0.02250000089406967,25,-22425.158304045555,0.001121243362856653,1.17645005E9,,,,0,,6,8.21,1.17645005E9,361.0,NaN,NaN
Raw,232827935318831,649632205000000,,,-1265581155241042858,-0.6043417453765869,34.51004522503354,4.929143819257881,9.643369116208762,147,9,0.0,81935,384387374274314,2,34.4,80.10016632080078,0.045500002801418304,25,4196.173339097491,0.0020386244039789624,1.17645005E9,,,,0,,6,8.21,1.17645005E9,361.0,NaN,NaN
Raw,232827935318831,649632205000000,,,-1265581155241042858,-0.6043417453765869,34.51004522503354,4.929143819257881,9.643369116208762,147,31,0.0,81935,384387367399674,8,22.9,-121.8839111328125,0.047200001776218414,29,-6810.687888580328,0.34557229348499413,1.17645005E9,,,,0,,6,8.21,1.17645005E9,361.0,NaN,NaN
Fix,gps,51.524658,-0.134298,75.188782,0.000000,3.790092,1582195571000,232828903477782
Raw,232828917978148,649633205000000,,,-1265581155241042846,-0.7728197574615479,32.76990173617378,7.557700423154678,10.611073079112161,147,5,0.0,16399,384388364393326,46,20.4,731.6886596679688,0.92249995470047,16,0.0,0.0,1.57542003E9,,,,0,,1,0.7,1.57542003E9,361.0,NaN,NaN
Raw,232828917978148,649633205000000,,,-1265581155241042846,-0.7728197574615479,32.76990173617378,7.557700423154678,10.611073079112161,147,13,0.0,16399,384388377872574,8,36.4,248.65640258789062,0.045100003480911255,25,15088.583939192753,0.001160791358090767,1.57542003E9,,,,0,,1,0.7,1.57542003E9,361.0,NaN,NaN
Raw,232828917978148,649633205000000,,,-1265581155241042846,-0.7728197574615479,32.76990173617378,7.557700423154678,10.611073079112161,147,15,0.0,16399,384388378446525,8,36.3,-81.76732635498047,0.04660000279545784,25,-5344.999343622717,0.001160791358090767,1.57542003E9,,,,0,,1,0.7,1.57542003E9,361.0,NaN,NaN
Raw,232828917978148,649633205000000,,,-1265581155241042846,-0.7728197574615479,32.76990173617378,7.557700423154678,10.611073079112161,147,17,0.0,16399,384388364064773,11,33.2,-527.4317626953125,0.0272000003606081,25,-32715.335337759476,0.001655554942969963,1.57542003E9,,,,0,,1,0.7,1.57542003E9,361.0,NaN,NaN
Raw,232828917978148,649633205000000,,,-1265581155241042846,-0.7728197574615479,32.76990173617378,7.557700423154678,10.611073079112161,147,20,0.0,16399,384388369738527,9,35.9,-325.81622314453125,0.03360000252723694,25,-20415.41034431645,0.0013320557236479321,1.57542003E9,,,,0,,1,0.7,1.57542003E9,361.0,NaN,NaN
Raw,232828917978148,649633205000000,,,-1265581155241042846,-0.7728197574615479,32.76990173617378,7.557700423154678,10.611073079112161,147,24,0.0,16399,384388371006222,53,19.2,-571.79443359375,1.7630000114440918,16,0.0,0.0,1.57542003E9,,,,0,,1,0.7,1.57542003E9,361.0,NaN,NaN
Raw,232828917978148,649633205000000,,,-1265581155241042846,-0.7728197574615479,32.76990173617378,7.557700423154678,10.611073079112161,147,28,0.0,16399,384388374294034,9,35.1,218.75064086914062,0.04110000282526016,25,13211.136642035885,0.0013320557236479321,1.57542003E9,,,,0,,1,0.7,1.57542003E9,361.0,NaN,NaN
Raw,232828917978148,649633205000000,,,-1265581155241042846,-0.7728197574615479,32.76990173617378,7.557700423154678,10.611073079112161,147,30,0.0,16399,384388367515612,9,35.4,599.5150756835938,0.03060000203549862,25,36868.35939318569,0.0013320557236479321,1.57542003E9,,,,0,,1,0.7,1.57542003E9,361.0,NaN,NaN
Raw,232828917978148,649633205000000,,,-1265581155241042846,-0.7728197574615479,32.76990173617378,7.557700423154678,10.611073079112161,147,14,0.0,49359,49570382201094,7,37.6,6.216606140136719,0.2224000096321106,25,43.185254867410784,9.94266504915028E-4,1.59806246E9,,,,0,,3,-0.36,1.59806246E9,361.0,NaN,NaN
Raw,232828917978148,649633205000000,,,-1265581155241042846,-0.7728197574615479,32.76990173617378,7.557700423154678,10.611073079112161,147,22,0.0,49359,49570368656151,12,32.3,-120.54255676269531,0.23360000550746918,25,-7419.558202637842,0.0017796701281556596,1.60031245E9,,,,0,,3,-0.36,1.60031245E9,361.0,NaN,NaN
Raw,232828917978148,649633205000000,,,-1265581155241042846,-0.7728197574615479,32.76990173617378,7.557700423154678,10.611073079112161,147,15,0.0,49359,49570374649850,17,28.1,-637.564208984375,0.24620001018047333,25,-38829.56634337796,0.0029567544367518762,1.602E9,,,,0,,3,-0.36,1.602E9,361.0,NaN,NaN
Raw,232828917978148,649633205000000,,,-1265581155241042846,-0.7728197574615479,32.76990173617378,7.557700423154678,10.611073079112161,147,5,0.0,49359,49570377467124,4,42.9,-529.6795654296875,0.2436000108718872,25,-32778.47924328795,5.799191056178505E-4,1.60256256E9,,,,0,,3,-0.36,1.60256256E9,361.0,NaN,NaN
Raw,232828917978148,649633205000000,,,-1265581155241042846,-0.7728197574615479,32.76990173617378,7.557700423154678,10.611073079112161,147,3,0.0,49359,49570371114892,27,24.0,789.2252807617188,0.25780001282691956,27,48208.87036070311,0.1868083964827234,1.60481254E9,,,,0,,3,-0.36,1.60481254E9,361.0,NaN,NaN
Raw,232828917978148,649633205000000,,,-1265581155241042846,-0.7728197574615479,32.76990173617378,7.557700423154678,10.611073079112161,147,4,0.0,49359,49570381420619,6,38.2,246.9275665283203,0.20560000836849213,25,14586.26549307878,9.150404631835356E-4,1.60537498E9,,,,0,,3,-0.36,1.60537498E9,361.0,NaN,NaN
Raw,232828917978148,649633205000000,,,-1265581155241042846,-0.7728197574615479,32.76990173617378,7.557700423154678,10.611073079112161,147,37,0.0,16399,384374366063586,4,43.2,491.5929260253906,0.027000000700354576,25,30148.85340388857,5.185066318015961E-4,1.56109798E9,,,,0,,5,0.57,1.56109798E9,361.0,NaN,NaN
Raw,232828917978148,649633205000000,,,-1265581155241042846,-0.7728197574615479,32.76990173617378,7.557700423154678,10.611073079112161,147,22,0.0,16399,384374366491080,4,42.4,-380.8195495605469,0.02710000053048134,25,-23726.355598771635,5.953224307615613E-4,1.56109798E9,,,,0,,5,0.57,1.56109798E9,361.0,NaN,NaN
Raw,232828917978148,649633205000000,,,-1265581155241042846,-0.7728197574615479,32.76990173617378,7.557700423154678,10.611073079112161,147,20,0.0,16399,384374362538176,40,21.9,649.3911743164062,0.7894999980926514,16,0.0,0.0,1.56109798E9,,,,0,,5,0.57,1.56109798E9,361.0,NaN,NaN
Raw,232828917978148,649633205000000,,,-1265581155241042846,-0.7728197574615479,32.76990173617378,7.557700423154678,10.611073079112161,147,19,0.0,16399,384374372344640,21,26.4,229.3433074951172,0.04470000043511391,25,13456.75814423061,0.005492329335005111,1.56109798E9,,,,0,,5,0.57,1.56109798E9,361.0,NaN,NaN
Raw,232828917978148,649633205000000,,,-1265581155241042846,-0.7728197574615479,32.76990173617378,7.557700423154678,10.611073079112161,147,10,0.0,16399,384374313514175,10,34.8,175.03016662597656,0.04010000079870224,25,10367.765764911419,0.001536315979199305,1.56109798E9,,,,0,,5,0.57,1.56109798E9,361.0,NaN,NaN
Raw,232828917978148,649633205000000,,,-1265581155241042846,-0.7728197574615479,32.76990173617378,7.557700423154678,10.611073079112161,147,5,0.0,17167,384374309994395,21,26.5,-1.987608790397644,3.2972002029418945,16,0.0,0.0,1.56109798E9,,,,0,,5,0.57,1.56109798E9,361.0,NaN,NaN
Raw,232828917978148,649633205000000,,,-1265581155241042846,-0.7728197574615479,32.76990173617378,7.557700423154678,10.611073079112161,147,1,0.0,23567,384388361294398,7,37.5,403.9520263671875,0.04490000009536743,25,24712.048184275332,0.0021883771969841777,1.57542003E9,,,,0,,6,0.58,1.57542003E9,361.0,NaN,NaN
Raw,232828917978148,649633205000000,,,-1265581155241042846,-0.7728197574615479,32.76990173617378,7.557700423154678,10.611073079112161,147,4,0.0,23567,384388359210583,11,33.6,513.3112182617188,0.04970000311732292,25,30931.27838047257,0.003596550258902148,1.57542003E9,,,,0,,6,0.58,1.57542003E9,361.0,NaN,NaN
Raw,232828917978148,649633205000000,,,-1265581155241042846,-0.7728197574615479,32.76990173617378,7.557700423154678,10.611073079112161,147,5,0.0,23567,384388361289509,5,40.5,-410.0600891113281,0.04410000145435333,25,-25445.478776319727,0.001617496273834944,1.57542003E9,,,,0,,6,0.58,1.57542003E9,361.0,NaN,NaN
Raw,232828917978148,649633205000000,,,-1265581155241042846,-0.7728197574615479,32.76990173617378,7.557700423154678,10.611073079112161,147,9,0.0,23567,384388374266948,9,35.4,80.47013854980469,0.0471000038087368,25,4726.893360906032,0.0028924638165555576,1.57542003E9,,,,0,,6,0.58,1.57542003E9,361.0,NaN,NaN
Raw,232828917978148,649633205000000,,,-1265581155241042846,-0.7728197574615479,32.76990173617378,7.557700423154678,10.611073079112161,147,24,0.0,23567,384388364720148,21,26.8,-541.77783203125,0.050700001418590546,25,-6252.85392191338,0.011874324619302384,1.57542003E9,,,,0,,6,0.58,1.57542003E9,361.0,NaN,NaN
Raw,232828917978148,649633205000000,,,-1265581155241042846,-0.7728197574615479,32.76990173617378,7.557700423154678,10.611073079112161,147,31,0.0,23567,384388367392975,7,37.0,-121.58123016357422,0.0479000024497509,25,-7735.226896705423,0.0021883771969841777,1.57542003E9,,,,0,,6,0.58,1.57542003E9,361.0,NaN,NaN
Raw,232828917978148,649633205000000,,,-1265581155241042846,-0.7728197574615479,32.76990173617378,7.557700423154678,10.611073079112161,147,24,0.0,81935,384388371013900,5,27.3,-571.7401733398438,0.05250000208616257,27,-32718.21726573254,0.004332076888121183,1.17645005E9,,,,0,,1,7.14,1.17645005E9,361.0,NaN,NaN
Raw,232828917978148,649633205000000,,,-1265581155241042846,-0.7728197574615479,32.76990173617378,7.557700423154678,10.611073079112161,147,30,0.0,81935,384388367523395,6,26.7,599.5153198242188,0.05260000005364418,25,33082.65188549295,0.007288081858568245,1.17645005E9,,,,0,,1,7.14,1.17645005E9,361.0,NaN,NaN
Raw,232828917978148,649633205000000,,,-1265581155241042846,-0.7728197574615479,32.76990173617378,7.557700423154678,10.611073079112161,147,1,0.0,81935,384388361301508,2,37.8,403.8062744140625,0.00860000029206276,25,22214.21688196152,0.0013505885638054542,1.17645005E9,,,,0,,6,7.14,1.17645005E9,361.0,NaN,NaN
Raw,232828917978148,649633205000000,,,-1265581155241042846,-0.7728197574615479,32.76990173617378,7.557700423154678,10.611073079112161,147,4,0.0,81935,384388359217671,3,33.2,513.1868286132812,0.05400000140070915,25,28311.000638530288,0.0022170039651624013,1.17645005E9,,,,0,,6,7.14,1.17645005E9,361.0,NaN,NaN
Raw,232828917978148,649633205000000,,,-1265581155241042846,-0.7728197574615479,32.76990173617378,7.557700423154678,10.611073079112161,147,5,0.0,81935,384388361296602,2,39.7,-410.2243957519531,0.007499999832361937,25,-22835.242140843227,0.001121243362856653,1.17645005E9,,,,0,,6,7.14,1.17645005E9,361.0,NaN,NaN
Raw,232828917978148,649633205000000,,,-1265581155241042846,-0.7728197574615479,32.76990173617378,7.557700423154678,10.611073079112161,147,9,0.0,81935,384388374274046,2,34.8,80.31539154052734,0.045500002801418304,25,4276.586841024399,0.0020386244039789624,1.17645005E9,,,,0,,6,7.14,1.17645005E9,361.0,NaN,NaN
Raw,232828917978148,649633205000000,,,-1265581155241042846,-0.7728197574615479,32.76990173617378,7.557700423154678,10.611073079112161,147,31,0.0,81935,384388367400079,8,22.6,-121.72615051269531,0.047200001776218414,29,-6932.339942413748,0.34557229348499413,1.17645005E9,,,,0,,6,7.14,1.17645005E9,361.0,NaN,NaN
Fix,gps,51.524658,-0.134298,75.200989,0.000000,3.790092,1582195572000,232829902028246
Raw,232829917786529,649634205000000,,,-1265581155241042838,-0.34993839263916016,32.42823731852695,9.098006695454012,10.517183262076967,147,5,0.0,16399,384389364390975,46,20.8,730.3946533203125,0.8524999618530273,16,0.0,0.0,1.57542003E9,,,,0,,1,0.7,1.57542003E9,361.0,NaN,NaN
Raw,232829917786529,649634205000000,,,-1265581155241042838,-0.34993839263916016,32.42823731852695,9.098006695454012,10.517183262076967,147,10,0.0,16399,384389361646300,139,12.4,-621.8321533203125,8.47800064086914,16,0.0,0.0,1.57542003E9,,,,0,,1,0.7,1.57542003E9,361.0,NaN,NaN
Raw,232829917786529,649634205000000,,,-1265581155241042838,-0.34993839263916016,32.42823731852695,9.098006695454012,10.517183262076967,147,13,0.0,16399,384389377871757,9,35.7,249.2476043701172,0.04560000076889992,25,15337.537415490639,0.0013320557236479321,1.57542003E9,,,,0,,1,0.7,1.57542003E9,361.0,NaN,NaN
Raw,232829917786529,649634205000000,,,-1265581155241042838,-0.34993839263916016,32.42823731852695,9.098006695454012,10.517183262076967,147,15,0.0,16399,384389378446805,8,36.6,-81.1517105102539,0.04660000279545784,25,-5426.463906702737,0.001160791358090767,1.57542003E9,,,,0,,1,0.7,1.57542003E9,361.0,NaN,NaN
Raw,232829917786529,649634205000000,,,-1265581155241042838,-0.34993839263916016,32.42823731852695,9.098006695454012,10.517183262076967,147,17,0.0,16399,384389364066526,12,32.9,-526.9212036132812,0.0276000015437603,25,-33242.52918009343,0.001807789796734829,1.57542003E9,,,,0,,1,0.7,1.57542003E9,361.0,NaN,NaN
Raw,232829917786529,649634205000000,,,-1265581155241042838,-0.34993839263916016,32.42823731852695,9.098006695454012,10.517183262076967,147,20,0.0,16399,384389369739605,8,36.1,-325.1822204589844,0.03310000151395798,25,-20740.90593495723,0.001160791358090767,1.57542003E9,,,,0,,1,0.7,1.57542003E9,361.0,NaN,NaN
Raw,232829917786529,649634205000000,,,-1265581155241042838,-0.34993839263916016,32.42823731852695,9.098006695454012,10.517183262076967,147,28,0.0,16399,384389374293346,11,33.8,219.29954528808594,0.0422000028192997,25,13430.127190286139,0.001655554942969963,1.57542003E9,,,,0,,1,0.7,1.57542003E9,361.0,NaN,NaN
Raw,232829917786529,649634205000000,,,-1265581155241042838,-0.34993839263916016,32.42823731852695,9.098006695454012,10.517183262076967,147,30,0.0,16399,384389367513566,8,36.8,600.0179443359375,0.030100001022219658,25,37468.109509949776,0.001160791358090767,1.57542003E9,,,,0,,1,0.7,1.57542003E9,361.0,NaN,NaN
Raw,232829917786529,649634205000000,,,-1265581155241042838,-0.34993839263916016,32.42823731852695,9.098006695454012,10.517183262076967,147,14,0.0,49359,49571382201062,7,37.2,6.867043972015381,0.20740000903606415,25,49.71905256917063,9.94266504915028E-4,1.59806246E9,,,,0,,3,-0.42,1.59806246E9,361.0,NaN,NaN
Raw,232829917786529,649634205000000,,,-1265581155241042838,-0.34993839263916016,32.42823731852695,9.098006695454012,10.517183262076967,147,22,0.0,49359,49571368656619,12,32.3,-119.87300109863281,0.23360000550746918,25,-7539.774220422238,0.0017796701281556596,1.60031245E9,,,,0,,3,-0.42,1.60031245E9,361.0,NaN,NaN
Raw,232829917786529,649634205000000,,,-1265581155241042838,-0.34993839263916016,32.42823731852695,9.098006695454012,10.517183262076967,147,13,0.0,49359,49571374482760,70,17.5,658.5462036132812,2.047499895095825,16,0.0,0.0,1.60087501E9,,,,0,,3,-0.42,1.60087501E9,361.0,NaN,NaN
Raw,232829917786529,649634205000000,,,-1265581155241042838,-0.34993839263916016,32.42823731852695,9.098006695454012,10.517183262076967,147,15,0.0,49359,49571374651995,19,27.2,-636.9813842773438,0.2468000054359436,21,-39466.96351172227,0.0031813183913669513,1.602E9,,,,0,,3,-0.42,1.602E9,361.0,NaN,NaN
Raw,232829917786529,649634205000000,,,-1265581155241042838,-0.34993839263916016,32.42823731852695,9.098006695454012,10.517183262076967,147,5,0.0,49359,49571377468882,4,43.4,-529.0570678710938,0.2435000091791153,25,-33307.85891450583,5.050908325201994E-4,1.60256256E9,,,,0,,3,-0.42,1.60256256E9,361.0,NaN,NaN
Raw,232829917786529,649634205000000,,,-1265581155241042838,-0.34993839263916016,32.42823731852695,9.098006695454012,10.517183262076967,147,3,0.0,49359,49571371112314,35,22.9,789.9712524414062,0.5982999801635742,21,48998.47828397618,0.1868083964827234,1.60481254E9,,,,0,,3,-0.42,1.60481254E9,361.0,NaN,NaN
Raw,232829917786529,649634205000000,,,-1265581155241042838,-0.34993839263916016,32.42823731852695,9.098006695454012,10.517183262076967,147,4,0.0,49359,49571381419811,7,37.5,247.613037109375,0.20589999854564667,25,14833.529726073482,9.897376030341073E-4,1.60537498E9,,,,0,,3,-0.42,1.60537498E9,361.0,NaN,NaN
Raw,232829917786529,649634205000000,,,-1265581155241042838,-0.34993839263916016,32.42823731852695,9.098006695454012,10.517183262076967,147,37,0.0,16399,384375366061943,4,43.6,492.1200866699219,0.027000000700354576,25,30640.695119647495,5.185066318015961E-4,1.56109798E9,,,,0,,5,0.49,1.56109798E9,361.0,NaN,NaN
Raw,232829917786529,649634205000000,,,-1265581155241042838,-0.34993839263916016,32.42823731852695,9.098006695454012,10.517183262076967,147,22,0.0,16399,384375366492330,5,41.8,-380.2192077636719,0.027300002053380013,25,-24106.874345601365,6.913421459270097E-4,1.56109798E9,,,,0,,5,0.49,1.56109798E9,361.0,NaN,NaN
Raw,232829917786529,649634205000000,,,-1265581155241042838,-0.34993839263916016,32.42823731852695,9.098006695454012,10.517183262076967,147,20,0.0,16399,384375362536031,35,22.9,649.00390625,0.384799987077713,19,39318.88286493696,0.1920394882785269,1.56109798E9,,,,0,,5,0.49,1.56109798E9,361.0,NaN,NaN
Raw,232829917786529,649634205000000,,,-1265581155241042838,-0.34993839263916016,32.42823731852695,9.098006695454012,10.517183262076967,147,19,0.0,16399,384375372343830,17,28.8,229.9679412841797,0.04320000112056732,25,13686.409324237338,0.003034223768286223,1.56109798E9,,,,0,,5,0.49,1.56109798E9,361.0,NaN,NaN
Raw,232829917786529,649634205000000,,,-1265581155241042838,-0.34993839263916016,32.42823731852695,9.098006695454012,10.517183262076967,147,10,0.0,16399,384375313513593,10,34.1,175.52243041992188,0.04010000079870224,25,10543.0224775412,0.001536315979199305,1.56109798E9,,,,0,,5,0.49,1.56109798E9,361.0,NaN,NaN
Raw,232829917786529,649634205000000,,,-1265581155241042838,-0.34993839263916016,32.42823731852695,9.098006695454012,10.517183262076967,147,5,0.0,17167,384375309994368,19,27.5,-3.408700942993164,2.2121999263763428,16,0.0,0.0,1.56109798E9,,,,0,,5,0.49,1.56109798E9,361.0,NaN,NaN
Raw,232829917786529,649634205000000,,,-1265581155241042838,-0.34993839263916016,32.42823731852695,9.098006695454012,10.517183262076967,147,1,0.0,23567,384389361293062,8,36.4,404.47064208984375,0.045100003480911255,25,25116.225765508505,0.0025499350854412276,1.57542003E9,,,,0,,6,0.58,1.57542003E9,361.0,NaN,NaN
Raw,232829917786529,649634205000000,,,-1265581155241042838,-0.34993839263916016,32.42823731852695,9.098006695454012,10.517183262076967,147,4,0.0,23567,384389359208859,10,34.2,513.8497924804688,0.04910000041127205,25,31444.827740432444,0.003311109885939926,1.57542003E9,,,,0,,6,0.58,1.57542003E9,361.0,NaN,NaN
Raw,232829917786529,649634205000000,,,-1265581155241042838,-0.34993839263916016,32.42823731852695,9.098006695454012,10.517183262076967,147,5,0.0,23567,384389361290876,6,39.8,-409.523681640625,0.04430000111460686,25,-25855.29018247077,0.0018458486430946374,1.57542003E9,,,,0,,6,0.58,1.57542003E9,361.0,NaN,NaN
Raw,232829917786529,649634205000000,,,-1265581155241042838,-0.34993839263916016,32.42823731852695,9.098006695454012,10.517183262076967,147,9,0.0,23567,384389374266697,8,36.1,81.01183319091797,0.04660000279545784,25,4807.607377643193,0.0025499350854412276,1.57542003E9,,,,0,,6,0.58,1.57542003E9,361.0,NaN,NaN
Raw,232829917786529,649634205000000,,,-1265581155241042838,-0.34993839263916016,32.42823731852695,9.098006695454012,10.517183262076967,147,24,0.0,23567,384389364721950,24,25.6,-541.5853271484375,0.6004999876022339,16,0.0,0.0,1.57542003E9,,,,0,,6,0.58,1.57542003E9,361.0,NaN,NaN
Raw,232829917786529,649634205000000,,,-1265581155241042838,-0.34993839263916016,32.42823731852695,9.098006695454012,10.517183262076967,147,31,0.0,23567,384389367393392,8,36.4,-121.02436828613281,0.048100002110004425,25,-7856.544008987104,0.0025499350854412276,1.57542003E9,,,,0,,6,0.58,1.57542003E9,361.0,NaN,NaN
Raw,232829917786529,649634205000000,,,-1265581155241042838,-0.34993839263916016,32.42823731852695,9.098006695454012,10.517183262076967,147,24,0.0,81935,384389371015801,6,25.6,-571.1630249023438,0.07100000232458115,25,-33289.65274665871,0.25482803839368795,1.17645005E9,,,,0,,1,4.1,1.17645005E9,361.0,NaN,NaN
Raw,232829917786529,649634205000000,,,-1265581155241042838,-0.34993839263916016,32.42823731852695,9.098006695454012,10.517183262076967,147,30,0.0,81935,384389367521393,6,26.8,599.9942626953125,0.05260000005364418,25,33682.396338777966,0.007288081858568245,1.17645005E9,,,,0,,1,4.1,1.17645005E9,361.0,NaN,NaN
Raw,232829917786529,649634205000000,,,-1265581155241042838,-0.34993839263916016,32.42823731852695,9.098006695454012,10.517183262076967,147,1,0.0,81935,384389361300161,2,36.9,404.44775390625,0.009399999864399433,25,22618.395076795267,0.0015544510042033504,1.17645005E9,,,,0,,6,4.1,1.17645005E9,361.0,NaN,NaN
Raw,232829917786529,649634205000000,,,-1265581155241042838,-0.34993839263916016,32.42823731852695,9.098006695454012,10.517183262076967,147,4,0.0,81935,384389359215963,3,32.6,513.8009033203125,0.05510000139474869,25,28824.546219242446,0.0024208662868967453,1.17645005E9,,,,0,,6,4.1,1.17645005E9,361.0,NaN,NaN
Raw,232829917786529,649634205000000,,,-1265581155241042838,-0.34993839263916016,32.42823731852695,9.098006695454012,10.517183262076967,147,5,0.0,81935,384389361297968,2,39.3,-409.5430603027344,0.007499999832361937,25,-23245.050997839127,0.001121243362856653,1.17645005E9,,,,0,,6,4.1,1.17645005E9,361.0,NaN,NaN
Raw,232829917786529,649634205000000,,,-1265581155241042838,-0.34993839263916016,32.42823731852695,9.098006695454012,10.517183262076967,147,9,0.0,81935,384389374273778,2,34.2,80.96809387207031,0.045500002801418304,25,4357.310197366333,0.0020386244039789624,1.17645005E9,,,,0,,6,4.1,1.17645005E9,361.0,NaN,NaN
Raw,232829917786529,649634205000000,,,-1265581155241042838,-0.34993839263916016,32.42823731852695,9.098006695454012,10.517183262076967,147,31,0.0,81935,384389367400479,8,23.9,-121.07234954833984,0.04470000043511391,25,-7053.637978282575,0.34557229348499413,1.17645005E9,,,,0,,6,4.1,1.17645005E9,361.0,NaN,NaN
Fix,gps,51.524658,-0.134297,75.205139,0.000000,3.790092,1582195573000,232830905524284
Raw,232830918580483,649635205000000,,,-1265581155241042823,-0.8734602928161621,32.01743675163016,10.813444488167617,11.493765717237467,147,5,0.0,16399,384390364388271,35,22.0,730.984619140625,0.7924999594688416,16,0.0,0.0,1.57542003E9,,,,0,,1,0.7,1.57542003E9,361.0,NaN,NaN
Raw,232830918580483,649635205000000,,,-1265581155241042823,-0.8734602928161621,32.01743675163016,10.813444488167617,11.493765717237467,147,13,0.0,16399,384390377870926,9,35.6,249.1736297607422,0.04560000076889992,25,15586.83285903998,0.0013320557236479321,1.57542003E9,,,,0,,1,0.7,1.57542003E9,361.0,NaN,NaN
Raw,232830918580483,649635205000000,,,-1265581155241042823,-0.8734602928161621,32.01743675163016,10.813444488167617,11.493765717237467,147,15,0.0,16399,384390378447058,9,35.6,-81.23091888427734,0.0471000038087368,25,-5507.578673930914,0.0013320557236479321,1.57542003E9,,,,0,,1,0.7,1.57542003E9,361.0,NaN,NaN
Raw,232830918580483,649635205000000,,,-1265581155241042823,-0.8734602928161621,32.01743675163016,10.813444488167617,11.493765717237467,147,17,0.0,16399,384390364068287,11,33.5,-527.0338134765625,0.0272000003606081,25,-33769.427627573394,0.001655554942969963,1.57542003E9,,,,0,,1,0.7,1.57542003E9,361.0,NaN,NaN
Raw,232830918580483,649635205000000,,,-1265581155241042823,-0.8734602928161621,32.01743675163016,10.813444488167617,11.493765717237467,147,20,0.0,16399,384390369740683,8,36.2,-325.2583312988281,0.03310000151395798,25,-21066.036213328487,0.001160791358090767,1.57542003E9,,,,0,,1,0.7,1.57542003E9,361.0,NaN,NaN
Raw,232830918580483,649635205000000,,,-1265581155241042823,-0.8734602928161621,32.01743675163016,10.813444488167617,11.493765717237467,147,24,0.0,16399,384390371009982,70,17.6,-570.3482055664062,1.9329999685287476,16,0.0,0.0,1.57542003E9,,,,0,,1,0.7,1.57542003E9,361.0,NaN,NaN
Raw,232830918580483,649635205000000,,,-1265581155241042823,-0.8734602928161621,32.01743675163016,10.813444488167617,11.493765717237467,147,28,0.0,16399,384390374292607,11,33.8,219.24957275390625,0.0422000028192997,25,13649.494370291286,0.001655554942969963,1.57542003E9,,,,0,,1,0.7,1.57542003E9,361.0,NaN,NaN
Raw,232830918580483,649635205000000,,,-1265581155241042823,-0.8734602928161621,32.01743675163016,10.813444488167617,11.493765717237467,147,30,0.0,16399,384390367511581,8,36.8,599.8975830078125,0.030100001022219658,25,38068.153396184236,0.001160791358090767,1.57542003E9,,,,0,,1,0.7,1.57542003E9,361.0,NaN,NaN
Raw,232830918580483,649635205000000,,,-1265581155241042823,-0.8734602928161621,32.01743675163016,10.813444488167617,11.493765717237467,147,14,0.0,49359,49572382201039,8,36.8,6.806689262390137,0.22259999811649323,25,56.63355845012667,0.0011443444794587703,1.59806246E9,,,,0,,3,-0.4,1.59806246E9,361.0,NaN,NaN
Raw,232830918580483,649635205000000,,,-1265581155241042823,-0.8734602928161621,32.01743675163016,10.813444488167617,11.493765717237467,147,22,0.0,49359,49572368656994,12,32.9,-119.89826965332031,0.23360000550746918,25,-7659.59195830785,0.0017796701281556596,1.60031245E9,,,,0,,3,-0.4,1.60031245E9,361.0,NaN,NaN
Raw,232830918580483,649635205000000,,,-1265581155241042823,-0.8734602928161621,32.01743675163016,10.813444488167617,11.493765717237467,147,15,0.0,49359,49572374654143,21,26.0,-637.0865478515625,0.24770000576972961,25,-40103.79706900306,0.005352100032671997,1.602E9,,,,0,,3,-0.4,1.602E9,361.0,NaN,NaN
Raw,232830918580483,649635205000000,,,-1265581155241042823,-0.8734602928161621,32.01743675163016,10.813444488167617,11.493765717237467,147,5,0.0,49359,49572377470630,4,43.7,-529.1453247070312,0.2435000091791153,25,-33836.882043662765,5.050908325201994E-4,1.60256256E9,,,,0,,3,-0.4,1.60256256E9,361.0,NaN,NaN
Raw,232830918580483,649635205000000,,,-1265581155241042823,-0.8734602928161621,32.01743675163016,10.813444488167617,11.493765717237467,147,3,0.0,49359,49572371109789,21,26.3,789.6790771484375,0.24320000410079956,25,49788.36697768607,0.005342720110455805,1.60481254E9,,,,0,,3,-0.4,1.60481254E9,361.0,NaN,NaN
Raw,232830918580483,649635205000000,,,-1265581155241042823,-0.8734602928161621,32.01743675163016,10.813444488167617,11.493765717237467,147,4,0.0,49359,49572381418961,7,37.5,247.58010864257812,0.22089999914169312,25,15081.198896473737,9.897376030341073E-4,1.60537498E9,,,,0,,3,-0.4,1.60537498E9,361.0,NaN,NaN
Raw,232830918580483,649635205000000,,,-1265581155241042823,-0.8734602928161621,32.01743675163016,10.813444488167617,11.493765717237467,147,37,0.0,16399,384376366060304,4,43.9,492.0000305175781,0.027000000700354576,25,31132.829961294672,5.185066318015961E-4,1.56109798E9,,,,0,,5,0.5,1.56109798E9,361.0,NaN,NaN
Raw,232830918580483,649635205000000,,,-1265581155241042823,-0.8734602928161621,32.01743675163016,10.813444488167617,11.493765717237467,147,22,0.0,16399,384376366493595,4,42.3,-380.3304138183594,0.02710000053048134,25,-24487.07436345927,5.953224307615613E-4,1.56109798E9,,,,0,,5,0.5,1.56109798E9,361.0,NaN,NaN
Raw,232830918580483,649635205000000,,,-1265581155241042823,-0.8734602928161621,32.01743675163016,10.813444488167617,11.493765717237467,147,20,0.0,16399,384376362533813,31,23.5,649.0966186523438,0.11420000344514847,21,39968.05267498648,0.1920394882785269,1.56109798E9,,,,0,,5,0.5,1.56109798E9,361.0,NaN,NaN
Raw,232830918580483,649635205000000,,,-1265581155241042823,-0.8734602928161621,32.01743675163016,10.813444488167617,11.493765717237467,147,19,0.0,16399,384376372343039,19,27.7,229.8802032470703,0.043800000101327896,21,13916.420287040892,0.0032646714781548623,1.56109798E9,,,,0,,5,0.5,1.56109798E9,361.0,NaN,NaN
Raw,232830918580483,649635205000000,,,-1265581155241042823,-0.8734602928161621,32.01743675163016,10.813444488167617,11.493765717237467,147,10,0.0,16399,384376313513012,11,33.5,175.36825561523438,0.04070000350475311,25,10718.53881859653,0.0016707435714883973,1.56109798E9,,,,0,,5,0.5,1.56109798E9,361.0,NaN,NaN
Raw,232830918580483,649635205000000,,,-1265581155241042823,-0.8734602928161621,32.01743675163016,10.813444488167617,11.493765717237467,147,1,0.0,23567,384390361291717,10,34.7,404.35369873046875,0.04610000178217888,25,25520.723911840312,0.003311109885939926,1.57542003E9,,,,0,,6,0.58,1.57542003E9,361.0,NaN,NaN
Raw,232830918580483,649635205000000,,,-1265581155241042823,-0.8734602928161621,32.01743675163016,10.813444488167617,11.493765717237467,147,4,0.0,23567,384390359207146,9,35.2,513.7037963867188,0.048600003123283386,25,31958.668512572647,0.0028924638165555576,1.57542003E9,,,,0,,6,0.58,1.57542003E9,361.0,NaN,NaN
Raw,232830918580483,649635205000000,,,-1265581155241042823,-0.8734602928161621,32.01743675163016,10.813444488167617,11.493765717237467,147,5,0.0,23567,384390361292244,5,40.0,-409.66864013671875,0.04410000145435333,25,-26264.82121992541,0.001617496273834944,1.57542003E9,,,,0,,6,0.58,1.57542003E9,361.0,NaN,NaN
Raw,232830918580483,649635205000000,,,-1265581155241042823,-0.8734602928161621,32.01743675163016,10.813444488167617,11.493765717237467,147,9,0.0,23567,384390374266422,9,35.2,80.9082260131836,0.0471000038087368,25,4888.648246104123,0.0028924638165555576,1.57542003E9,,,,0,,6,0.58,1.57542003E9,361.0,NaN,NaN
Raw,232830918580483,649635205000000,,,-1265581155241042823,-0.8734602928161621,32.01743675163016,10.813444488167617,11.493765717237467,147,24,0.0,23567,384390364723781,24,25.9,-541.347412109375,0.6004999876022339,16,0.0,0.0,1.57542003E9,,,,0,,6,0.58,1.57542003E9,361.0,NaN,NaN
Raw,232830918580483,649635205000000,,,-1265581155241042823,-0.8734602928161621,32.01743675163016,10.813444488167617,11.493765717237467,147,31,0.0,23567,384390367393793,8,36.8,-121.11005401611328,0.048100002110004425,25,-7977.525938049662,0.0025499350854412276,1.57542003E9,,,,0,,6,0.58,1.57542003E9,361.0,NaN,NaN
Raw,232830918580483,649635205000000,,,-1265581155241042823,-0.8734602928161621,32.01743675163016,10.813444488167617,11.493765717237467,147,24,0.0,81935,384390371017710,6,26.6,-570.9231567382812,0.05860000103712082,29,-33860.51797455666,0.007288081858568245,1.17645005E9,,,,0,,1,8.43,1.17645005E9,361.0,NaN,NaN
Raw,232830918580483,649635205000000,,,-1265581155241042823,-0.8734602928161621,32.01743675163016,10.813444488167617,11.493765717237467,147,30,0.0,81935,384390367519391,6,26.2,599.91796875,0.05260000005364418,25,34282.44921564108,0.007288081858568245,1.17645005E9,,,,0,,1,8.43,1.17645005E9,361.0,NaN,NaN
Raw,232830918580483,649635205000000,,,-1265581155241042823,-0.8734602928161621,32.01743675163016,10.813444488167617,11.493765717237467,147,1,0.0,81935,384390361298812,2,37.5,404.258056640625,0.023600000888109207,25,23022.882732240407,0.0013505885638054542,1.17645005E9,,,,0,,6,8.43,1.17645005E9,361.0,NaN,NaN
Raw,232830918580483,649635205000000,,,-1265581155241042823,-0.8734602928161621,32.01743675163016,10.813444488167617,11.493765717237467,147,4,0.0,81935,384390359214250,3,32.4,513.6478271484375,0.05510000139474869,25,29338.37908304613,0.0024208662868967453,1.17645005E9,,,,0,,6,8.43,1.17645005E9,361.0,NaN,NaN
Raw,232830918580483,649635205000000,,,-1265581155241042823,-0.8734602928161621,32.01743675163016,10.813444488167617,11.493765717237467,147,5,0.0,81935,384390361299334,2,39.2,-409.77850341796875,0.02250000089406967,25,-23654.571314664045,0.001121243362856653,1.17645005E9,,,,0,,6,8.43,1.17645005E9,361.0,NaN,NaN
Raw,232830918580483,649635205000000,,,-1265581155241042823,-0.8734602928161621,32.01743675163016,10.813444488167617,11.493765717237467,147,9,0.0,81935,384390374273509,3,33.7,80.79947662353516,0.04650000110268593,25,4438.344867574707,0.0022170039651624013,1.17645005E9,,,,0,,6,8.43,1.17645005E9,361.0,NaN,NaN
Raw,232830918580483,649635205000000,,,-1265581155241042823,-0.8734602928161621,32.01743675163016,10.813444488167617,11.493765717237467,147,31,0.0,81935,384390367400891,10,20.0,-121.12366485595703,0.08619999885559082,25,-7174.589896472561,0.34557229348499413,1.17645005E9,,,,0,,6,8.43,1.17645005E9,361.0,NaN,NaN
Fix,gps,51.524658,-0.134297,75.212158,0.000000,3.790092,1582195574000,232831904514800
Raw,232831918382562,649636205000000,,,-1265581155241042812,-0.9658102989196777,31.727831810712814,10.212872224213982,11.493894552399206,147,5,0.0,16399,384391364385690,70,17.7,731.1844482421875,1.1575000286102295,16,0.0,0.0,1.57542003E9,,,,0,,1,0.7,1.57542003E9,361.0,NaN,NaN
Raw,232831918382562,649636205000000,,,-1265581155241042812,-0.9658102989196777,31.727831810712814,10.212872224213982,11.493894552399206,147,13,0.0,16399,384391377870086,9,35.9,249.66050720214844,0.04560000076889992,25,15836.21017087366,0.0013320557236479321,1.57542003E9,,,,0,,1,0.7,1.57542003E9,361.0,NaN,NaN
Raw,232831918382562,649636205000000,,,-1265581155241042812,-0.9658102989196777,31.727831810712814,10.212872224213982,11.493894552399206,147,15,0.0,16399,384391378447326,8,36.2,-80.71036529541016,0.04660000279545784,25,-5588.5854561074875,0.001160791358090767,1.57542003E9,,,,0,,1,0.7,1.57542003E9,361.0,NaN,NaN
Raw,232831918382562,649636205000000,,,-1265581155241042812,-0.9658102989196777,31.727831810712814,10.212872224213982,11.493894552399206,147,17,0.0,16399,384391364070049,13,31.6,-526.5900268554688,0.013100000098347664,25,-34296.283291634725,0.002074201012354331,1.57542003E9,,,,0,,1,0.7,1.57542003E9,361.0,NaN,NaN
Raw,232831918382562,649636205000000,,,-1265581155241042812,-0.9658102989196777,31.727831810712814,10.212872224213982,11.493894552399206,147,20,0.0,16399,384391369741755,8,36.2,-324.724365234375,0.03310000151395798,25,-21391.0711861849,0.001160791358090767,1.57542003E9,,,,0,,1,0.7,1.57542003E9,361.0,NaN,NaN
Raw,232831918382562,649636205000000,,,-1265581155241042812,-0.9658102989196777,31.727831810712814,10.212872224213982,11.493894552399206,147,28,0.0,16399,384391374291839,10,34.6,219.74618530273438,0.041600000113248825,25,13868.946671900574,0.0015223494237726067,1.57542003E9,,,,0,,1,0.7,1.57542003E9,361.0,NaN,NaN
Raw,232831918382562,649636205000000,,,-1265581155241042812,-0.9658102989196777,31.727831810712814,10.212872224213982,11.493894552399206,147,30,0.0,16399,384391367509562,7,37.0,600.3150024414062,0.029900001361966133,25,38668.21405746775,0.0010085564157135064,1.57542003E9,,,,0,,1,0.7,1.57542003E9,361.0,NaN,NaN
Raw,232831918382562,649636205000000,,,-1265581155241042812,-0.9658102989196777,31.727831810712814,10.212872224213982,11.493894552399206,147,14,0.0,49359,49573382201012,7,37.2,7.360452651977539,0.20740000903606415,25,63.663195537265075,9.94266504915028E-4,1.59806246E9,,,,0,,3,-0.41,1.59806246E9,361.0,NaN,NaN
Raw,232831918382562,649636205000000,,,-1265581155241042812,-0.9658102989196777,31.727831810712814,10.212872224213982,11.493894552399206,147,22,0.0,49359,49573368657457,14,30.4,-119.3355712890625,0.23489999771118164,25,-7779.239199490856,0.002360404669997281,1.60031245E9,,,,0,,3,-0.41,1.60031245E9,361.0,NaN,NaN
Raw,232831918382562,649636205000000,,,-1265581155241042812,-0.9658102989196777,31.727831810712814,10.212872224213982,11.493894552399206,147,13,0.0,49359,49573374478111,80,16.0,659.6697998046875,2.137500047683716,16,0.0,0.0,1.60087501E9,,,,0,,3,-0.41,1.60087501E9,361.0,NaN,NaN
Raw,232831918382562,649636205000000,,,-1265581155241042812,-0.9658102989196777,31.727831810712814,10.212872224213982,11.493894552399206,147,15,0.0,49359,49573374656200,21,26.3,-636.6260375976562,0.24770000576972961,25,-40740.67589092839,0.005352100032671997,1.602E9,,,,0,,3,-0.41,1.602E9,361.0,NaN,NaN
Raw,232831918382562,649636205000000,,,-1265581155241042812,-0.9658102989196777,31.727831810712814,10.212872224213982,11.493894552399206,147,5,0.0,49359,49573377472408,4,43.7,-528.6369018554688,0.2435000091791153,25,-34365.8181972833,5.050908325201994E-4,1.60256256E9,,,,0,,3,-0.41,1.60256256E9,361.0,NaN,NaN
Raw,232831918382562,649636205000000,,,-1265581155241042812,-0.9658102989196777,31.727831810712814,10.212872224213982,11.493894552399206,147,3,0.0,49359,49573371107059,27,24.2,790.2720947265625,0.25780001282691956,21,50578.16553833962,0.1868083964827234,1.60481254E9,,,,0,,3,-0.41,1.60481254E9,361.0,NaN,NaN
Raw,232831918382562,649636205000000,,,-1265581155241042812,-0.9658102989196777,31.727831810712814,10.212872224213982,11.493894552399206,147,4,0.0,49359,49573381418137,7,37.3,248.14004516601562,0.20589999854564667,25,15329.004895931828,9.897376030341073E-4,1.60537498E9,,,,0,,3,-0.41,1.60537498E9,361.0,NaN,NaN
Raw,232831918382562,649636205000000,,,-1265581155241042812,-0.9658102989196777,31.727831810712814,10.212872224213982,11.493894552399206,147,37,0.0,16399,384377366058662,4,43.6,492.43865966796875,0.012000000104308128,25,31624.997615778502,5.185066318015961E-4,1.56109798E9,,,,0,,5,0.47,1.56109798E9,361.0,NaN,NaN
Raw,232831918382562,649636205000000,,,-1265581155241042812,-0.9658102989196777,31.727831810712814,10.212872224213982,11.493894552399206,147,22,0.0,16399,384377366494859,5,41.7,-379.82586669921875,0.01230000052601099,25,-24867.20212187192,6.913421459270097E-4,1.56109798E9,,,,0,,5,0.47,1.56109798E9,361.0,NaN,NaN
Raw,232831918382562,649636205000000,,,-1265581155241042812,-0.9658102989196777,31.727831810712814,10.212872224213982,11.493894552399206,147,20,0.0,16399,384377362531653,31,23.5,649.340576171875,0.09920000284910202,21,40617.10719298735,0.1920394882785269,1.56109798E9,,,,0,,5,0.47,1.56109798E9,361.0,NaN,NaN
Raw,232831918382562,649636205000000,,,-1265581155241042812,-0.9658102989196777,31.727831810712814,10.212872224213982,11.493894552399206,147,19,0.0,16399,384377372342294,16,29.5,230.38497924804688,0.04190000146627426,17,14146.507699827029,0.0028421844273806814,1.56109798E9,,,,0,,5,0.47,1.56109798E9,361.0,NaN,NaN
Raw,232831918382562,649636205000000,,,-1265581155241042812,-0.9658102989196777,31.727831810712814,10.212872224213982,11.493894552399206,147,10,0.0,16399,384377313512419,11,33.3,175.76693725585938,0.04070000350475311,25,10894.05884026917,0.0016707435714883973,1.56109798E9,,,,0,,5,0.47,1.56109798E9,361.0,NaN,NaN
Raw,232831918382562,649636205000000,,,-1265581155241042812,-0.9658102989196777,31.727831810712814,10.212872224213982,11.493894552399206,147,5,0.0,17167,384377309994429,21,26.3,-1.9972108602523804,3.327200174331665,16,0.0,0.0,1.56109798E9,,,,0,,5,0.47,1.56109798E9,361.0,NaN,NaN
Raw,232831918382562,649636205000000,,,-1265581155241042812,-0.9658102989196777,31.727831810712814,10.212872224213982,11.493894552399206,147,1,0.0,23567,384391361290385,11,33.4,404.7856140136719,0.04670000076293945,25,25925.250355989087,0.003596550258902148,1.57542003E9,,,,0,,6,0.58,1.57542003E9,361.0,NaN,NaN
Raw,232831918382562,649636205000000,,,-1265581155241042812,-0.9658102989196777,31.727831810712814,10.212872224213982,11.493894552399206,147,4,0.0,23567,384391359205445,10,34.6,514.1217651367188,0.04910000041127205,25,32472.541741394307,0.003311109885939926,1.57542003E9,,,,0,,6,0.58,1.57542003E9,361.0,NaN,NaN
Raw,232831918382562,649636205000000,,,-1265581155241042812,-0.9658102989196777,31.727831810712814,10.212872224213982,11.493894552399206,147,5,0.0,23567,384391361293614,6,39.9,-409.23553466796875,0.04430000111460686,25,-26674.316214771883,0.0018458486430946374,1.57542003E9,,,,0,,6,0.58,1.57542003E9,361.0,NaN,NaN
Raw,232831918382562,649636205000000,,,-1265581155241042812,-0.9658102989196777,31.727831810712814,10.212872224213982,11.493894552399206,147,9,0.0,23567,384391374266153,9,35.4,81.35916137695312,0.0471000038087368,25,4969.750712072214,0.0028924638165555576,1.57542003E9,,,,0,,6,0.58,1.57542003E9,361.0,NaN,NaN
Raw,232831918382562,649636205000000,,,-1265581155241042812,-0.9658102989196777,31.727831810712814,10.212872224213982,11.493894552399206,147,24,0.0,23567,384391364725593,27,24.8,-540.9002075195312,0.640500009059906,16,0.0,0.0,1.57542003E9,,,,0,,6,0.58,1.57542003E9,361.0,NaN,NaN
Raw,232831918382562,649636205000000,,,-1265581155241042812,-0.9658102989196777,31.727831810712814,10.212872224213982,11.493894552399206,147,31,0.0,23567,384391367394184,9,35.9,-120.6448974609375,0.048600003123283386,25,-8098.437193134763,0.0028924638165555576,1.57542003E9,,,,0,,6,0.58,1.57542003E9,361.0,NaN,NaN
Raw,232831918382562,649636205000000,,,-1265581155241042812,-0.9658102989196777,31.727831810712814,10.212872224213982,11.493894552399206,147,24,0.0,81935,384391371019614,6,25.4,-570.8154296875,0.07100000232458115,25,-34431.643914939676,0.25482803839368795,1.17645005E9,,,,0,,1,6.02,1.17645005E9,361.0,NaN,NaN
Raw,232831918382562,649636205000000,,,-1265581155241042812,-0.9658102989196777,31.727831810712814,10.212872224213982,11.493894552399206,147,30,0.0,81935,384391367517383,5,27.6,600.3328857421875,0.04650000110268593,29,34882.49724349705,0.004332076888121183,1.17645005E9,,,,0,,1,6.02,1.17645005E9,361.0,NaN,NaN
