# 
# Header Description:
# 
# Version: v2.0.0.1 Platform: 10 Manufacturer: Google Model: Pixel 4
# 
# Raw,ElapsedRealtimeNanos,TimeNanos,LeapSecond,TimeUncertaintyNanos,FullBiasNanos,BiasNanos,BiasUncertaintyNanos,DriftNanosPerSecond,DriftUncertaintyNanosPerSecond,HardwareClockDiscontinuityCount,Svid,TimeOffsetNanos,State,ReceivedSvTimeNanos,ReceivedSvTimeUncertaintyNanos,Cn0DbHz,PseudorangeRateMetersPerSecond,PseudorangeRateUncertaintyMetersPerSecond,AccumulatedDeltaRangeState,AccumulatedDeltaRangeMeters,AccumulatedDeltaRangeUncertaintyMeters,CarrierFrequencyHz,CarrierCycles,CarrierPhase,CarrierPhaseUncertainty,MultipathIndicator,SnrInDb,ConstellationType,AgcDb,CarrierFrequencyHz,UserLatitude,UserLongitude,UserAltitude
# 
# Fix,Provider,Latitude,Longitude,Altitude,Speed,Accuracy,(UTC)TimeInMs,ElapsedRealtimeNanos
# 
# Nav,Svid,Type,Status,MessageId,Sub-messageId,Data(Bytes)
# 
Fix,gps,51.524754,-0.134098,77.483826,0.000000,3.790092,1582195345000,232602900006674
Raw,232602915580582,649407188000000,,,-1265581155250566696,0.6376705169677734,28.058546376996674,-3.7107385607927372,9.560268051051013,123,5,0.0,16399,384162357465131,27,24.4,724.559326171875,0.06680000573396683,27,7568.304019209509,0.19029366893311156,1.57542003E9,,,,0,,1,0.55,1.57542003E9,357.0,NaN,NaN
Raw,232602915580582,649407188000000,,,-1265581155250566696,0.6376705169677734,28.058546376996674,-3.7107385607927372,9.560268051051013,123,13,0.0,16399,384162370573948,10,34.3,224.09727478027344,0.035600002855062485,25,3024.0278242490194,0.0015223494237726067,1.57542003E9,,,,0,,1,0.55,1.57542003E9,357.0,NaN,NaN
Raw,232602915580582,649407188000000,,,-1265581155250566696,0.6376705169677734,28.058546376996674,-3.7107385607927372,9.560268051051013,123,15,0.0,16399,384162370897374,5,40.5,-109.87931823730469,0.03360000252723694,25,-1317.8941472320996,7.42145288706399E-4,1.57542003E9,,,,0,,1,0.55,1.57542003E9,357.0,NaN,NaN
Raw,232602915580582,649407188000000,,,-1265581155250566696,0.6376705169677734,28.058546376996674,-3.7107385607927372,9.560268051051013,123,20,0.0,16399,384162362005077,12,32.7,-354.575927734375,0.02460000105202198,25,-4788.977403299613,0.001807789796734829,1.57542003E9,,,,0,,1,0.55,1.57542003E9,357.0,NaN,NaN
Raw,232602915580582,649407188000000,,,-1265581155250566696,0.6376705169677734,28.058546376996674,-3.7107385607927372,9.560268051051013,123,24,0.0,16399,384162363092700,13,31.3,-586.1984252929688,0.026600001379847527,25,-7618.267785770186,0.002074201012354331,1.57542003E9,,,,0,,1,0.55,1.57542003E9,357.0,NaN,NaN
Raw,232602915580582,649407188000000,,,-1265581155250566696,0.6376705169677734,28.058546376996674,-3.7107385607927372,9.560268051051013,123,28,0.0,16399,384162366971524,5,41.4,190.752197265625,0.027300002053380013,25,2612.4843253743343,6.850571963914755E-4,1.57542003E9,,,,0,,1,0.55,1.57542003E9,357.0,NaN,NaN
Raw,232602915580582,649407188000000,,,-1265581155250566696,0.6376705169677734,28.058546376996674,-3.7107385607927372,9.560268051051013,123,30,0.0,16399,384162360487153,16,29.4,590.0259399414062,0.023900000378489494,25,7968.027753833765,0.00281634630106073,1.57542003E9,,,,0,,1,0.55,1.57542003E9,357.0,NaN,NaN
Raw,232602915580582,649407188000000,,,-1265581155250566696,0.6376705169677734,28.058546376996674,-3.7107385607927372,9.560268051051013,123,14,0.0,49359,49344374716141,8,36.4,-27.752962112426758,0.24060000479221344,25,-376.52086971265726,0.0011443444794587703,1.59806246E9,,,,0,,3,0.02,1.59806246E9,357.0,NaN,NaN
Raw,232602915580582,649407188000000,,,-1265581155250566696,0.6376705169677734,28.058546376996674,-3.7107385607927372,9.560268051051013,123,22,0.0,49359,49344361073163,35,22.7,-160.6593017578125,0.583299994468689,27,-1049.3213800201925,0.18733370372433672,1.60031245E9,,,,0,,3,0.02,1.60031245E9,357.0,NaN,NaN
Raw,232602915580582,649407188000000,,,-1265581155250566696,0.6376705169677734,28.058546376996674,-3.7107385607927372,9.560268051051013,123,13,0.0,49359,49344367498198,19,27.0,642.0438842773438,0.2363000065088272,25,8056.482502159828,0.0031835540173351597,1.60087501E9,,,,0,,3,0.02,1.60087501E9,357.0,NaN,NaN
Raw,232602915580582,649407188000000,,,-1265581155250566696,0.6376705169677734,28.058546376996674,-3.7107385607927372,9.560268051051013,123,15,0.0,49359,49344366684502,9,35.2,-658.2212524414062,0.22910000383853912,25,-8772.826258553567,0.001309954600983276,1.602E9,,,,0,,3,0.02,1.602E9,357.0,NaN,NaN
Raw,232602915580582,649407188000000,,,-1265581155250566696,0.6376705169677734,28.058546376996674,-3.7107385607927372,9.560268051051013,123,5,0.0,49359,49344369580589,4,43.7,-556.7903442382812,0.23149999976158142,25,-7422.852015265925,5.050908325201994E-4,1.60256256E9,,,,0,,3,0.02,1.60256256E9,357.0,NaN,NaN
Raw,232602915580582,649407188000000,,,-1265581155250566696,0.6376705169677734,28.058546376996674,-3.7107385607927372,9.560268051051013,123,3,0.0,49359,49344364227163,7,37.3,772.9087524414062,0.22540000081062317,25,10295.792751787145,9.900844722691658E-4,1.60481254E9,,,,0,,3,0.02,1.60481254E9,357.0,NaN,NaN
Raw,232602915580582,649407188000000,,,-1265581155250566696,0.6376705169677734,28.058546376996674,-3.7107385607927372,9.560268051051013,123,4,0.0,49359,49344374115641,6,38.0,208.94737243652344,0.24009999632835388,25,2778.1822110845783,9.150404631835356E-4,1.60537498E9,,,,0,,3,0.02,1.60537498E9,357.0,NaN,NaN
Raw,232602915580582,649407188000000,,,-1265581155250566696,0.6376705169677734,28.058546376996674,-3.7107385607927372,9.560268051051013,123,37,0.0,16399,384148358952643,10,34.0,479.02178955078125,0.06260000169277191,25,6563.275623765332,0.001536315979199305,1.56109798E9,,,,0,,5,0.75,1.56109798E9,357.0,NaN,NaN
Raw,232602915580582,649407188000000,,,-1265581155250566696,0.6376705169677734,28.058546376996674,-3.7107385607927372,9.560268051051013,123,22,0.0,16399,384148358718922,5,40.7,-402.4256286621094,0.04560000076889992,17,-4806.942827967101,7.489539839688142E-4,1.56109798E9,,,,0,,5,0.75,1.56109798E9,357.0,NaN,NaN
Raw,232602915580582,649407188000000,,,-1265581155250566696,0.6376705169677734,28.058546376996674,-3.7107385607927372,9.560268051051013,123,20,0.0,16399,384148355546083,9,35.5,637.2267456054688,0.04260000213980675,25,7621.125065291028,0.0013442764594430532,1.56109798E9,,,,0,,5,0.75,1.56109798E9,357.0,NaN,NaN
Raw,232602915580582,649407188000000,,,-1265581155250566696,0.6376705169677734,28.058546376996674,-3.7107385607927372,9.560268051051013,123,19,0.0,16399,384148365030600,19,27.0,202.73155212402344,0.0333000011742115,19,2114.4053696496844,0.0032646714781548623,1.56109798E9,,,,0,,5,0.75,1.56109798E9,357.0,NaN,NaN
Raw,232602915580582,649407188000000,,,-1265581155250566696,0.6376705169677734,28.058546376996674,-3.7107385607927372,9.560268051051013,123,10,0.0,16399,384148306166903,31,23.5,168.74310302734375,0.12020000070333481,21,2029.8100033439719,0.1920394882785269,1.56109798E9,,,,0,,5,0.75,1.56109798E9,357.0,NaN,NaN
Raw,232602915580582,649407188000000,,,-1265581155250566696,0.6376705169677734,28.058546376996674,-3.7107385607927372,9.560268051051013,123,1,0.0,23567,384162354116388,5,41.6,388.67877197265625,0.04530000314116478,25,5301.463852929602,0.001484290577412798,1.57542003E9,,,,0,,6,0.51,1.57542003E9,357.0,NaN,NaN
Raw,232602915580582,649407188000000,,,-1265581155250566696,0.6376705169677734,28.058546376996674,-3.7107385607927372,9.560268051051013,123,4,0.0,23567,384162352116128,7,37.4,501.1694641113281,0.04340000078082085,25,6832.552238963956,0.0021883771969841777,1.57542003E9,,,,0,,6,0.51,1.57542003E9,357.0,NaN,NaN
Raw,232602915580582,649407188000000,,,-1265581155250566696,0.6376705169677734,28.058546376996674,-3.7107385607927372,9.560268051051013,123,5,0.0,23567,384162353498588,12,32.0,-422.98028564453125,0.0471000038087368,25,-5764.003037537765,0.003958108324583987,1.57542003E9,,,,0,,6,0.51,1.57542003E9,357.0,NaN,NaN
Raw,232602915580582,649407188000000,,,-1265581155250566696,0.6376705169677734,28.058546376996674,-3.7107385607927372,9.560268051051013,123,9,0.0,23567,384162366842978,7,37.8,59.95644760131836,0.046400003135204315,25,816.4451674798391,0.0021883771969841777,1.57542003E9,,,,0,,6,0.51,1.57542003E9,357.0,NaN,NaN
Raw,232602915580582,649407188000000,,,-1265581155250566696,0.6376705169677734,28.058546376996674,-3.7107385607927372,9.560268051051013,123,24,0.0,23567,384162356830458,13,31.9,-553.437255859375,0.04610000178217888,25,-7546.296473559823,0.004528989424958011,1.57542003E9,,,,0,,6,0.51,1.57542003E9,357.0,NaN,NaN
Raw,232602915580582,649407188000000,,,-1265581155250566696,0.6376705169677734,28.058546376996674,-3.7107385607927372,9.560268051051013,123,31,0.0,23567,384162359816247,6,38.5,-143.31614685058594,0.041600000113248825,25,-1511.469112646534,0.0020551716777868216,1.57542003E9,,,,0,,6,0.51,1.57542003E9,357.0,NaN,NaN
Raw,232602915580582,649407188000000,,,-1265581155250566696,0.6376705169677734,28.058546376996674,-3.7107385607927372,9.560268051051013,123,24,0.0,81935,384162363100552,3,31.4,-586.2160034179688,0.03230000287294388,25,-3728.144583703993,0.0027776256465907277,1.17645005E9,,,,0,,1,5.69,1.17645005E9,357.0,NaN,NaN
Raw,232602915580582,649407188000000,,,-1265581155250566696,0.6376705169677734,28.058546376996674,-3.7107385607927372,9.560268051051013,123,30,0.0,81935,384162360495007,11,19.2,588.9713134765625,0.9164999723434448,16,0.0,0.0,1.17645005E9,,,,0,,1,5.69,1.17645005E9,357.0,NaN,NaN
Raw,232602915580582,649407188000000,,,-1265581155250566696,0.6376705169677734,28.058546376996674,-3.7107385607927372,9.560268051051013,123,1,0.0,81935,384162354123454,9,21.9,388.65020751953125,0.06639999896287918,25,2867.6068250426583,0.34557229348499413,1.17645005E9,,,,0,,6,5.69,1.17645005E9,357.0,NaN,NaN
Raw,232602915580582,649407188000000,,,-1265581155250566696,0.6376705169677734,28.058546376996674,-3.7107385607927372,9.560268051051013,123,4,0.0,81935,384162352123225,5,28.9,501.12225341796875,0.051100000739097595,25,3693.4098806174134,0.0040262828122019055,1.17645005E9,,,,0,,6,5.69,1.17645005E9,357.0,NaN,NaN
Raw,232602915580582,649407188000000,,,-1265581155250566696,0.6376705169677734,28.058546376996674,-3.7107385607927372,9.560268051051013,123,5,0.0,81935,384162353505670,3,33.8,-422.9801940917969,0.04500000178813934,25,-3120.672242193358,0.0022170039651624013,1.17645005E9,,,,0,,6,5.69,1.17645005E9,357.0,NaN,NaN
Raw,232602915580582,649407188000000,,,-1265581155250566696,0.6376705169677734,28.058546376996674,-3.7107385607927372,9.560268051051013,123,9,0.0,81935,384162366850081,4,30.9,59.935577392578125,0.038200002163648605,25,442.50814743670384,0.0032108332879374254,1.17645005E9,,,,0,,6,5.69,1.17645005E9,357.0,NaN,NaN
Raw,232602915580582,649407188000000,,,-1265581155250566696,0.6376705169677734,28.058546376996674,-3.7107385607927372,9.560268051051013,123,31,0.0,81935,384162359823340,4,29.7,-143.12713623046875,0.029500000178813934,29,-1054.8306526757733,0.0037714549693657518,1.17645005E9,,,,0,,6,5.69,1.17645005E9,357.0,NaN,NaN
Fix,gps,51.524754,-0.134096,77.447632,0.000000,3.790092,1582195346000,232603900147190
Raw,232603923527662,649408188000000,,,-1265581155250566692,0.1543445587158203,29.896220439695753,-2.4772683364707113,10.528935891831125,123,5,0.0,16399,384163357462678,16,29.1,725.5516967773438,0.049400001764297485,25,8293.057490190822,0.00281634630106073,1.57542003E9,,,,0,,1,0.76,1.57542003E9,357.0,NaN,NaN
Raw,232603923527662,649408188000000,,,-1265581155250566692,0.1543445587158203,29.896220439695753,-2.4772683364707113,10.528935891831125,123,13,0.0,16399,384163370573241,11,33.2,225.24154663085938,0.03620000183582306,25,3248.372902298782,0.001655554942969963,1.57542003E9,,,,0,,1,0.76,1.57542003E9,357.0,NaN,NaN
Raw,232603923527662,649408188000000,,,-1265581155250566692,0.1543445587158203,29.896220439695753,-2.4772683364707113,10.528935891831125,123,15,0.0,16399,384163370897747,5,40.2,-108.737548828125,0.03360000252723694,25,-1427.5158051112464,7.42145288706399E-4,1.57542003E9,,,,0,,1,0.76,1.57542003E9,357.0,NaN,NaN
Raw,232603923527662,649408188000000,,,-1265581155250566692,0.1543445587158203,29.896220439695753,-2.4772683364707113,10.528935891831125,123,17,0.0,16399,384163356187308,31,23.9,-538.3306884765625,0.10520000010728836,19,-245.88562870145788,0.19029366893311156,1.57542003E9,,,,0,,1,0.76,1.57542003E9,357.0,NaN,NaN
Raw,232603923527662,649408188000000,,,-1265581155250566692,0.1543445587158203,29.896220439695753,-2.4772683364707113,10.528935891831125,123,20,0.0,16399,384163362006240,17,28.4,-353.39263916015625,0.028200000524520874,25,-5143.295670673851,0.0030066398239606148,1.57542003E9,,,,0,,1,0.76,1.57542003E9,357.0,NaN,NaN
Raw,232603923527662,649408188000000,,,-1265581155250566692,0.1543445587158203,29.896220439695753,-2.4772683364707113,10.528935891831125,123,24,0.0,16399,384163363094684,24,25.4,-585.1644897460938,0.03779999911785126,21,-8204.250958402557,0.19029366893311156,1.57542003E9,,,,0,,1,0.76,1.57542003E9,357.0,NaN,NaN
Raw,232603923527662,649408188000000,,,-1265581155250566692,0.1543445587158203,29.896220439695753,-2.4772683364707113,10.528935891831125,123,28,0.0,16399,384163366970881,5,40.9,191.90325927734375,0.0276000015437603,25,2803.5009816406687,7.42145288706399E-4,1.57542003E9,,,,0,,1,0.76,1.57542003E9,357.0,NaN,NaN
Raw,232603923527662,649408188000000,,,-1265581155250566692,0.1543445587158203,29.896220439695753,-2.4772683364707113,10.528935891831125,123,30,0.0,16399,384163360485191,14,30.0,591.1152954101562,0.02290000021457672,25,8558.274402844681,0.002397700231676362,1.57542003E9,,,,0,,1,0.76,1.57542003E9,357.0,NaN,NaN
Raw,232603923527662,649408188000000,,,-1265581155250566692,0.1543445587158203,29.896220439695753,-2.4772683364707113,10.528935891831125,123,14,0.0,49359,49345374716210,7,37.7,-26.56737518310547,0.24040000140666962,25,-403.97536861586343,9.94266504915028E-4,1.59806246E9,,,,0,,3,0.21,1.59806246E9,357.0,NaN,NaN
Raw,232603923527662,649408188000000,,,-1265581155250566692,0.1543445587158203,29.896220439695753,-2.4772683364707113,10.528935891831125,123,22,0.0,49359,49345361073704,24,25.7,-159.3916015625,0.23480001091957092,21,-1209.6376308291117,0.18733370372433672,1.60031245E9,,,,0,,3,0.21,1.60031245E9,357.0,NaN,NaN
Raw,232603923527662,649408188000000,,,-1265581155250566692,0.1543445587158203,29.896220439695753,-2.4772683364707113,10.528935891831125,123,13,0.0,49359,49345367496036,31,23.6,643.1558837890625,0.32170000672340393,21,8698.754350520157,0.18726787319550683,1.60087501E9,,,,0,,3,0.21,1.60087501E9,357.0,NaN,NaN
Raw,232603923527662,649408188000000,,,-1265581155250566692,0.1543445587158203,29.896220439695753,-2.4772683364707113,10.528935891831125,123,15,0.0,49359,49345366686538,31,23.8,-657.35302734375,0.32019999623298645,21,-9430.930686303389,0.18713636579275905,1.602E9,,,,0,,3,0.21,1.602E9,357.0,NaN,NaN
Raw,232603923527662,649408188000000,,,-1265581155250566692,0.1543445587158203,29.896220439695753,-2.4772683364707113,10.528935891831125,123,5,0.0,49359,49345369582444,4,44.0,-555.6490478515625,0.2312999963760376,25,-7979.388847610107,4.863837533568402E-4,1.60256256E9,,,,0,,3,0.21,1.60256256E9,357.0,NaN,NaN
Raw,232603923527662,649408188000000,,,-1265581155250566692,0.1543445587158203,29.896220439695753,-2.4772683364707113,10.528935891831125,123,3,0.0,49359,49345364224585,5,41.2,773.9896240234375,0.22429999709129333,25,11068.92205063907,6.725102157856068E-4,1.60481254E9,,,,0,,3,0.21,1.60481254E9,357.0,NaN,NaN
Raw,232603923527662,649408188000000,,,-1265581155250566692,0.1543445587158203,29.896220439695753,-2.4772683364707113,10.528935891831125,123,4,0.0,49359,49345374114937,6,38.5,210.1494140625,0.24009999632835388,25,2987.423026209659,9.150404631835356E-4,1.60537498E9,,,,0,,3,0.21,1.60537498E9,357.0,NaN,NaN
Raw,232603923527662,649408188000000,,,-1265581155250566692,0.1543445587158203,29.896220439695753,-2.4772683364707113,10.528935891831125,123,37,0.0,16399,384149358951086,11,33.6,480.0841369628906,0.04820000380277634,25,7042.529597214287,0.0016707435714883973,1.56109798E9,,,,0,,5,1.02,1.56109798E9,357.0,NaN,NaN
Raw,232603923527662,649408188000000,,,-1265581155250566692,0.1543445587158203,29.896220439695753,-2.4772683364707113,10.528935891831125,123,22,0.0,16399,384149358720252,6,39.2,-401.322265625,0.04580000042915344,17,-5209.131993687399,8.449737438469402E-4,1.56109798E9,,,,0,,5,1.02,1.56109798E9,357.0,NaN,NaN
Raw,232603923527662,649408188000000,,,-1265581155250566692,0.1543445587158203,29.896220439695753,-2.4772683364707113,10.528935891831125,123,20,0.0,16399,384149355543940,8,36.4,638.2791748046875,0.042100001126527786,25,8258.569447229884,0.0011714408558922843,1.56109798E9,,,,0,,5,1.02,1.56109798E9,357.0,NaN,NaN
Raw,232603923527662,649408188000000,,,-1265581155250566692,0.1543445587158203,29.896220439695753,-2.4772683364707113,10.528935891831125,123,19,0.0,16399,384149365029942,24,25.3,203.91481018066406,0.040800001472234726,21,2317.359750410541,0.1920394882785269,1.56109798E9,,,,0,,5,1.02,1.56109798E9,357.0,NaN,NaN
Raw,232603923527662,649408188000000,,,-1265581155250566692,0.1543445587158203,29.896220439695753,-2.4772683364707113,10.528935891831125,123,10,0.0,16399,384149306166349,27,24.1,169.8021240234375,0.050300002098083496,21,2198.753488863819,0.1920394882785269,1.56109798E9,,,,0,,5,1.02,1.56109798E9,357.0,NaN,NaN
Raw,232603923527662,649408188000000,,,-1265581155250566692,0.1543445587158203,29.896220439695753,-2.4772683364707113,10.528935891831125,123,1,0.0,23567,384163354115089,6,39.7,389.6783142089844,0.04580000042915344,25,5690.36860987683,0.0018458486430946374,1.57542003E9,,,,0,,6,0.72,1.57542003E9,357.0,NaN,NaN
Raw,232603923527662,649408188000000,,,-1265581155250566692,0.1543445587158203,29.896220439695753,-2.4772683364707113,10.528935891831125,123,4,0.0,23567,384163352114467,7,37.8,502.1557312011719,0.04340000078082085,25,7333.923008044132,0.0021883771969841777,1.57542003E9,,,,0,,6,0.72,1.57542003E9,357.0,NaN,NaN
Raw,232603923527662,649408188000000,,,-1265581155250566692,0.1543445587158203,29.896220439695753,-2.4772683364707113,10.528935891831125,123,5,0.0,23567,384163353499982,12,32.3,-421.97271728515625,0.0471000038087368,25,-6186.790010792102,0.003958108324583987,1.57542003E9,,,,0,,6,0.72,1.57542003E9,357.0,NaN,NaN
Raw,232603923527662,649408188000000,,,-1265581155250566692,0.1543445587158203,29.896220439695753,-2.4772683364707113,10.528935891831125,123,9,0.0,23567,384163366842794,6,38.2,61.00907516479492,0.04610000178217888,25,876.6456207322689,0.0020551716777868216,1.57542003E9,,,,0,,6,0.72,1.57542003E9,357.0,NaN,NaN
Raw,232603923527662,649408188000000,,,-1265581155250566692,0.1543445587158203,29.896220439695753,-2.4772683364707113,10.528935891831125,123,24,0.0,23567,384163356832318,9,35.5,-552.469482421875,0.04410000145435333,25,-8099.594716220782,0.0028924638165555576,1.57542003E9,,,,0,,6,0.72,1.57542003E9,357.0,NaN,NaN
Raw,232603923527662,649408188000000,,,-1265581155250566692,0.1543445587158203,29.896220439695753,-2.4772683364707113,10.528935891831125,123,31,0.0,23567,384163359816729,7,37.1,-142.2793426513672,0.04190000146627426,25,-1654.5620480946727,0.0021883771969841777,1.57542003E9,,,,0,,6,0.72,1.57542003E9,357.0,NaN,NaN
Raw,232603923527662,649408188000000,,,-1265581155250566692,0.1543445587158203,29.896220439695753,-2.4772683364707113,10.528935891831125,123,24,0.0,81935,384163363102503,3,33.1,-585.1104736328125,0.030000001192092896,25,-4314.122773435757,0.0022170039651624013,1.17645005E9,,,,0,,1,10.32,1.17645005E9,357.0,NaN,NaN
Raw,232603923527662,649408188000000,,,-1265581155250566692,0.1543445587158203,29.896220439695753,-2.4772683364707113,10.528935891831125,123,30,0.0,81935,384163360493044,8,22.9,591.076171875,0.03669999912381172,27,4345.250699258074,0.25482803839368795,1.17645005E9,,,,0,,1,10.32,1.17645005E9,357.0,NaN,NaN
Raw,232603923527662,649408188000000,,,-1265581155250566692,0.1543445587158203,29.896220439695753,-2.4772683364707113,10.528935891831125,123,1,0.0,81935,384163354122167,4,30.7,389.68359375,0.050200000405311584,25,3256.5282384276943,0.0032108332879374254,1.17645005E9,,,,0,,6,10.32,1.17645005E9,357.0,NaN,NaN
Raw,232603923527662,649408188000000,,,-1265581155250566692,0.1543445587158203,29.896220439695753,-2.4772683364707113,10.528935891831125,123,4,0.0,81935,384163352121553,4,30.3,502.10528564453125,0.047200001776218414,25,4194.78871558784,0.0032108332879374254,1.17645005E9,,,,0,,6,10.32,1.17645005E9,357.0,NaN,NaN
Raw,232603923527662,649408188000000,,,-1265581155250566692,0.1543445587158203,29.896220439695753,-2.4772683364707113,10.528935891831125,123,5,0.0,81935,384163353507078,2,37.0,-421.9568786621094,0.041600000113248825,25,-3543.4227427250785,0.0013505885638054542,1.17645005E9,,,,0,,6,10.32,1.17645005E9,357.0,NaN,NaN
Raw,232603923527662,649408188000000,,,-1265581155250566692,0.1543445587158203,29.896220439695753,-2.4772683364707113,10.528935891831125,123,9,0.0,81935,384163366849885,3,32.1,61.01665496826172,0.035599999129772186,25,502.71829516861095,0.0024208662868967453,1.17645005E9,,,,0,,6,10.32,1.17645005E9,357.0,NaN,NaN
Raw,232603923527662,649408188000000,,,-1265581155250566692,0.1543445587158203,29.896220439695753,-2.4772683364707113,10.528935891831125,123,31,0.0,81935,384163359823814,2,37.5,-142.23316955566406,0.020600000396370888,25,-1197.877688445689,0.0013505885638054542,1.17645005E9,,,,0,,6,10.32,1.17645005E9,357.0,NaN,NaN
Fix,gps,51.524753,-0.134093,77.774170,0.000000,3.790092,1582195347000,232604894812758
Raw,232604948865941,649409188000000,,,-1265581155250566688,0.29686737060546875,28.80816646211315,0.8136805329463919,10.528631300059853,123,5,0.0,16399,384164357460216,16,29.6,725.2579345703125,0.049400001764297485,25,9018.927421729752,0.00281634630106073,1.57542003E9,,,,0,,1,0.32,1.57542003E9,357.0,NaN,NaN
Raw,232604948865941,649409188000000,,,-1265581155250566688,0.29686737060546875,28.80816646211315,0.8136805329463919,10.528631300059853,123,13,0.0,16399,384164370572465,11,33.0,224.95083618164062,0.03620000183582306,25,3473.906877030014,0.001655554942969963,1.57542003E9,,,,0,,1,0.32,1.57542003E9,357.0,NaN,NaN
Raw,232604948865941,649409188000000,,,-1265581155250566688,0.29686737060546875,28.80816646211315,0.8136805329463919,10.528631300059853,123,15,0.0,16399,384164370898113,6,39.5,-108.9939956665039,0.03380000218749046,25,-1535.9407187586953,8.372921387687362E-4,1.57542003E9,,,,0,,1,0.32,1.57542003E9,357.0,NaN,NaN
Raw,232604948865941,649409188000000,,,-1265581155250566688,0.29686737060546875,28.80816646211315,0.8136805329463919,10.528631300059853,123,17,0.0,16399,384164356189139,24,25.8,-538.6075439453125,0.05730000138282776,21,-783.9276613475034,0.19029366893311156,1.57542003E9,,,,0,,1,0.32,1.57542003E9,357.0,NaN,NaN
Raw,232604948865941,649409188000000,,,-1265581155250566688,0.29686737060546875,28.80816646211315,0.8136805329463919,10.528631300059853,123,20,0.0,16399,384164362007299,24,25.6,-353.7344970703125,0.021299999207258224,21,-5496.403741528773,0.19029366893311156,1.57542003E9,,,,0,,1,0.32,1.57542003E9,357.0,NaN,NaN
Raw,232604948865941,649409188000000,,,-1265581155250566688,0.29686737060546875,28.80816646211315,0.8136805329463919,10.528631300059853,123,24,0.0,16399,384164363096658,61,18.9,-585.1625366210938,0.9860000014305115,16,0.0,0.0,1.57542003E9,,,,0,,1,0.32,1.57542003E9,357.0,NaN,NaN
Raw,232604948865941,649409188000000,,,-1265581155250566688,0.29686737060546875,28.80816646211315,0.8136805329463919,10.528631300059853,123,28,0.0,16399,384164366970238,5,41.6,191.65188598632812,0.027300002053380013,25,2995.7160932900374,6.850571963914755E-4,1.57542003E9,,,,0,,1,0.32,1.57542003E9,357.0,NaN,NaN
Raw,232604948865941,649409188000000,,,-1265581155250566688,0.29686737060546875,28.80816646211315,0.8136805329463919,10.528631300059853,123,30,0.0,16399,384164360483236,16,29.0,590.7131958007812,0.008899999782443047,25,9149.643490655484,0.00281634630106073,1.57542003E9,,,,0,,1,0.32,1.57542003E9,357.0,NaN,NaN
Raw,232604948865941,649409188000000,,,-1265581155250566688,0.29686737060546875,28.80816646211315,0.8136805329463919,10.528631300059853,123,14,0.0,49359,49346374716329,8,36.9,-26.787582397460938,0.24060000479221344,25,-430.19758952942277,0.0011443444794587703,1.59806246E9,,,,0,,3,-0.2,1.59806246E9,357.0,NaN,NaN
Raw,232604948865941,649409188000000,,,-1265581155250566688,0.29686737060546875,28.80816646211315,0.8136805329463919,10.528631300059853,123,22,0.0,49359,49346361074287,24,25.1,-159.66586303710938,0.21979999542236328,29,-1368.6983074246075,0.18733370372433672,1.60031245E9,,,,0,,3,-0.2,1.60031245E9,357.0,NaN,NaN
Raw,232604948865941,649409188000000,,,-1265581155250566688,0.29686737060546875,28.80816646211315,0.8136805329463919,10.528631300059853,123,13,0.0,49359,49346367493898,31,23.9,642.8389282226562,0.32170000672340393,29,9342.175162650808,0.18726787319550683,1.60087501E9,,,,0,,3,-0.2,1.60087501E9,357.0,NaN,NaN
Raw,232604948865941,649409188000000,,,-1265581155250566688,0.29686737060546875,28.80816646211315,0.8136805329463919,10.528631300059853,123,15,0.0,49359,49346366688967,61,18.2,-657.157470703125,1.2055001258850098,16,0.0,0.0,1.602E9,,,,0,,3,-0.2,1.602E9,357.0,NaN,NaN
Raw,232604948865941,649409188000000,,,-1265581155250566688,0.29686737060546875,28.80816646211315,0.8136805329463919,10.528631300059853,123,5,0.0,49359,49346369584295,4,44.5,-555.9265747070312,0.2312999963760376,25,-8534.740990811053,4.863837533568402E-4,1.60256256E9,,,,0,,3,-0.2,1.60256256E9,357.0,NaN,NaN
Raw,232604948865941,649409188000000,,,-1265581155250566688,0.29686737060546875,28.80816646211315,0.8136805329463919,10.528631300059853,123,3,0.0,49359,49346364221988,5,40.8,773.6605224609375,0.20960000157356262,25,11843.19884241533,7.285527265186209E-4,1.60481254E9,,,,0,,3,-0.2,1.60481254E9,357.0,NaN,NaN
Raw,232604948865941,649409188000000,,,-1265581155250566688,0.29686737060546875,28.80816646211315,0.8136805329463919,10.528631300059853,123,4,0.0,49359,49346374114211,6,38.4,209.93402099609375,0.24009999632835388,25,3197.908827780848,9.150404631835356E-4,1.60537498E9,,,,0,,3,-0.2,1.60537498E9,357.0,NaN,NaN
Raw,232604948865941,649409188000000,,,-1265581155250566688,0.29686737060546875,28.80816646211315,0.8136805329463919,10.528631300059853,123,37,0.0,16399,384150358949515,13,31.5,479.8067626953125,0.04910000041127205,25,7522.927536437809,0.0020932304434118673,1.56109798E9,,,,0,,5,0.5,1.56109798E9,357.0,NaN,NaN
Raw,232604948865941,649409188000000,,,-1265581155250566688,0.29686737060546875,28.80816646211315,0.8136805329463919,10.528631300059853,123,22,0.0,16399,384150358721584,6,39.1,-401.61077880859375,0.04580000042915344,17,-5610.154350806341,8.449737438469402E-4,1.56109798E9,,,,0,,5,0.5,1.56109798E9,357.0,NaN,NaN
Raw,232604948865941,649409188000000,,,-1265581155250566688,0.29686737060546875,28.80816646211315,0.8136805329463919,10.528631300059853,123,20,0.0,16399,384150355541798,7,37.2,637.9859619140625,0.04190000146627426,25,8897.157424562964,0.0010178092579723537,1.56109798E9,,,,0,,5,0.5,1.56109798E9,357.0,NaN,NaN
Raw,232604948865941,649409188000000,,,-1265581155250566688,0.29686737060546875,28.80816646211315,0.8136805329463919,10.528631300059853,123,19,0.0,16399,384150365029253,21,26.9,203.582763671875,0.019200000911951065,17,2521.568372292001,0.005492329335005111,1.56109798E9,,,,0,,5,0.5,1.56109798E9,357.0,NaN,NaN
Raw,232604948865941,649409188000000,,,-1265581155250566688,0.29686737060546875,28.80816646211315,0.8136805329463919,10.528631300059853,123,10,0.0,16399,384150306165734,31,23.6,169.51516723632812,0.12020000070333481,21,2368.9130984415897,0.1920394882785269,1.56109798E9,,,,0,,5,0.5,1.56109798E9,357.0,NaN,NaN
Raw,232604948865941,649409188000000,,,-1265581155250566688,0.29686737060546875,28.80816646211315,0.8136805329463919,10.528631300059853,123,1,0.0,23567,384164354113790,6,39.5,389.4492492675781,0.04580000042915344,25,6080.397577050293,0.0018458486430946374,1.57542003E9,,,,0,,6,0.35,1.57542003E9,357.0,NaN,NaN
Raw,232604948865941,649409188000000,,,-1265581155250566688,0.29686737060546875,28.80816646211315,0.8136805329463919,10.528631300059853,123,4,0.0,23567,384164352112777,7,37.8,501.92620849609375,0.04340000078082085,25,7836.42970535054,0.0021883771969841777,1.57542003E9,,,,0,,6,0.35,1.57542003E9,357.0,NaN,NaN
Raw,232604948865941,649409188000000,,,-1265581155250566688,0.29686737060546875,28.80816646211315,0.8136805329463919,10.528631300059853,123,5,0.0,23567,384164353501384,11,33.0,-422.2033386230469,0.04670000076293945,25,-6608.426774813745,0.003596550258902148,1.57542003E9,,,,0,,6,0.35,1.57542003E9,357.0,NaN,NaN
Raw,232604948865941,649409188000000,,,-1265581155250566688,0.29686737060546875,28.80816646211315,0.8136805329463919,10.528631300059853,123,9,0.0,23567,384164366842575,7,37.8,60.7986946105957,0.046400003135204315,25,938.0065612774204,0.0021883771969841777,1.57542003E9,,,,0,,6,0.35,1.57542003E9,357.0,NaN,NaN
Raw,232604948865941,649409188000000,,,-1265581155250566688,0.29686737060546875,28.80816646211315,0.8136805329463919,10.528631300059853,123,24,0.0,23567,384164356834160,11,33.7,-552.7493286132812,0.04520000144839287,25,-8651.762591927245,0.003596550258902148,1.57542003E9,,,,0,,6,0.35,1.57542003E9,357.0,NaN,NaN
Raw,232604948865941,649409188000000,,,-1265581155250566688,0.29686737060546875,28.80816646211315,0.8136805329463919,10.528631300059853,123,31,0.0,23567,384164359817218,8,36.7,-142.47763061523438,0.042100001126527786,25,-1796.479248082796,0.0025499350854412276,1.57542003E9,,,,0,,6,0.35,1.57542003E9,357.0,NaN,NaN
Raw,232604948865941,649409188000000,,,-1265581155250566688,0.29686737060546875,28.80816646211315,0.8136805329463919,10.528631300059853,123,24,0.0,81935,384164363104454,5,27.2,-585.4908447265625,0.02550000138580799,25,-4898.966143863611,0.004332076888121183,1.17645005E9,,,,0,,1,-0.54,1.17645005E9,357.0,NaN,NaN
Raw,232604948865941,649409188000000,,,-1265581155250566688,0.29686737060546875,28.80816646211315,0.8136805329463919,10.528631300059853,123,1,0.0,81935,384164354120872,7,24.6,389.4910888671875,0.09610000252723694,29,3646.5834101957917,0.0411037634920868,1.17645005E9,,,,0,,6,-0.54,1.17645005E9,357.0,NaN,NaN
Raw,232604948865941,649409188000000,,,-1265581155250566688,0.29686737060546875,28.80816646211315,0.8136805329463919,10.528631300059853,123,4,0.0,81935,384164352119883,6,25.3,501.72503662109375,0.07249999791383743,29,4697.322635403089,0.010753742989341824,1.17645005E9,,,,0,,6,-0.54,1.17645005E9,357.0,NaN,NaN
Raw,232604948865941,649409188000000,,,-1265581155250566688,0.29686737060546875,28.80816646211315,0.8136805329463919,10.528631300059853,123,5,0.0,81935,384164353508485,3,31.8,-422.3471984863281,0.047300003468990326,25,-3965.0612043165147,0.0027776256465907277,1.17645005E9,,,,0,,6,-0.54,1.17645005E9,357.0,NaN,NaN
Raw,232604948865941,649409188000000,,,-1265581155250566688,0.29686737060546875,28.80816646211315,0.8136805329463919,10.528631300059853,123,9,0.0,81935,384164366849681,5,27.8,60.61117935180664,0.04500000178813934,25,564.0816414021314,0.004332076888121183,1.17645005E9,,,,0,,6,-0.54,1.17645005E9,357.0,NaN,NaN
Raw,232604948865941,649409188000000,,,-1265581155250566688,0.29686737060546875,28.80816646211315,0.8136805329463919,10.528631300059853,123,31,0.0,81935,384164359824286,3,32.0,-142.61541748046875,0.010099999606609344,25,-1339.7740373156007,0.0024208662868967453,1.17645005E9,,,,0,,6,-0.54,1.17645005E9,357.0,NaN,NaN
Fix,gps,51.524752,-0.134092,77.794556,0.000000,3.790092,1582195348000,232605896684681
Raw,232605922532913,649410188000000,,,-1265581155250566686,0.6810531616210938,33.98318949621171,-0.27740429647162984,15.437852988335427,123,5,0.0,16399,384165357457830,19,27.4,723.266845703125,0.05130000039935112,21,9743.4063834002,0.003234992547669888,1.57542003E9,,,,0,,1,-4.04,1.57542003E9,357.0,NaN,NaN
Raw,232605922532913,649410188000000,,,-1265581155250566686,0.6810531616210938,33.98318949621171,-0.27740429647162984,15.437852988335427,123,13,0.0,16399,384165370571724,14,30.4,220.68455505371094,0.03790000081062317,25,3698.143013869664,0.002397700231676362,1.57542003E9,,,,0,,1,-4.04,1.57542003E9,357.0,NaN,NaN
Raw,232605922532913,649410188000000,,,-1265581155250566686,0.6810531616210938,33.98318949621171,-0.27740429647162984,15.437852988335427,123,15,0.0,16399,384165370898471,9,35.9,-111.16956329345703,0.2815000116825104,16,0.0,0.0,1.57542003E9,,,,0,,1,-4.04,1.57542003E9,357.0,NaN,NaN
Raw,232605922532913,649410188000000,,,-1265581155250566686,0.6810531616210938,33.98318949621171,-0.27740429647162984,15.437852988335427,123,17,0.0,16399,384165356190940,40,21.1,-540.1961669921875,0.8704999685287476,16,0.0,0.0,1.57542003E9,,,,0,,1,-4.04,1.57542003E9,357.0,NaN,NaN
Raw,232605922532913,649410188000000,,,-1265581155250566686,0.6810531616210938,33.98318949621171,-0.27740429647162984,15.437852988335427,123,20,0.0,16399,384165362008437,53,19.2,-355.0689697265625,0.999500036239624,16,0.0,0.0,1.57542003E9,,,,0,,1,-4.04,1.57542003E9,357.0,NaN,NaN
Raw,232605922532913,649410188000000,,,-1265581155250566686,0.6810531616210938,33.98318949621171,-0.27740429647162984,15.437852988335427,123,24,0.0,16399,384165363098581,53,19.1,-589.0445556640625,1.0010000467300415,16,0.0,0.0,1.57542003E9,,,,0,,1,-4.04,1.57542003E9,357.0,NaN,NaN
Raw,232605922532913,649410188000000,,,-1265581155250566686,0.6810531616210938,33.98318949621171,-0.27740429647162984,15.437852988335427,123,28,0.0,16399,384165366969604,7,37.2,189.83697509765625,0.25550001859664917,16,0.0,0.0,1.57542003E9,,,,0,,1,-4.04,1.57542003E9,357.0,NaN,NaN
Raw,232605922532913,649410188000000,,,-1265581155250566686,0.6810531616210938,33.98318949621171,-0.27740429647162984,15.437852988335427,123,30,0.0,16399,384165360481302,31,23.5,590.671630859375,0.1112000048160553,21,9740.298854881823,0.19029366893311156,1.57542003E9,,,,0,,1,-4.04,1.57542003E9,357.0,NaN,NaN
Raw,232605922532913,649410188000000,,,-1265581155250566686,0.6810531616210938,33.98318949621171,-0.27740429647162984,15.437852988335427,123,14,0.0,49359,49347374716387,10,34.7,-30.996402740478516,0.24160000681877136,25,-457.69030386106294,0.0015007797454374234,1.59806246E9,,,,0,,3,-5.17,1.59806246E9,357.0,NaN,NaN
Raw,232605922532913,649410188000000,,,-1265581155250566686,0.6810531616210938,33.98318949621171,-0.27740429647162984,15.437852988335427,123,22,0.0,49359,49347361074703,46,20.1,-162.30592346191406,1.0479999780654907,16,0.0,0.0,1.60031245E9,,,,0,,3,-5.17,1.60031245E9,357.0,NaN,NaN
Raw,232605922532913,649410188000000,,,-1265581155250566686,0.6810531616210938,33.98318949621171,-0.27740429647162984,15.437852988335427,123,13,0.0,49359,49347367491955,53,19.6,640.6995849609375,1.1269999742507935,16,0.0,0.0,1.60087501E9,,,,0,,3,-5.17,1.60087501E9,357.0,NaN,NaN
Raw,232605922532913,649410188000000,,,-1265581155250566686,0.6810531616210938,33.98318949621171,-0.27740429647162984,15.437852988335427,123,15,0.0,49359,49347366691142,21,26.6,-664.51025390625,0.23570001125335693,19,-10749.297499548304,0.005352100032671997,1.602E9,,,,0,,3,-5.17,1.602E9,357.0,NaN,NaN
Raw,232605922532913,649410188000000,,,-1265581155250566686,0.6810531616210938,33.98318949621171,-0.27740429647162984,15.437852988335427,123,5,0.0,49359,49347369586153,5,40.1,-557.685791015625,0.4000000059604645,16,0.0,0.0,1.60256256E9,,,,0,,3,-5.17,1.60256256E9,357.0,NaN,NaN
Raw,232605922532913,649410188000000,,,-1265581155250566686,0.6810531616210938,33.98318949621171,-0.27740429647162984,15.437852988335427,123,3,0.0,49359,49347364219428,7,37.3,769.3440551757812,0.22540000081062317,25,12616.142772417716,9.900844722691658E-4,1.60481254E9,,,,0,,3,-5.17,1.60481254E9,357.0,NaN,NaN
Raw,232605922532913,649410188000000,,,-1265581155250566686,0.6810531616210938,33.98318949621171,-0.27740429647162984,15.437852988335427,123,4,0.0,49359,49347374113501,9,35.1,207.7982177734375,0.5074999928474426,16,0.0,0.0,1.60537498E9,,,,0,,3,-5.17,1.60537498E9,357.0,NaN,NaN
Raw,232605922532913,649410188000000,,,-1265581155250566686,0.6810531616210938,33.98318949621171,-0.27740429647162984,15.437852988335427,123,37,0.0,16399,384151358947921,17,28.4,475.51678466796875,0.05220000073313713,25,8001.964766529081,0.003034223768286223,1.56109798E9,,,,0,,5,-3.34,1.56109798E9,357.0,NaN,NaN
Raw,232605922532913,649410188000000,,,-1265581155250566686,0.6810531616210938,33.98318949621171,-0.27740429647162984,15.437852988335427,123,22,0.0,16399,384151358722933,9,35.2,-403.7054138183594,0.3135000169277191,16,0.0,0.0,1.56109798E9,,,,0,,5,-3.34,1.56109798E9,357.0,NaN,NaN
Raw,232605922532913,649410188000000,,,-1265581155250566686,0.6810531616210938,33.98318949621171,-0.27740429647162984,15.437852988335427,123,20,0.0,16399,384151355539695,11,33.6,633.692138671875,0.04370000213384628,25,9534.378500836328,0.0016707435714883973,1.56109798E9,,,,0,,5,-3.34,1.56109798E9,357.0,NaN,NaN
Raw,232605922532913,649410188000000,,,-1265581155250566686,0.6810531616210938,33.98318949621171,-0.27740429647162984,15.437852988335427,123,19,0.0,16399,384151365028576,27,24.1,198.51123046875,0.6739999651908875,16,0.0,0.0,1.56109798E9,,,,0,,5,-3.34,1.56109798E9,357.0,NaN,NaN
Raw,232605922532913,649410188000000,,,-1265581155250566686,0.6810531616210938,33.98318949621171,-0.27740429647162984,15.437852988335427,123,1,0.0,23567,384165354112483,10,34.7,387.685302734375,0.3135000169277191,16,0.0,0.0,1.57542003E9,,,,0,,6,-4.8,1.57542003E9,357.0,NaN,NaN
Raw,232605922532913,649410188000000,,,-1265581155250566686,0.6810531616210938,33.98318949621171,-0.27740429647162984,15.437852988335427,123,4,0.0,23567,384165352111101,12,32.2,500.12982177734375,0.3604999780654907,16,0.0,0.0,1.57542003E9,,,,0,,6,-4.8,1.57542003E9,357.0,NaN,NaN
Raw,232605922532913,649410188000000,,,-1265581155250566686,0.6810531616210938,33.98318949621171,-0.27740429647162984,15.437852988335427,123,5,0.0,23567,384165353502810,16,29.0,-423.8601379394531,0.4819999933242798,16,0.0,0.0,1.57542003E9,,,,0,,6,-4.8,1.57542003E9,357.0,NaN,NaN
Raw,232605922532913,649410188000000,,,-1265581155250566686,0.6810531616210938,33.98318949621171,-0.27740429647162984,15.437852988335427,123,9,0.0,23567,384165366842385,11,33.4,58.74365997314453,0.3334999978542328,16,0.0,0.0,1.57542003E9,,,,0,,6,-4.8,1.57542003E9,357.0,NaN,NaN
Raw,232605922532913,649410188000000,,,-1265581155250566686,0.6810531616210938,33.98318949621171,-0.27740429647162984,15.437852988335427,123,24,0.0,23567,384165356836017,16,29.9,-556.7926635742188,0.0479000024497509,25,-9205.250974210665,0.006146485344343376,1.57542003E9,,,,0,,6,-4.8,1.57542003E9,357.0,NaN,NaN
Raw,232605922532913,649410188000000,,,-1265581155250566686,0.6810531616210938,33.98318949621171,-0.27740429647162984,15.437852988335427,123,31,0.0,23567,384165359817689,12,32.5,-144.35678100585938,0.35899999737739563,16,0.0,0.0,1.57542003E9,,,,0,,6,-4.8,1.57542003E9,357.0,NaN,NaN
Raw,232605922532913,649410188000000,,,-1265581155250566686,0.6810531616210938,33.98318949621171,-0.27740429647162984,15.437852988335427,123,24,0.0,81935,384165363106411,10,20.7,-592.18212890625,0.8510000109672546,16,0.0,0.0,1.17645005E9,,,,0,,1,-4.38,1.17645005E9,357.0,NaN,NaN
Raw,232605922532913,649410188000000,,,-1265581155250566686,0.6810531616210938,33.98318949621171,-0.27740429647162984,15.437852988335427,123,4,0.0,81935,384165352118215,12,18.7,497.3861083984375,1.0145000219345093,16,0.0,0.0,1.17645005E9,,,,0,,6,-4.38,1.17645005E9,357.0,NaN,NaN
Raw,232605922532913,649410188000000,,,-1265581155250566686,0.6810531616210938,33.98318949621171,-0.27740429647162984,15.437852988335427,123,5,0.0,81935,384165353509901,6,25.9,-426.196533203125,0.07400000095367432,29,-4388.033295336121,0.25482803839368795,1.17645005E9,,,,0,,6,-4.38,1.17645005E9,357.0,NaN,NaN
Raw,232605922532913,649410188000000,,,-1265581155250566686,0.6810531616210938,33.98318949621171,-0.27740429647162984,15.437852988335427,123,9,0.0,81935,384165366849487,10,20.0,57.59113693237305,0.8554999828338623,16,0.0,0.0,1.17645005E9,,,,0,,6,-4.38,1.17645005E9,357.0,NaN,NaN
Raw,232605922532913,649410188000000,,,-1265581155250566686,0.6810531616210938,33.98318949621171,-0.27740429647162984,15.437852988335427,123,31,0.0,81935,384165359824771,6,25.6,-146.68862915039062,0.05299999937415123,29,-1482.9759549100188,0.25482803839368795,1.17645005E9,,,,0,,6,-4.38,1.17645005E9,357.0,NaN,NaN
Raw,232606918879054,649411188000000,,,-1265581155250566691,0.9424839019775391,42.27912359056063,-6.32605297778762,23.5123804344773,123,5,0.0,16399,384166357455418,21,26.7,720.1283569335938,0.6019999980926514,16,0.0,0.0,1.57542003E9,,,,0,,1,-2.92,1.57542003E9,357.0,NaN,NaN
Raw,232606918879054,649411188000000,,,-1265581155250566691,0.9424839019775391,42.27912359056063,-6.32605297778762,23.5123804344773,123,13,0.0,16399,384166370570959,11,33.6,220.27947998046875,0.03620000183582306,25,3915.4817205813656,0.001655554942969963,1.57542003E9,,,,0,,1,-2.92,1.57542003E9,357.0,NaN,NaN
Raw,232606918879054,649411188000000,,,-1265581155250566691,0.9424839019775391,42.27912359056063,-6.32605297778762,23.5123804344773,123,15,0.0,16399,384166370898862,9,35.0,-113.65513610839844,0.035100001841783524,19,-1762.2628983320005,0.0013320557236479321,1.57542003E9,,,,0,,1,-2.92,1.57542003E9,357.0,NaN,NaN
Raw,232606918879054,649411188000000,,,-1265581155250566691,0.9424839019775391,42.27912359056063,-6.32605297778762,23.5123804344773,123,17,0.0,16399,384166356192727,53,19.5,-544.6300048828125,1.0205000638961792,16,0.0,0.0,1.57542003E9,,,,0,,1,-2.92,1.57542003E9,357.0,NaN,NaN
Raw,232606918879054,649411188000000,,,-1265581155250566691,0.9424839019775391,42.27912359056063,-6.32605297778762,23.5123804344773,123,24,0.0,16399,384166363100504,31,23.6,-591.30908203125,0.7310000061988831,16,0.0,0.0,1.57542003E9,,,,0,,1,-2.92,1.57542003E9,357.0,NaN,NaN
Raw,232606918879054,649411188000000,,,-1265581155250566691,0.9424839019775391,42.27912359056063,-6.32605297778762,23.5123804344773,123,28,0.0,16399,384166366968987,12,32.6,187.03802490234375,0.03060000203549862,19,3370.685047860622,0.001807789796734829,1.57542003E9,,,,0,,1,-2.92,1.57542003E9,357.0,NaN,NaN
Raw,232606918879054,649411188000000,,,-1265581155250566691,0.9424839019775391,42.27912359056063,-6.32605297778762,23.5123804344773,123,30,0.0,16399,384166360479003,61,18.5,587.093994140625,1.0614999532699585,16,0.0,0.0,1.57542003E9,,,,0,,1,-2.92,1.57542003E9,357.0,NaN,NaN
Raw,232606918879054,649411188000000,,,-1265581155250566691,0.9424839019775391,42.27912359056063,-6.32605297778762,23.5123804344773,123,14,0.0,49359,49348374716510,8,36.0,-31.429574966430664,0.24060000479221344,25,-492.051655288221,0.0011443444794587703,1.59806246E9,,,,0,,3,-4.61,1.59806246E9,357.0,NaN,NaN
Raw,232606918879054,649411188000000,,,-1265581155250566691,0.9424839019775391,42.27912359056063,-6.32605297778762,23.5123804344773,123,22,0.0,49359,49348361075294,40,21.1,-164.79745483398438,0.9729999899864197,16,0.0,0.0,1.60031245E9,,,,0,,3,-4.61,1.60031245E9,357.0,NaN,NaN
Raw,232606918879054,649411188000000,,,-1265581155250566691,0.9424839019775391,42.27912359056063,-6.32605297778762,23.5123804344773,123,15,0.0,49359,49348366693386,13,31.2,-662.1189575195312,0.23110000789165497,25,-11414.361905006297,0.0020397864077763375,1.602E9,,,,0,,3,-4.61,1.602E9,357.0,NaN,NaN
Raw,232606918879054,649411188000000,,,-1265581155250566691,0.9424839019775391,42.27912359056063,-6.32605297778762,23.5123804344773,123,5,0.0,49359,49348369588030,8,36.3,-560.5198974609375,0.4599999785423279,16,0.0,0.0,1.60256256E9,,,,0,,3,-4.61,1.60256256E9,357.0,NaN,NaN
Raw,232606918879054,649411188000000,,,-1265581155250566691,0.9424839019775391,42.27912359056063,-6.32605297778762,23.5123804344773,123,3,0.0,49359,49348364216854,7,37.9,768.9983520507812,0.22540000081062317,25,13382.152823606168,9.900844722691658E-4,1.60481254E9,,,,0,,3,-4.61,1.60481254E9,357.0,NaN,NaN
Raw,232606918879054,649411188000000,,,-1265581155250566691,0.9424839019775391,42.27912359056063,-6.32605297778762,23.5123804344773,123,4,0.0,49359,49348374112865,10,34.8,205.31993103027344,0.24160000681877136,27,3609.5314911255373,0.0014939436666010554,1.60537498E9,,,,0,,3,-4.61,1.60537498E9,357.0,NaN,NaN
Raw,232606918879054,649411188000000,,,-1265581155250566691,0.9424839019775391,42.27912359056063,-6.32605297778762,23.5123804344773,123,37,0.0,16399,384152358946323,16,29.7,474.9255065917969,0.05090000107884407,25,8474.044178847711,0.0028421844273806814,1.56109798E9,,,,0,,5,-2.29,1.56109798E9,357.0,NaN,NaN
Raw,232606918879054,649411188000000,,,-1265581155250566691,0.9424839019775391,42.27912359056063,-6.32605297778762,23.5123804344773,123,22,0.0,16399,384152358724311,12,32.4,-406.4172668457031,0.048600003123283386,19,-6421.792310562482,0.0018243750799829725,1.56109798E9,,,,0,,5,-2.29,1.56109798E9,357.0,NaN,NaN
Raw,232606918879054,649411188000000,,,-1265581155250566691,0.9424839019775391,42.27912359056063,-6.32605297778762,23.5123804344773,123,20,0.0,16399,384152355537593,12,32.8,633.131591796875,0.04410000145435333,25,10164.644702615227,0.0018243750799829725,1.56109798E9,,,,0,,5,-2.29,1.56109798E9,357.0,NaN,NaN
Raw,232606918879054,649411188000000,,,-1265581155250566691,0.9424839019775391,42.27912359056063,-6.32605297778762,23.5123804344773,123,19,0.0,16399,384152365027887,19,27.3,199.7498779296875,0.5339999794960022,16,0.0,0.0,1.56109798E9,,,,0,,5,-2.29,1.56109798E9,357.0,NaN,NaN
Raw,232606918879054,649411188000000,,,-1265581155250566691,0.9424839019775391,42.27912359056063,-6.32605297778762,23.5123804344773,123,1,0.0,23567,384166354111204,12,32.3,384.3071594238281,0.048600003123283386,27,6850.855686868199,0.003958108324583987,1.57542003E9,,,,0,,6,-3.99,1.57542003E9,357.0,NaN,NaN
Raw,232606918879054,649411188000000,,,-1265581155250566691,0.9424839019775391,42.27912359056063,-6.32605297778762,23.5123804344773,123,4,0.0,23567,384166352109476,13,31.4,496.7861633300781,0.04610000178217888,27,8831.793757934038,0.004528989424958011,1.57542003E9,,,,0,,6,-3.99,1.57542003E9,357.0,NaN,NaN
Raw,232606918879054,649411188000000,,,-1265581155250566691,0.9424839019775391,42.27912359056063,-6.32605297778762,23.5123804344773,123,5,0.0,23567,384166353504259,19,27.0,-427.3787536621094,0.05130000039935112,27,-7461.399804141837,0.007212130206821385,1.57542003E9,,,,0,,6,-3.99,1.57542003E9,357.0,NaN,NaN
Raw,232606918879054,649411188000000,,,-1265581155250566691,0.9424839019775391,42.27912359056063,-6.32605297778762,23.5123804344773,123,9,0.0,23567,384166366842210,12,32.9,55.68547058105469,0.048600003123283386,27,1051.1615503660303,0.003958108324583987,1.57542003E9,,,,0,,6,-3.99,1.57542003E9,357.0,NaN,NaN
Raw,232606918879054,649411188000000,,,-1265581155250566691,0.9424839019775391,42.27912359056063,-6.32605297778762,23.5123804344773,123,24,0.0,23567,384166356837873,14,30.6,-557.8995361328125,0.04690000042319298,25,-9765.763106062293,0.005233075867304602,1.57542003E9,,,,0,,6,-3.99,1.57542003E9,357.0,NaN,NaN
Raw,232606918879054,649411188000000,,,-1265581155250566691,0.9424839019775391,42.27912359056063,-6.32605297778762,23.5123804344773,123,31,0.0,23567,384166359818187,13,31.1,-147.52932739257812,0.044600002467632294,27,-2089.837800462317,0.004528989424958011,1.57542003E9,,,,0,,6,-3.99,1.57542003E9,357.0,NaN,NaN
Raw,232606918879054,649411188000000,,,-1265581155250566691,0.9424839019775391,42.27912359056063,-6.32605297778762,23.5123804344773,123,24,0.0,81935,384166363108387,9,21.9,-589.3917846679688,0.7910000085830688,16,0.0,0.0,1.17645005E9,,,,0,,1,-3.24,1.17645005E9,357.0,NaN,NaN
Raw,232606918879054,649411188000000,,,-1265581155250566691,0.9424839019775391,42.27912359056063,-6.32605297778762,23.5123804344773,123,1,0.0,81935,384166354118286,16,16.5,384.25518798828125,1.9375,16,0.0,0.0,1.17645005E9,,,,0,,6,-3.24,1.17645005E9,357.0,NaN,NaN
Raw,232606918879054,649411188000000,,,-1265581155250566691,0.9424839019775391,42.27912359056063,-6.32605297778762,23.5123804344773,123,5,0.0,81935,384166353511329,6,25.8,-427.328125,0.07400000095367432,29,-4817.791502792673,0.010753742989341824,1.17645005E9,,,,0,,6,-3.24,1.17645005E9,357.0,NaN,NaN
Raw,232606918879054,649411188000000,,,-1265581155250566691,0.9424839019775391,42.27912359056063,-6.32605297778762,23.5123804344773,123,9,0.0,81935,384166366849319,10,20.8,55.64170455932617,0.7954999804496765,16,0.0,0.0,1.17645005E9,,,,0,,6,-3.24,1.17645005E9,357.0,NaN,NaN
Raw,232606918879054,649411188000000,,,-1265581155250566691,0.9424839019775391,42.27912359056063,-6.32605297778762,23.5123804344773,123,31,0.0,81935,384166359825264,5,27.6,-146.25856018066406,0.47999998927116394,16,0.0,0.0,1.17645005E9,,,,0,,6,-3.24,1.17645005E9,357.0,NaN,NaN
Fix,gps,51.524749,-0.134092,78.737915,0.340000,3.790092,1582195349000,232606899680979
Fix,gps,51.524748,-0.134092,78.583496,0.250000,3.790092,1582195350000,232607900914724
Raw,232607926756133,649412188000000,,,-1265581155250566718,0.1667194366455078,37.148311093915254,-16.0977673640089,19.519964867430602,123,5,0.0,16399,384167357453101,24,25.6,722.244384765625,0.058800000697374344,19,11188.745481045897,0.19029366893311156,1.57542003E9,,,,0,,1,-2.85,1.57542003E9,357.0,NaN,NaN
Raw,232607926756133,649412188000000,,,-1265581155250566718,0.1667194366455078,37.148311093915254,-16.0977673640089,19.519964867430602,123,13,0.0,16399,384167370570228,10,34.7,221.9503631591797,0.035600002855062485,25,4138.863030906975,0.0015223494237726067,1.57542003E9,,,,0,,1,-2.85,1.57542003E9,357.0,NaN,NaN
Raw,232607926756133,649412188000000,,,-1265581155250566718,0.1667194366455078,37.148311093915254,-16.0977673640089,19.519964867430602,123,15,0.0,16399,384167370899258,9,35.1,-112.05514526367188,0.035100001841783524,17,-1872.798568113423,0.0013320557236479321,1.57542003E9,,,,0,,1,-2.85,1.57542003E9,357.0,NaN,NaN
Raw,232607926756133,649412188000000,,,-1265581155250566718,0.1667194366455078,37.148311093915254,-16.0977673640089,19.519964867430602,123,17,0.0,16399,384167356194626,53,19.8,-541.6709594726562,0.9404999613761902,16,0.0,0.0,1.57542003E9,,,,0,,1,-2.85,1.57542003E9,357.0,NaN,NaN
Raw,232607926756133,649412188000000,,,-1265581155250566718,0.1667194366455078,37.148311093915254,-16.0977673640089,19.519964867430602,123,20,0.0,16399,384167362011052,46,20.5,-358.03753662109375,1.6694999933242798,16,0.0,0.0,1.57542003E9,,,,0,,1,-2.85,1.57542003E9,357.0,NaN,NaN
Raw,232607926756133,649412188000000,,,-1265581155250566718,0.1667194366455078,37.148311093915254,-16.0977673640089,19.519964867430602,123,24,0.0,16399,384167363102499,16,29.6,-589.548828125,0.460999995470047,16,0.0,0.0,1.57542003E9,,,,0,,1,-2.85,1.57542003E9,357.0,NaN,NaN
Raw,232607926756133,649412188000000,,,-1265581155250566718,0.1667194366455078,37.148311093915254,-16.0977673640089,19.519964867430602,123,28,0.0,16399,384167366968352,10,34.7,188.62400817871094,0.029600001871585846,17,3560.7684241505226,0.0015223494237726067,1.57542003E9,,,,0,,1,-2.85,1.57542003E9,357.0,NaN,NaN
Raw,232607926756133,649412188000000,,,-1265581155250566718,0.1667194366455078,37.148311093915254,-16.0977673640089,19.519964867430602,123,30,0.0,16399,384167360477276,40,21.6,586.818115234375,0.8464999794960022,16,0.0,0.0,1.57542003E9,,,,0,,1,-2.85,1.57542003E9,357.0,NaN,NaN
Raw,232607926756133,649412188000000,,,-1265581155250566718,0.1667194366455078,37.148311093915254,-16.0977673640089,19.519964867430602,123,14,0.0,49359,49349374716591,7,37.4,-29.701736450195312,0.24040000140666962,25,-520.3099335780382,9.94266504915028E-4,1.59806246E9,,,,0,,3,-4.81,1.59806246E9,357.0,NaN,NaN
Raw,232607926756133,649412188000000,,,-1265581155250566718,0.1667194366455078,37.148311093915254,-16.0977673640089,19.519964867430602,123,22,0.0,49359,49349361075762,40,21.2,-162.867919921875,0.9879999756813049,16,0.0,0.0,1.60031245E9,,,,0,,3,-4.81,1.60031245E9,357.0,NaN,NaN
Raw,232607926756133,649412188000000,,,-1265581155250566718,0.1667194366455078,37.148311093915254,-16.0977673640089,19.519964867430602,123,13,0.0,49359,49349367487494,53,19.6,638.5740356445312,1.877000093460083,16,0.0,0.0,1.60087501E9,,,,0,,3,-4.81,1.60087501E9,357.0,NaN,NaN
Raw,232607926756133,649412188000000,,,-1265581155250566718,0.1667194366455078,37.148311093915254,-16.0977673640089,19.519964867430602,123,15,0.0,49359,49349366695595,14,30.9,-660.496826171875,0.23190000653266907,25,-12073.418474919714,0.0023579182120561683,1.602E9,,,,0,,3,-4.81,1.602E9,357.0,NaN,NaN
Raw,232607926756133,649412188000000,,,-1265581155250566718,0.1667194366455078,37.148311093915254,-16.0977673640089,19.519964867430602,123,5,0.0,49359,49349369589934,8,36.6,-558.9485473632812,0.4599999785423279,16,0.0,0.0,1.60256256E9,,,,0,,3,-4.81,1.60256256E9,357.0,NaN,NaN
Raw,232607926756133,649412188000000,,,-1265581155250566718,0.1667194366455078,37.148311093915254,-16.0977673640089,19.519964867430602,123,3,0.0,49359,49349364214291,7,37.6,770.6336669921875,0.22540000081062317,21,14154.0876230186,9.900844722691658E-4,1.60481254E9,,,,0,,3,-4.81,1.60481254E9,357.0,NaN,NaN
Raw,232607926756133,649412188000000,,,-1265581155250566718,0.1667194366455078,37.148311093915254,-16.0977673640089,19.519964867430602,123,4,0.0,49359,49349374112143,8,36.4,207.1292724609375,0.24060000479221344,25,3818.0511729122186,0.0011391319696942128,1.60537498E9,,,,0,,3,-4.81,1.60537498E9,357.0,NaN,NaN
Raw,232607926756133,649412188000000,,,-1265581155250566718,0.1667194366455078,37.148311093915254,-16.0977673640089,19.519964867430602,123,37,0.0,16399,384153358944720,12,32.5,476.60150146484375,0.048600003123283386,25,8952.097819533934,0.0018243750799829725,1.56109798E9,,,,0,,5,-2.76,1.56109798E9,357.0,NaN,NaN
Raw,232607926756133,649412188000000,,,-1265581155250566718,0.1667194366455078,37.148311093915254,-16.0977673640089,19.519964867430602,123,22,0.0,16399,384153358725666,12,32.9,-404.8107604980469,0.048600003123283386,17,-6825.022927558341,0.0018243750799829725,1.56109798E9,,,,0,,5,-2.76,1.56109798E9,357.0,NaN,NaN
Raw,232607926756133,649412188000000,,,-1265581155250566718,0.1667194366455078,37.148311093915254,-16.0977673640089,19.519964867430602,123,20,0.0,16399,384153355535461,13,31.9,635.0053100585938,0.044600002467632294,25,10800.931212100128,0.0020932304434118673,1.56109798E9,,,,0,,5,-2.76,1.56109798E9,357.0,NaN,NaN
Raw,232607926756133,649412188000000,,,-1265581155250566718,0.1667194366455078,37.148311093915254,-16.0977673640089,19.519964867430602,123,19,0.0,16399,384153365027234,21,26.5,200.61907958984375,0.03420000150799751,19,3126.3545989201584,0.005492329335005111,1.56109798E9,,,,0,,5,-2.76,1.56109798E9,357.0,NaN,NaN
Raw,232607926756133,649412188000000,,,-1265581155250566718,0.1667194366455078,37.148311093915254,-16.0977673640089,19.519964867430602,123,1,0.0,23567,384167354109929,10,34.3,386.40380859375,0.047600001096725464,25,7238.608040251155,0.003311109885939926,1.57542003E9,,,,0,,6,-3.77,1.57542003E9,357.0,NaN,NaN
Raw,232607926756133,649412188000000,,,-1265581155250566718,0.1667194366455078,37.148311093915254,-16.0977673640089,19.519964867430602,123,4,0.0,23567,384167352107807,13,31.0,499.086181640625,0.04610000178217888,25,9332.01755902129,0.004528989424958011,1.57542003E9,,,,0,,6,-3.77,1.57542003E9,357.0,NaN,NaN
Raw,232607926756133,649412188000000,,,-1265581155250566718,0.1667194366455078,37.148311093915254,-16.0977673640089,19.519964867430602,123,5,0.0,23567,384167353505645,17,28.3,-425.36492919921875,0.050700001418590546,25,-7885.353342514124,0.006565131413727744,1.57542003E9,,,,0,,6,-3.77,1.57542003E9,357.0,NaN,NaN
Raw,232607926756133,649412188000000,,,-1265581155250566718,0.1667194366455078,37.148311093915254,-16.0977673640089,19.519964867430602,123,9,0.0,23567,384167366842017,10,34.1,57.90281295776367,0.047600001096725464,25,1110.3492241001843,0.003311109885939926,1.57542003E9,,,,0,,6,-3.77,1.57542003E9,357.0,NaN,NaN
Raw,232607926756133,649412188000000,,,-1265581155250566718,0.1667194366455078,37.148311093915254,-16.0977673640089,19.519964867430602,123,24,0.0,23567,384167356839733,16,29.8,-555.5552368164062,0.0479000024497509,21,-10320.312136015558,0.006146485344343376,1.57542003E9,,,,0,,6,-3.77,1.57542003E9,357.0,NaN,NaN
Raw,232607926756133,649412188000000,,,-1265581155250566718,0.1667194366455078,37.148311093915254,-16.0977673640089,19.519964867430602,123,31,0.0,23567,384167359818681,13,31.5,-145.3419952392578,0.044600002467632294,25,-2233.917931312126,0.004528989424958011,1.57542003E9,,,,0,,6,-3.77,1.57542003E9,357.0,NaN,NaN
Raw,232607926756133,649412188000000,,,-1265581155250566718,0.1667194366455078,37.148311093915254,-16.0977673640089,19.519964867430602,123,24,0.0,81935,384167363110344,9,21.9,-588.6782836914062,0.7910000085830688,16,0.0,0.0,1.17645005E9,,,,0,,1,-5.25,1.17645005E9,357.0,NaN,NaN
Raw,232607926756133,649412188000000,,,-1265581155250566718,0.1667194366455078,37.148311093915254,-16.0977673640089,19.519964867430602,123,4,0.0,81935,384167352114900,16,16.6,497.60272216796875,1.934499979019165,16,0.0,0.0,1.17645005E9,,,,0,,6,-5.25,1.17645005E9,357.0,NaN,NaN
Raw,232607926756133,649412188000000,,,-1265581155250566718,0.1667194366455078,37.148311093915254,-16.0977673640089,19.519964867430602,123,5,0.0,81935,384167353512745,8,23.2,-425.79266357421875,0.053700000047683716,29,-5241.68664222642,0.34557229348499413,1.17645005E9,,,,0,,6,-5.25,1.17645005E9,357.0,NaN,NaN
Raw,232607926756133,649412188000000,,,-1265581155250566718,0.1667194366455078,37.148311093915254,-16.0977673640089,19.519964867430602,123,31,0.0,81935,384167359825749,7,24.6,-146.1367645263672,0.07360000163316727,27,-1777.2240748740796,0.0411037634920868,1.17645005E9,,,,0,,6,-5.25,1.17645005E9,357.0,NaN,NaN
Fix,gps,51.524750,-0.134104,78.408813,0.000000,3.790092,1582195351000,232608899745501
Raw,232608938182849,649413188000000,,,-1265581155250566732,0.3086395263671875,38.25560997938737,-11.187061685537003,22.55779300442918,123,5,0.0,16399,384168357450633,24,25.2,720.7994995117188,0.058800000697374344,21,11909.384025376596,0.19029366893311156,1.57542003E9,,,,0,,1,-2.34,1.57542003E9,357.0,NaN,NaN
Raw,232608938182849,649413188000000,,,-1265581155250566732,0.3086395263671875,38.25560997938737,-11.187061685537003,22.55779300442918,123,13,0.0,16399,384168370569485,9,35.8,221.13418579101562,0.035100001841783524,25,4359.5780214233655,0.0013320557236479321,1.57542003E9,,,,0,,1,-2.34,1.57542003E9,357.0,NaN,NaN
Raw,232608938182849,649413188000000,,,-1265581155250566732,0.3086395263671875,38.25560997938737,-11.187061685537003,22.55779300442918,123,15,0.0,16399,384168370899670,7,37.2,-112.8311996459961,0.03440000116825104,25,-1986.1573981272904,0.0010085564157135064,1.57542003E9,,,,0,,1,-2.34,1.57542003E9,357.0,NaN,NaN
Raw,232608938182849,649413188000000,,,-1265581155250566732,0.3086395263671875,38.25560997938737,-11.187061685537003,22.55779300442918,123,20,0.0,16399,384168362012229,17,28.9,-357.6204528808594,0.028200000524520874,27,-6917.725734685879,0.0030066398239606148,1.57542003E9,,,,0,,1,-2.34,1.57542003E9,357.0,NaN,NaN
Raw,232608938182849,649413188000000,,,-1265581155250566732,0.3086395263671875,38.25560997938737,-11.187061685537003,22.55779300442918,123,24,0.0,16399,384168363104492,12,32.3,-589.5255126953125,0.026100000366568565,27,-11143.6321238335,0.001807789796734829,1.57542003E9,,,,0,,1,-2.34,1.57542003E9,357.0,NaN,NaN
Raw,232608938182849,649413188000000,,,-1265581155250566732,0.3086395263671875,38.25560997938737,-11.187061685537003,22.55779300442918,123,28,0.0,16399,384168366967727,6,38.7,187.9132843017578,0.02810000069439411,25,3748.2402476834213,9.324389888310735E-4,1.57542003E9,,,,0,,1,-2.34,1.57542003E9,357.0,NaN,NaN
Raw,232608938182849,649413188000000,,,-1265581155250566732,0.3086395263671875,38.25560997938737,-11.187061685537003,22.55779300442918,123,30,0.0,16399,384168360475297,27,24.0,586.2549438476562,0.02630000002682209,19,11503.89819781632,0.19029366893311156,1.57542003E9,,,,0,,1,-2.34,1.57542003E9,357.0,NaN,NaN
Raw,232608938182849,649413188000000,,,-1265581155250566732,0.3086395263671875,38.25560997938737,-11.187061685537003,22.55779300442918,123,14,0.0,49359,49350374716698,9,35.2,-30.525453567504883,0.241100013256073,25,-551.3090122954303,0.0013131822554185268,1.59806246E9,,,,0,,3,-4.64,1.59806246E9,357.0,NaN,NaN
Raw,232608938182849,649413188000000,,,-1265581155250566732,0.3086395263671875,38.25560997938737,-11.187061685537003,22.55779300442918,123,22,0.0,49359,49350361076504,27,24.8,-163.31442260742188,0.22780001163482666,27,-2018.1610854457865,0.18733370372433672,1.60031245E9,,,,0,,3,-4.64,1.60031245E9,357.0,NaN,NaN
